     3.01           OBSERVATION DATA    M: Mixed            RINEX VERSION / TYPE
CONVBIN 2.4.3 Emlid                     20171115 194513 UTC PGM / RUN BY / DATE 
log: /home/reach/logs/rov_201711151829.ubx                  COMMENT             
format: u-blox                                              COMMENT             
                                                            MARKER NAME         
                                                            MARKER NUMBER       
                                                            MARKER TYPE         
                                                            OBSERVER / AGENCY   
                                                            REC # / TYPE / VERS 
                                                            ANT # / TYPE        
  3463709.3274 -4304281.4033 -3176336.1021                  APPROX POSITION XYZ 
        0.0000        0.0000        0.0000                  ANTENNA: DELTA H/E/N
G    4 C1C L1C D1C S1C                                      SYS / # / OBS TYPES 
R    4 C1C L1C D1C S1C                                      SYS / # / OBS TYPES 
E    4 C1C L1C D1C S1C                                      SYS / # / OBS TYPES 
J    4 C1C L1C D1C S1C                                      SYS / # / OBS TYPES 
S    4 C1C L1C D1C S1C                                      SYS / # / OBS TYPES 
C    4 C1I L1I D1I S1I                                      SYS / # / OBS TYPES 
  2017    11    15    18    29   27.0000000     GPS         TIME OF FIRST OBS   
  2017    11    15    18    32    7.6000000     GPS         TIME OF LAST OBS    
                                                            END OF HEADER       
> 2017 11 15 18 29 27.0000000  0 16                     
G 2  20648982.620   108511127.338       -1604.819          48.000  
G 5  24125558.020   126780685.535        2172.391          44.000  
G 6  23707876.658   124585790.368       -3215.619          42.000  
G12  20731505.136   108944792.173         405.682          49.000  
R12  22242089.789   118813277.820        3802.453          45.000  
G24  21638368.888   113710362.172       -2744.594          45.000  
G25  22060471.541   115928553.711        2165.441          46.000  
G29  21780169.688   114455575.429        1238.102          48.000  
G32  25750363.743                1      -1238.729          26.000  
G20  25017455.523                1       2655.000          17.000  
R10  20867956.782   111237927.438       -2966.095          42.000  
R22  20786327.949   110958826.833        1607.074          46.000  
R11  19379204.002   103556576.750         888.231          47.000  
R20  23600774.901   126203978.740       -3705.558          39.000  
R21  19973409.281   106881751.928       -1962.978          48.000  
S20  37909747.463   199217047.079         -26.648          41.000  
> 2017 11 15 18 29 27.2000000  0 16                     
G 2  20649043.695   108511448.304       -1605.038          48.000  
G 5  24125475.341   126780251.046        2172.185          44.000  
G 6  23707999.123   124586433.467       -3215.735          42.000  
G12  20731489.622   108944711.021         405.505          49.000  
R12  22241947.395   118812517.290        3802.453          45.000  
G24  21638473.292   113710911.077       -2744.813          45.000  
G25  22060389.246   115928120.575        2165.438          46.000  
G29  21780122.678   114455327.784        1237.956          48.000  
G32  25750410.684                1      -1238.770          26.000  
G20  25017354.817                1       2655.000          16.000  
R10  20868068.219   111238520.641       -2966.076          41.000  
R22  20786267.833   110958505.470        1606.708          46.000  
R11  19379170.794   103556399.099         888.041          47.000  
R20  23600913.595   126204719.839       -3705.376          39.000  
R21  19973482.606   106882144.511       -1963.030          49.000  
S20  37909748.353   199217052.411         -26.896          41.000  
> 2017 11 15 18 29 27.4000000  0 16                     
G 2  20649104.684   108511769.290       -1604.519          48.000  
G 5  24125392.766   126779816.561        2172.965          44.000  
G 6  23708121.554   124587076.585       -3215.405          42.000  
G12  20731474.074   108944629.879         406.049          49.000  
R12  22241804.914   118811756.772        3803.211          45.000  
G24  21638577.784   113711460.005       -2744.266          45.000  
G25  22060306.846   115927687.458        2166.204          46.000  
G29  21780075.562   114455080.144        1238.509          48.000  
G32  25750457.468                1      -1239.074          26.000  
G20  25017254.234                1       2655.000          17.000  
R10  20868179.586   111239113.876       -2965.881          42.000  
R22  20786207.700   110958184.117        1607.227          46.000  
R11  19379137.691   103556221.490         888.487          47.000  
R20  23601052.237   126205460.947       -3705.227          39.000  
R21  19973556.072   106882537.110       -1962.651          49.000  
S20  37909749.331   199217057.751         -26.301          41.000  
> 2017 11 15 18 29 27.6000000  0 16                     
G 2  20649165.585   108512090.309       -1604.962          48.000  
G 5  24125310.261   126779382.096        2172.465          44.000  
G 6  23708243.932   124587719.683       -3215.356          42.000  
G12  20731458.578   108944548.755         405.743          49.000  
R12  22241662.433   118810996.281        3802.726          45.000  
G24  21638682.293   113712008.955       -2744.675          45.000  
G25  22060224.307   115927254.360        2165.710          46.000  
G29  21780028.394   114454832.523        1238.178          48.000  
G32  25750503.798   135319801.5481      -1238.635          26.000  
G20  25017152.308                1       2655.000          16.000  
R10  20868290.849   111239707.129       -2966.211          41.000  
R22  20786147.653   110957862.804        1606.683          46.000  
R11  19379104.623   103556043.914         887.952          47.000  
R20  23601190.984   126206202.037       -3705.402          39.000  
R21  19973629.485   106882929.736       -1962.948          49.000  
S20  37909750.308   199217063.083         -26.292          41.000  
> 2017 11 15 18 29 27.8000000  0 16                     
G 2  20649226.574   108512411.297       -1604.839          48.000  
G 5  24125227.547   126778947.546        2172.894          44.000  
G 6  23708366.346   124588362.759       -3215.210          42.000  
G12  20731443.117   108944467.575         405.890          49.000  
R12  22241519.969   118810235.734        3802.757          45.000  
G24  21638786.681   113712557.848       -2744.607          45.000  
G25  22060141.854   115926821.195        2165.818          46.000  
G29  21779981.278   114454584.849        1238.501          48.000  
G32  25750550.966   135320049.2761      -1238.372          25.000  
G20  25017048.898                1       2655.000          16.000  
R10  20868402.146   111240300.343       -2966.101          42.000  
R22  20786087.468   110957541.440        1606.738          46.000  
R11  19379071.467   103555866.301         888.040          48.000  
R20  23601329.538   126206943.060       -3705.028          39.000  
R21  19973702.863   106883322.299       -1962.770          49.000  
S20  37909751.285   199217068.372         -26.404          41.000  
> 2017 11 15 18 29 28.0000000  0 16                     
G 2  20649287.667   108512732.221       -1604.683          48.000  
G 5  24125144.798   126778512.928        2173.280          44.000  
G 6  23708488.689   124589005.756       -3214.935          42.000  
G12  20731427.726   108944386.319         406.403          49.000  
R12  22241377.453   118809475.102        3803.155          45.000  
G24  21638891.155   113713106.664       -2744.067          45.000  
G25  22060059.367   115926387.937        2166.319          46.000  
G29  21779934.093   114454337.107        1238.704          48.000  
G32  25750596.756   135320296.8291      -1237.362          25.000  
G20  25016945.680                1       2655.000          16.000  
R10  20868513.461   111240893.486       -2965.753          42.000  
R22  20786027.299   110957220.006        1607.110          46.000  
R11  19379038.347   103555688.628         888.276          48.000  
R20  23601468.215   126207684.000       -3704.526          39.000  
R21  19973776.259   106883714.797       -1962.444          49.000  
S20  37909752.245   199217073.563         -25.894          41.000  
> 2017 11 15 18 29 28.2000000  0 16                     
G 2  20649348.795   108513053.073       -1604.428          48.000  
G 5  24125062.015   126778078.215        2173.684          44.000  
G 6  23708611.085   124589648.658       -3214.447          42.000  
G12  20731412.248   108944304.984         406.824          49.000  
R12  22241235.007   118808714.380        3803.776          45.000  
G24  21638995.647   113713655.413       -2743.661          45.000  
G25  22059976.793   115925954.599        2166.724          46.000  
G29  21779886.873   114454089.257        1239.361          48.000  
G32  25750642.981   135320544.3811      -1237.260          25.000  
G20  25016842.654                1       2655.000          16.000  
R10  20868624.828   111241486.552       -2965.167          42.000  
R22  20785967.113   110956898.500        1607.538          46.000  
R11  19379005.209   103555510.883         888.738          48.000  
R20  23601606.700   126208424.812       -3703.831          39.000  
R21  19973849.550   106884107.217       -1962.030          49.000  
S20  37909753.257   199217078.674         -25.231          41.000  
> 2017 11 15 18 29 28.4000000  0 16                     
G 2  20649409.923   108513373.915       -1604.181          48.000  
G 5  24124979.231   126777643.479        2173.865          44.000  
G 6  23708733.271   124590291.545       -3214.245          42.000  
G12  20731396.787   108944223.624         406.940          49.000  
R12  22241092.526   118807953.650        3803.823          45.000  
G24  21639100.122   113714204.146       -2743.526          45.000  
G25  22059894.323   115925521.219        2167.136          46.000  
G29  21779839.705   114453841.406        1239.391          48.000  
G32  25750690.184   135320791.9191      -1237.343          25.000  
G20  25016741.355                1       2655.000          16.000  
R10  20868736.126   111242079.618       -2964.935          42.000  
R22  20785906.875   110956576.975        1607.764          46.000  
R11  19378972.123   103555333.134         888.897          48.000  
R20  23601745.290   126209165.624       -3703.623          39.000  
R21  19973922.788   106884499.608       -1961.756          48.000  
S20  37909754.182   199217083.767         -25.326          41.000  
> 2017 11 15 18 29 28.6000000  0 16                     
G 2  20649470.964   108513694.781       -1604.408          48.000  
G 5  24124896.342   126777208.734        2173.819          44.000  
G 6  23708855.720   124590934.424       -3214.362          42.000  
G12  20731381.361   108944142.261         406.952          49.000  
R12  22240950.010   118807192.901        3803.707          45.000  
G24  21639204.526   113714752.895       -2743.705          45.000  
G25  22059811.766   115925087.852        2166.917          46.000  
G29  21779792.589   114453593.544        1239.265          48.000  
G32  25750736.951                1      -1238.038          24.000  
G20  25016638.783                1       2655.000          15.000  
R10  20868847.458   111242672.702       -2965.521          41.000  
R22  20785846.707   110956255.454        1607.757          46.000  
R11  19378938.828   103555155.412         888.637          48.000  
R20  23601883.827   126209906.429       -3703.905          39.000  
R21  19973996.044   106884892.022       -1962.060          48.000  
S20  37909755.124   199217088.817         -25.236          41.000  
> 2017 11 15 18 29 28.8000000  0 16                     
G 2  20649531.970   108514015.597       -1604.183          48.000  
G 5  24124813.419   126776773.944        2173.968          44.000  
G 6  23708978.150   124591577.262       -3214.136          42.000  
G12  20731365.708   108944060.864         407.117          49.000  
R12  22240807.582   118806432.112        3804.019          45.000  
G24  21639308.809   113715301.575       -2743.358          45.000  
G25  22059729.331   115924654.425        2167.166          46.000  
G29  21779745.544   114453345.634        1239.639          48.000  
G32  25750783.909                1      -1237.306          24.000  
G20  25016536.961                1       2655.000          15.000  
R10  20868958.721   111243265.732       -2965.179          41.000  
R22  20785786.504   110955933.922        1607.794          46.000  
R11  19378905.655   103554977.658         888.721          48.000  
R20  23602022.347   126210647.148       -3703.441          38.000  
R21  19974069.405   106885284.375       -1961.794          48.000  
S20  37909756.084   199217093.833         -24.879          41.000  
> 2017 11 15 18 29 29.0000000  0 16                     
G 2  20649592.976   108514336.479       -1604.307          48.000  
G 5  24124730.722   126776339.185        2173.874          44.000  
G 6  23709100.494   124592220.133       -3214.264          42.000  
G12  20731350.212   108943979.483         407.062          49.000  
R12  22240665.083   118805671.358        3803.832          45.000  
G24  21639413.109   113715850.315       -2743.702          45.000  
G25  22059646.879   115924221.024        2167.198          46.000  
G29  21779698.445   114453097.758        1239.602          48.000  
G32  25750831.252                1      -1237.811          24.000  
G20  25016435.697                1       2655.000          14.000  
R10  20869070.001   111243858.824       -2965.271          41.000  
R22  20785726.231   110955612.421        1607.581          46.000  
R11  19378872.605   103554799.962         888.395          48.000  
R20  23602160.797   126211387.895       -3703.883          38.000  
R21  19974142.644   106885676.779       -1961.847          48.000  
S20  37909757.096   199217098.868         -25.119          41.000  
> 2017 11 15 18 29 29.2000000  0 16                     
G 2  20649653.912   108514657.327       -1604.237          47.000  
G 5  24124648.008   126775904.356        2174.198          44.000  
G 6  23709222.872   124592862.967       -3214.215          42.000  
G12  20731334.612   108943898.084         407.117          49.000  
R12  22240522.550   118804910.568        3803.925          45.000  
G24  21639517.409   113716399.018       -2743.603          45.000  
G25  22059564.322   115923787.574        2167.341          46.000  
G29  21779651.225   114452849.849        1239.642          48.000  
G32  25750879.449                1      -1237.739          24.000  
G20  25016334.015                1       2655.000          14.000  
R10  20869181.420   111244451.883       -2965.313          41.000  
R22  20785665.975   110955290.893        1607.672          46.000  
R11  19378839.502   103554622.234         888.613          48.000  
R20  23602299.212   126212128.576       -3703.339          38.000  
R21  19974215.969   106886069.158       -1961.893          48.000  
S20  37909758.021   199217103.849         -24.900          41.000  
> 2017 11 15 18 29 29.4000000  0 16                     
G 2  20649714.866   108514978.220       -1604.431          47.000  
G 5  24124565.294   126775469.561        2174.012          44.000  
G 6  23709345.251   124593505.817       -3214.160          42.000  
G12  20731319.151   108943816.700         407.013          49.000  
R12  22240380.069   118804149.791        3803.845          45.000  
G24  21639621.726   113716947.740       -2743.577          45.000  
G25  22059481.887   115923354.146        2167.200          46.000  
G29  21779603.987   114452601.962        1239.445          48.000  
G32  25750927.385                1      -1236.778          25.000  
G20  25016232.210                1       2655.000          14.000  
R10  20869292.840   111245044.989       -2965.479          41.000  
R22  20785605.824   110954969.396        1607.525          46.000  
R11  19378806.399   103554444.556         888.437          47.000  
R20  23602437.767   126212869.276       -3703.301          38.000  
R21  19974289.278   106886461.552       -1961.955          48.000  
S20  37909759.068   199217108.836         -24.846          41.000  
> 2017 11 15 18 29 29.6000000  0 15                     
G 2  20649776.011   108515299.056       -1604.335          47.000  
G 5  24124482.545   126775034.685        2174.359          44.000  
G 6  23709467.524   124594148.600       -3213.965          42.000  
G12  20731303.655   108943735.249         407.281          49.000  
R12  22240237.588   118803388.932        3804.315          45.000  
G24  21639726.148   113717496.410       -2743.337          45.000  
G25  22059399.400   115922920.640        2167.474          46.000  
G29  21779556.767   114452354.000        1239.965          48.000  
G32  25750975.879   135322277.0111      -1237.673          25.000  
R10  20869404.260   111245638.030       -2965.485          41.000  
R22  20785545.638   110954647.838        1607.806          46.000  
R11  19378773.296   103554266.822         888.717          47.000  
R20  23602576.199   126213609.917       -3703.515          38.000  
R21  19974362.516   106886853.886       -1961.627          48.000  
S20  37909760.028   199217113.735         -24.401          41.000  
> 2017 11 15 18 29 29.8000000  0 15                     
G 2  20649837.035   108515619.858       -1603.936          47.000  
G 5  24124399.709   126774599.762        2174.730          44.000  
G 6  23709589.920   124594791.342       -3213.592          42.000  
G12  20731288.125   108943653.760         407.629          49.000  
R12  22240095.124   118802628.048        3804.758          45.000  
G24  21639830.465   113718045.044       -2742.962          45.000  
G25  22059316.826   115922487.089        2167.860          46.000  
G29  21779509.599   114452106.004        1240.173          48.000  
G32  25751023.256   135322524.4301      -1236.955          25.000  
R10  20869515.505   111246231.027       -2965.173          41.000  
R22  20785485.505   110954326.262        1608.093          46.000  
R11  19378740.315   103554089.081         888.881          47.000  
R20  23602714.597   126214350.466       -3702.852          38.000  
R21  19974435.825   106887246.189       -1961.394          48.000  
S20  37909760.883   199217118.600         -23.978          41.000  
> 2017 11 15 18 29 30.0000000  0 15                     
G 2  20649898.075   108515940.646       -1603.894          48.000  
G 5  24124316.943   126774164.811        2174.627          44.000  
G 6  23709712.246   124595434.054       -3213.617          42.000  
G12  20731272.821   108943572.250         407.452          49.000  
R12  22239952.678   118801867.132        3804.499          45.000  
G24  21639934.731   113718593.653       -2743.026          45.000  
G25  22059234.321   115922053.502        2168.002          46.000  
G29  21779462.449   114451857.971        1240.111          48.000  
G32  25751069.168   135322771.8261      -1237.050          25.000  
R10  20869626.750   111246824.020       -2964.874          41.000  
R22  20785425.232   110954004.661        1607.898          46.000  
R11  19378707.089   103553911.325         888.678          48.000  
R20  23602853.082   126215090.959       -3702.207          38.000  
R21  19974508.958   106887638.459       -1961.412          48.000  
S20  37909761.842   199217123.423         -24.224          41.000  
> 2017 11 15 18 29 30.2000000  0 15                     
G 2  20649959.169   108516261.486       -1603.786          48.000  
G 5  24124234.124   126773729.859        2175.133          44.000  
G 6  23709834.485   124596076.795       -3213.373          42.000  
G12  20731257.238   108943490.760         407.703          50.000  
R12  22239810.110   118801106.232        3804.872          45.000  
G24  21640039.153   113719142.285       -2742.832          45.000  
G25  22059151.729   115921619.947        2168.102          46.000  
G29  21779415.368   114451609.970        1240.318          49.000  
G32  25751116.179   135323019.2521      -1237.003          25.000  
R10  20869738.047   111247417.067       -2965.008          41.000  
R22  20785365.046   110953683.103        1608.026          46.000  
R11  19378673.829   103553733.617         888.886          48.000  
R20  23602991.567   126215831.494       -3702.081          38.000  
R21  19974582.162   106888030.765       -1961.247          48.000  
S20  37909762.715   199217128.208         -23.777          41.000  
> 2017 11 15 18 29 30.4000000  0 15                     
G 2  20650020.192   108516582.315       -1604.157          48.000  
G 5  24124151.323   126773294.895        2174.841          44.000  
G 6  23709956.724   124596719.514       -3213.519          42.000  
G12  20731241.742   108943409.247         407.465          50.000  
R12  22239667.594   118800345.318        3804.714          44.000  
G24  21640143.575   113719690.912       -2743.055          45.000  
G25  22059069.102   115921186.349        2168.066          46.000  
G29  21779368.113   114451361.949        1240.071          49.000  
G32  25751164.202   135323266.6151      -1236.880          25.000  
R10  20869849.327   111248010.082       -2965.118          41.000  
R22  20785304.721   110953361.524        1607.837          46.000  
R11  19378640.761   103553555.909         888.505          48.000  
R20  23603130.069   126216571.986       -3702.237          38.000  
R21  19974655.331   106888423.053       -1961.501          48.000  
S20  37909763.675   199217132.981         -23.614          41.000  
> 2017 11 15 18 29 30.6000000  0 15                     
G 2  20650081.250   108516903.162       -1604.390          48.000  
G 5  24124068.469   126772859.920        2174.965          44.000  
G 6  23710079.032   124597362.236       -3213.812          42.000  
G12  20731226.229   108943327.731         407.385          50.000  
R12  22239525.095   118799584.394        3804.581          44.000  
G24  21640247.805   113720239.540       -2743.323          45.000  
G25  22058986.633   115920752.753        2167.967          45.000  
G29  21779320.962   114451113.919        1239.994          49.000  
G32  25751211.474   135323513.9931      -1236.952          25.000  
R10  20869960.590   111248603.115       -2965.271          41.000  
R22  20785244.639   110953039.968        1607.721          46.000  
R11  19378607.553   103553378.221         888.232          48.000  
R20  23603268.607   126217312.471       -3702.695          38.000  
R21  19974728.587   106888815.346       -1961.608          48.000  
S20  37909764.600   199217137.749         -23.872          41.000  
> 2017 11 15 18 29 30.8000000  0 15                     
G 2  20650142.274   108517223.981       -1603.899          48.000  
G 5  24123985.615   126772424.906        2175.382          44.000  
G 6  23710201.254   124598004.917       -3213.025          42.000  
G12  20731210.733   108943246.189         407.904          50.000  
R12  22239382.649   118798823.444        3805.048          44.000  
G24  21640352.140   113720788.133       -2742.792          45.000  
G25  22058904.058   115920319.115        2168.375          46.000  
G29  21779273.794   114450865.859        1240.549          49.000  
G32  25751260.230   135323761.3611      -1236.682          26.000  
R10  20870071.940   111249196.124       -2964.740          41.000  
R22  20785184.506   110952718.379        1608.111          46.000  
R11  19378574.433   103553200.514         888.658          48.000  
R20  23603407.144   126218052.879       -3701.872          38.000  
R21  19974801.634   106889207.605       -1961.066          48.000  
S20  37909765.594   199217142.444         -22.990          41.000  
> 2017 11 15 18 29 31.0000000  0 15                     
G 2  20650203.332   108517544.774       -1604.092          48.000  
G 5  24123902.866   126771989.853        2175.198          44.000  
G 6  23710323.527   124598647.556       -3213.263          42.000  
G12  20731195.324   108943164.607         407.782          50.000  
R12  22239240.063   118798062.453        3804.709          45.000  
G24  21640456.597   113721336.698       -2743.070          45.000  
G25  22058821.519   115919885.427        2168.271          46.000  
G29  21779226.661   114450617.754        1240.424          49.000  
G32  25751308.166   135324008.7011      -1236.621          26.000  
R10  20870183.115   111249789.112       -2964.899          41.000  
R22  20785124.320   110952396.761        1607.953          46.000  
R11  19378541.085   103553022.789         888.439          48.000  
R20  23603545.681   126218793.237       -3701.709          38.000  
R21  19974874.855   106889599.840       -1961.254          48.000  
S20  37909766.467   199217147.117         -23.303          41.000  
> 2017 11 15 18 29 31.2000000  0 15                     
G 2  20650264.338   108517865.569       -1603.864          48.000  
G 5  24123820.187   126771554.767        2175.618          44.000  
G 6  23710445.766   124599290.185       -3212.885          42.000  
G12  20731179.671   108943082.994         408.221          50.000  
R12  22239097.565   118797301.434        3805.290          45.000  
G24  21640561.019   113721885.233       -2742.440          45.000  
G25  22058739.049   115919451.713        2168.772          46.000  
G29  21779179.424   114450369.632        1240.844          49.000  
G32  25751355.160   135324256.0621      -1236.997          26.000  
R10  20870294.325   111250382.085       -2964.648          41.000  
R22  20785064.065   110952075.135        1608.154          46.000  
R11  19378507.913   103552845.064         888.639          48.000  
R20  23603684.096   126219533.587       -3701.407          38.000  
R21  19974947.971   106889992.057       -1960.898          48.000  
S20  37909767.409   199217151.718         -22.575          41.000  
> 2017 11 15 18 29 31.4000000  0 15                     
G 2  20650325.414   108518186.363       -1603.857          48.000  
G 5  24123737.526   126771119.653        2175.658          44.000  
G 6  23710567.970   124599932.783       -3212.799          41.000  
G12  20731164.263   108943001.375         408.270          50.000  
R12  22238955.049   118796540.395        3805.469          45.000  
G24  21640665.441   113722433.782       -2742.588          45.000  
G25  22058656.457   115919017.968        2168.960          46.000  
G29  21779132.151   114450121.489        1240.925          49.000  
G32  25751403.305   135324503.3601      -1236.843          26.000  
R10  20870405.640   111250975.061       -2964.752          41.000  
R22  20785003.739   110951753.490        1608.411          46.000  
R11  19378474.565   103552667.333         888.730          48.000  
R20  23603822.494   126220273.904       -3701.624          38.000  
R21  19975021.018   106890384.254       -1960.759          48.000  
S20  37909768.386   199217156.296         -22.477          41.000  
> 2017 11 15 18 29 31.6000000  0 15                     
G 2  20650386.507   108518507.208       -1604.402          48.000  
G 5  24123654.655   126770684.576        2175.197          44.000  
G 6  23710690.209   124600575.430       -3213.379          42.000  
G12  20731148.662   108942919.797         407.849          50.000  
R12  22238812.603   118795779.411        3804.739          45.000  
G24  21640769.776   113722982.367       -2743.165          45.000  
G25  22058573.865   115918584.283        2168.300          46.000  
G29  21779084.948   114449873.396        1240.296          49.000  
G32  25751450.385   135324750.6891      -1237.023          26.000  
R10  20870516.781   111251568.074       -2965.442          41.000  
R22  20784943.466   110951431.921        1607.708          46.000  
R11  19378441.357   103552489.665         888.194          48.000  
R20  23603960.944   126221014.231       -3701.981          38.000  
R21  19975094.274   106890776.511       -1961.374          48.000  
S20  37909769.224   199217160.899         -23.024          41.000  
> 2017 11 15 18 29 31.8000000  0 15                     
G 2  20650447.670   108518828.005       -1604.134          48.000  
G 5  24123571.818   126770249.425        2175.648          44.000  
G 6  23710812.430   124601218.009       -3213.031          42.000  
G12  20731133.167   108942838.157         408.136          50.000  
R12  22238670.104   118795018.342        3805.183          45.000  
G24  21640874.093   113723530.882       -2742.677          45.000  
G25  22058491.360   115918150.510        2168.663          46.000  
G29  21779037.658   114449625.225        1240.750          49.000  
G32  25751498.880   135324997.8801      -1236.134          26.000  
R10  20870628.061   111252161.055       -2965.179          41.000  
R22  20784883.211   110951110.282        1607.928          46.000  
R11  19378408.254   103552311.958         888.388          47.000  
R20  23604099.412   126221754.462       -3701.185          38.000  
R21  19975167.338   106891168.704       -1961.052          48.000  
S20  37909770.149   199217165.446         -22.824          41.000  
> 2017 11 15 18 29 32.0000000  0 15                     
G 2  20650508.711   108519148.789       -1603.814          48.000  
G 5  24123489.052   126769814.246        2176.173          44.000  
G 6  23710934.651   124601860.564       -3212.531          42.000  
G12  20731117.566   108942756.489         408.575          50.000  
R12  22238527.571   118794257.242        3805.743          45.000  
G24  21640978.393   113724079.388       -2742.379          45.000  
G25  22058408.769   115917716.701        2169.297          46.000  
G29  21778990.438   114449377.044        1241.042          49.000  
G32  25751544.983   135325245.1461      -1236.157          26.000  
R10  20870739.219   111252754.009       -2964.771          41.000  
R22  20784822.990   110950788.623        1608.490          46.000  
R11  19378375.064   103552134.233         888.718          47.000  
R20  23604237.722   126222494.686       -3700.598          38.000  
R21  19975240.472   106891560.872       -1960.703          48.000  
S20  37909770.917   199217169.957         -22.422          41.000  
> 2017 11 15 18 29 32.2000000  0 15                     
G 2  20650569.647   108519469.579       -1603.788          48.000  
G 5  24123406.425   126769379.068        2176.072          44.000  
G 6  23711056.855   124602503.114       -3212.494          42.000  
G12  20731102.070   108942674.825         408.484          50.000  
R12  22238384.846   118793496.146        3805.602          44.000  
G24  21641082.728   113724627.900       -2742.241          45.000  
G25  22058326.247   115917282.893        2169.158          46.000  
G29  21778943.182   114449128.845        1241.110          49.000  
G32  25751592.483   135325492.420       -1236.254          25.000  
R10  20870850.604   111253346.969       -2964.636          41.000  
R22  20784762.874   110950466.981        1608.380          46.000  
R11  19378341.787   103551956.529         888.588          47.000  
R20  23604376.137   126223234.874       -3700.934          38.000  
R21  19975313.623   106891953.041       -1960.626          48.000  
S20  37909771.789   199217174.465         -22.366          41.000  
> 2017 11 15 18 29 32.4000000  0 15                     
G 2  20650630.653   108519790.366       -1604.160          48.000  
G 5  24123323.624   126768943.832        2175.906          44.000  
G 6  23711179.146   124603145.628       -3212.585          42.000  
G12  20731086.697   108942593.125         408.405          50.000  
R12  22238242.242   118792735.019        3805.405          44.000  
G24  21641187.150   113725176.384       -2742.601          45.000  
G25  22058243.690   115916849.044        2169.094          46.000  
G29  21778896.015   114448880.618        1241.049          49.000  
G32  25751640.593   135325739.5661      -1235.689          26.000  
R10  20870961.918   111253939.917       -2965.027          41.000  
R22  20784702.636   110950145.311        1608.246          46.000  
R11  19378308.474   103551778.802         888.511          47.000  
R20  23604514.482   126223975.010       -3700.771          38.000  
R21  19975386.861   106892345.192       -1960.984          48.000  
S20  37909772.644   199217178.939         -22.596          41.000  
> 2017 11 15 18 29 32.6000000  0 15                     
G 2  20650691.833   108520111.202       -1604.151          48.000  
G 5  24123240.823   126768508.640        2176.051          44.000  
G 6  23711301.507   124603788.192       -3212.659          42.000  
G12  20731071.131   108942511.474         408.398          50.000  
R12  22238099.796   118791973.935        3805.351          44.000  
G24  21641291.572   113725724.925       -2742.787          45.000  
G25  22058161.150   115916415.227        2169.113          46.000  
G29  21778848.655   114448632.443        1240.968          49.000  
G32  25751688.459   135325986.8931      -1236.715          26.000  
R10  20871073.146   111254532.921       -2965.002          41.000  
R22  20784642.450   110949823.706        1608.221          46.000  
R11  19378275.249   103551601.157         888.260          47.000  
R20  23604652.915   126224715.204       -3701.009          38.000  
R21  19975459.978   106892737.390       -1961.020          48.000  
S20  37909773.464   199217183.441         -22.614          41.000  
> 2017 11 15 18 29 32.8000000  0 15                     
G 2  20650752.962   108520432.050       -1604.206          48.000  
G 5  24123158.021   126768073.435        2176.216          44.000  
G 6  23711423.833   124604430.755       -3212.823          42.000  
G12  20731055.757   108942429.827         408.234          50.000  
R12  22237957.280   118791212.842        3805.313          44.000  
G24  21641395.959   113726273.457       -2742.667          45.000  
G25  22058078.610   115915981.410        2169.182          46.000  
G29  21778801.399   114448384.257        1240.997          49.000  
G32  25751736.691   135326234.1571      -1236.271          26.000  
R10  20871184.391   111255125.920       -2965.002          41.000  
R22  20784582.229   110949502.097        1608.209          46.000  
R11  19378241.919   103551423.515         888.185          47.000  
R20  23604791.382   126225455.345       -3700.622          38.000  
R21  19975533.234   106893129.581       -1960.887          48.000  
S20  37909774.302   199217187.941         -22.480          41.000  
> 2017 11 15 18 29 33.0000000  0 15                     
G 2  20650813.845   108520752.964       -1604.708          48.000  
G 5  24123075.255   126767638.281        2175.797          44.000  
G 6  23711546.107   124605073.349       -3213.086          42.000  
G12  20731040.157   108942348.205         408.057          50.000  
R12  22237814.852   118790451.784        3805.207          45.000  
G24  21641500.294   113726822.037       -2742.981          45.000  
G25  22057996.088   115915547.625        2168.839          46.000  
G29  21778754.144   114448136.114        1240.641          49.000  
G32  25751784.470   135326481.445       -1236.699          26.000  
R10  20871295.689   111255719.002       -2965.631          41.000  
R22  20784522.043   110949180.560        1607.660          46.000  
R11  19378208.711   103551245.936         887.902          47.000  
R20  23604929.937   126226195.554       -3701.076          38.000  
R21  19975606.455   106893521.818       -1961.189          48.000  
S20  37909775.279   199217192.508         -23.128          41.000  
> 2017 11 15 18 29 33.2000000  0 15                     
G 2  20650874.921   108521073.850       -1604.605          48.000  
G 5  24122992.524   126767203.076        2175.908          44.000  
G 6  23711668.450   124605715.916       -3212.903          42.000  
G12  20731024.591   108942266.561         407.989          50.000  
R12  22237672.388   118789690.692        3805.523          45.000  
G24  21641604.716   113727370.575       -2742.667          45.000  
G25  22057913.462   115915113.795        2168.957          46.000  
G29  21778706.819   114447887.931        1240.794          49.000  
G32  25751832.057   135326728.739       -1236.460          26.000  
R10  20871406.934   111256312.048       -2965.558          41.000  
R22  20784461.770   110948858.980        1607.641          46.000  
R11  19378175.783   103551068.340         887.928          47.000  
R20  23605068.492   126226935.678       -3700.727          38.000  
R21  19975679.746   106893914.032       -1961.086          48.000  
S20  37909776.152   199217197.012         -22.340          41.000  
> 2017 11 15 18 29 33.4000000  0 15                     
G 2  20650935.910   108521394.734       -1604.481          48.000  
G 5  24122909.670   126766767.855        2176.105          44.000  
G 6  23711790.550   124606358.472       -3212.933          42.000  
G12  20731009.026   108942184.900         408.234          50.000  
R12  22237529.925   118788929.601        3805.542          45.000  
G24  21641709.121   113727919.135       -2742.705          45.000  
G25  22057830.852   115914679.956        2169.141          46.000  
G29  21778659.599   114447639.740        1240.940          49.000  
G32  25751879.120   135326975.930       -1236.035          26.000  
R10  20871518.266   111256905.094       -2965.375          41.000  
R22  20784401.410   110948537.405        1607.703          46.000  
R11  19378142.627   103550890.757         887.839          47.000  
R20  23605206.977   126227675.784       -3700.390          38.000  
R21  19975752.967   106894306.237       -1960.986          48.000  
S20  37909776.989   199217201.516         -22.521          41.000  
> 2017 11 15 18 29 33.6000000  0 15                     
G 2  20650997.020   108521715.679       -1604.959          48.000  
G 5  24122826.921   126766332.659        2175.803          44.000  
G 6  23711912.841   124607001.068       -3213.141          42.000  
G12  20730993.373   108942103.279         408.014          49.000  
R12  22237387.339   118788168.542        3805.119          45.000  
G24  21641813.369   113728467.730       -2743.160          45.000  
G25  22057748.278   115914246.137        2169.023          46.000  
G29  21778612.309   114447391.590        1240.686          48.000  
G32  25751926.026   135327223.315       -1237.390          26.000  
R10  20871629.703   111257498.195       -2965.863          41.000  
R22  20784340.945   110948215.875        1607.349          46.000  
R11  19378109.385   103550713.229         887.516          47.000  
R20  23605345.270   126228415.919       -3700.672          38.000  
R21  19975826.153   106894698.483       -1961.409          48.000  
S20  37909777.775   199217206.018         -22.397          41.000  
> 2017 11 15 18 29 33.8000000  0 15                     
G 2  20651058.183   108522036.678       -1604.875          48.000  
G 5  24122744.120   126765897.512        2175.723          44.000  
G 6  23712035.202   124607643.699       -3212.994          42.000  
G12  20730978.052   108942021.711         407.892          49.000  
R12  22237244.805   118787407.510        3805.310          45.000  
G24  21641917.791   113729016.378       -2743.159          45.000  
G25  22057665.738   115913812.378        2169.013          46.000  
G29  21778565.054   114447143.488        1240.624          48.000  
G32  25751972.793   135327470.572       -1235.999          26.000  
R10  20871740.966   111258091.354       -2965.899          41.000  
R22  20784280.672   110947894.397        1607.495          46.000  
R11  19378076.264   103550535.779         887.312          47.000  
R20  23605483.685   126229156.084       -3700.770          38.000  
R21  19975899.339   106895090.783       -1961.343          48.000  
S20  37909778.752   199217210.574         -22.495          41.000  
> 2017 11 15 18 29 34.0000000  0 15                     
G 2  20651119.189   108522357.698       -1605.215          48.000  
G 5  24122661.179   126765462.342        2175.706          44.000  
G 6  23712157.580   124608286.337       -3213.183          42.000  
G12  20730962.381   108941940.129         407.989          50.000  
R12  22237102.202   118786646.496        3805.185          45.000  
G24  21642022.213   113729565.014       -2743.205          45.000  
G25  22057583.164   115913378.598        2168.750          46.000  
G29  21778517.833   114446895.379        1240.488          48.000  
G32  25752019.228   135327717.980       -1236.809          26.000  
R10  20871852.281   111258684.520       -2965.875          41.000  
R22  20784220.399   110947572.930        1607.403          46.000  
R11  19378043.039   103550358.337         887.035          47.000  
R20  23605622.135   126229896.230       -3700.709          38.000  
R21  19975972.735   106895483.080       -1961.520          48.000  
S20  37909779.711   199217215.084         -22.599          41.000  
> 2017 11 15 18 29 34.2000000  0 15                     
G 2  20651180.265   108522678.745       -1605.367          48.000  
G 5  24122578.430   126765027.189        2175.711          44.000  
G 6  23712279.958   124608928.999       -3213.464          42.000  
G12  20730946.729   108941858.583         407.733          50.000  
R12  22236959.791   118785885.493        3804.880          45.000  
G24  21642126.670   113730113.699       -2743.483          45.000  
G25  22057500.624   115912944.834        2168.749          46.000  
G29  21778470.631   114446647.285        1240.464          48.000  
G32  25752066.500   135327965.355       -1236.747          26.000  
R10  20871963.613   111259277.718       -2966.040          41.000  
R22  20784160.161   110947251.500        1607.202          46.000  
R11  19378009.779   103550180.933         887.069          48.000  
R20  23605760.602   126230636.391       -3700.739          39.000  
R21  19976045.974   106895875.408       -1961.659          48.000  
S20  37909780.584   199217219.613         -22.566          41.000  
> 2017 11 15 18 29 34.4000000  0 15                     
G 2  20651241.271   108522999.795       -1605.199          48.000  
G 5  24122495.541   126764592.026        2175.861          44.000  
G 6  23712402.232   124609571.627       -3213.025          42.000  
G12  20730931.198   108941777.012         407.977          49.000  
R12  22236817.432   118785124.463        3805.260          45.000  
G24  21642231.022   113730662.362       -2743.318          45.000  
G25  22057418.137   115912511.041        2169.114          46.000  
G29  21778423.358   114446399.182        1240.607          48.000  
G32  25752113.965   135328212.588       -1235.652          26.000  
R10  20872074.946   111259870.908       -2965.656          41.000  
R22  20784099.923   110946930.051        1607.416          46.000  
R11  19377976.484   103550003.542         887.054          48.000  
R20  23605898.965   126231376.512       -3700.414          38.000  
R21  19976119.230   106896267.733       -1961.641          48.000  
S20  37909781.387   199217224.107         -22.538          41.000  
> 2017 11 15 18 29 34.6000000  0 15                     
G 2  20651302.382   108523320.860       -1605.514          48.000  
G 5  24122412.688   126764156.849        2175.657          44.000  
G 6  23712524.628   124610214.267       -3213.232          42.000  
G12  20730915.580   108941695.451         407.654          49.000  
R12  22236675.073   118784363.440        3805.136          44.000  
G24  21642335.531   113731211.027       -2743.392          45.000  
G25  22057335.493   115912077.255        2168.740          46.000  
G29  21778376.190   114446151.081        1240.393          48.000  
G32  25752161.342   135328460.032       -1237.001          26.000  
R10  20872186.243   111260464.126       -2966.083          41.000  
R22  20784039.562   110946608.634        1607.031          46.000  
R11  19377943.258   103549826.170         886.709          48.000  
R20  23606037.345   126232116.616       -3700.167          38.000  
R21  19976192.503   106896660.055       -1961.831          48.000  
S20  37909782.294   199217228.589         -22.458          41.000  
> 2017 11 15 18 29 34.8000000  0 15                     
G 2  20651363.510   108523641.962       -1605.734          48.000  
G 5  24122329.852   126763721.678        2175.784          44.000  
G 6  23712646.971   124610856.936       -3213.623          42.000  
G12  20730900.084   108941613.905         407.593          49.000  
R12  22236532.523   118783602.455        3804.758          44.000  
G24  21642440.006   113731759.727       -2743.598          45.000  
G25  22057253.006   115911643.477        2168.738          46.000  
G29  21778329.005   114445903.003        1240.139          48.000  
G32  25752208.737   135328707.448       -1237.053          26.000  
R10  20872297.541   111261057.379       -2966.559          41.000  
R22  20783979.342   110946287.239        1606.781          46.000  
R11  19377910.068   103549648.830         886.465          48.000  
R20  23606175.743   126232856.747       -3700.790          38.000  
R21  19976265.829   106897052.398       -1961.916          48.000  
S20  37909783.202   199217233.073         -22.591          41.000  
> 2017 11 15 18 29 35.0000000  0 15                     
G 2  20651424.708   108523963.066       -1605.586          48.000  
G 5  24122247.033   126763286.514        2175.752          44.000  
G 6  23712769.280   124611499.576       -3213.306          42.000  
G12  20730884.466   108941532.356         407.770          49.000  
R12  22236390.094   118782841.447        3804.872          44.000  
G24  21642544.341   113732308.436       -2743.548          45.000  
G25  22057170.501   115911209.679        2169.083          46.000  
G29  21778281.837   114445654.902        1240.485          49.000  
G32  25752256.446   135328954.811       -1236.724          26.000  
R10  20872408.768   111261650.627       -2966.260          41.000  
R22  20783919.138   110945965.842        1606.927          46.000  
R11  19377876.773   103549471.510         886.723          48.000  
R20  23606314.071   126233596.851       -3700.377          38.000  
R21  19976339.137   106897444.746       -1961.740          48.000  
S20  37909783.934   199217237.536         -22.312          41.000  
> 2017 11 15 18 29 35.2000000  0 15                     
G 2  20651485.871   108524284.205       -1605.843          47.000  
G 5  24122164.423   126762851.337        2175.924          44.000  
G 6  23712891.571   124612142.239       -3213.342          42.000  
G12  20730869.040   108941450.829         407.526          49.000  
R12  22236247.683   118782080.447        3804.841          44.000  
G24  21642648.745   113732857.168       -2743.870          45.000  
G25  22057087.979   115910775.914        2168.681          46.000  
G29  21778234.651   114445406.827        1240.338          49.000  
G32  25752303.718   135329202.190       -1236.949          26.000  
R10  20872520.153   111262243.906       -2966.266          41.000  
R22  20783858.848   110945644.480        1606.799          46.000  
R11  19377843.722   103549294.231         886.304          48.000  
R20  23606452.416   126234336.953       -3700.420          38.000  
R21  19976412.411   106897837.120       -1961.917          48.000  
S20  37909784.790   199217242.015         -22.339          41.000  
> 2017 11 15 18 29 35.4000000  0 15                     
G 2  20651546.824   108524605.327       -1605.548          47.000  
G 5  24122081.622   126762416.156        2176.031          44.000  
G 6  23713013.862   124612784.885       -3213.031          42.000  
G12  20730853.440   108941369.268         407.727          49.000  
R12  22236105.149   118781319.417        3805.269          45.000  
G24  21642753.185   113733405.869       -2743.647          45.000  
G25  22057005.492   115910342.088        2169.168          46.000  
G29  21778187.361   114445158.721        1240.696          48.000  
G32  25752349.839   135329449.617       -1237.314          26.000  
R10  20872631.538   111262837.188       -2966.485          41.000  
R22  20783798.575   110945323.096        1606.903          46.000  
R11  19377810.480   103549116.934         886.326          47.000  
R20  23606590.692   126235077.021       -3700.472          38.000  
R21  19976485.684   106898229.469       -1961.746          48.000  
S20  37909785.662   199217246.441         -21.969          41.000  
> 2017 11 15 18 29 35.6000000  0 15                     
G 2  20651607.830   108524926.526       -1606.025          47.000  
G 5  24121998.908   126761980.999        2175.659          44.000  
G 6  23713136.223   124613427.574       -3213.415          42.000  
G12  20730837.857   108941287.762         407.520          49.000  
R12  22235962.598   118780558.449        3804.763          45.000  
G24  21642857.642   113733954.619       -2743.802          45.000  
G25  22056922.917   115909908.314        2169.100          46.000  
G29  21778140.158   114444910.674        1240.287          49.000  
G32  25752397.479   135329696.963       -1236.688          26.000  
R10  20872742.905   111263430.504       -2966.693          41.000  
R22  20783738.249   110945001.775        1606.573          46.000  
R11  19377777.220   103548939.709         886.185          47.000  
R20  23606729.090   126235817.103       -3700.222          39.000  
R21  19976559.010   106898621.875       -1962.080          48.000  
S20  37909786.587   199217250.916         -22.357          41.000  
> 2017 11 15 18 29 35.8000000  0 15                     
G 2  20651669.028   108525247.683       -1606.040          47.000  
G 5  24121916.177   126761545.789        2175.946          44.000  
G 6  23713258.636   124614070.237       -3213.776          42.000  
G12  20730822.553   108941206.210         407.410          49.000  
R12  22235820.170   118779797.412        3804.899          44.000  
G24  21642961.977   113734503.332       -2743.827          45.000  
G25  22056840.448   115909474.503        2168.801          46.000  
G29  21778092.868   114444662.574        1240.277          49.000  
G32  25752444.420   135329944.386       -1237.027          26.000  
R10  20872854.255   111264023.800       -2966.669          41.000  
R22  20783678.064   110944680.423        1606.518          46.000  
R11  19377743.925   103548762.455         886.027          47.000  
R20  23606867.383   126236557.135       -3700.430          39.000  
R21  19976632.301   106899014.236       -1962.085          48.000  
S20  37909787.477   199217255.337         -22.274          41.000  
> 2017 11 15 18 29 36.0000000  0 15                     
G 2  20651730.069   108525568.858       -1605.514          47.000  
G 5  24121833.480   126761110.587        2176.444          44.000  
G 6  23713380.928   124614712.869       -3212.836          42.000  
G12  20730806.917   108941124.657         408.081          49.000  
R12  22235677.601   118779036.391        3805.562          44.000  
G24  21643066.486   113735052.056       -2743.259          45.000  
G25  22056757.891   115909040.663        2169.589          46.000  
G29  21778045.683   114444414.472        1240.990          49.000  
G32  25752490.087   135330191.738       -1237.029          26.000  
R10  20872965.535   111264617.123       -2966.412          41.000  
R22  20783617.808   110944359.076        1607.153          46.000  
R11  19377710.647   103548585.222         886.574          47.000  
R20  23607005.728   126237297.144       -3699.655          39.000  
R21  19976705.400   106899406.611       -1961.565          48.000  
S20  37909788.332   199217259.742         -21.330          41.000  
> 2017 11 15 18 29 36.2000000  0 15                     
G 2  20651791.232   108525890.083       -1605.968          48.000  
G 5  24121750.661   126760675.404        2176.037          44.000  
G 6  23713503.166   124615355.539       -3213.153          42.000  
G12  20730791.491   108941043.143         407.788          49.000  
R12  22235535.033   118778275.391        3805.251          44.000  
G24  21643170.961   113735600.793       -2743.431          45.000  
G25  22056675.334   115908606.864        2169.451          46.000  
G29  21777998.358   114444166.410        1240.465          49.000  
G32  25752535.562   135330439.180       -1237.093          26.000  
R10  20873076.815   111265210.472       -2966.577          41.000  
R22  20783557.605   110944037.765        1606.769          46.000  
R11  19377677.422   103548408.035         886.227          47.000  
R20  23607144.213   126238037.186       -3699.708          39.000  
R21  19976778.778   106899799.010       -1961.824          48.000  
S20  37909789.135   199217264.153         -21.635          41.000  
> 2017 11 15 18 29 36.4000000  0 15                     
G 2  20651852.430   108526211.280       -1605.846          48.000  
G 5  24121667.808   126760240.173        2176.363          44.000  
G 6  23713625.597   124615998.185       -3213.025          42.000  
G12  20730775.839   108940961.591         407.922          49.000  
R12  22235392.535   118777514.361        3805.436          44.000  
G24  21643275.348   113736149.528       -2743.441          45.000  
G25  22056592.864   115908173.029        2169.370          46.000  
G29  21777951.103   114443918.306        1240.692          49.000  
G32  25752581.788   135330686.547       -1236.711          26.000  
R10  20873188.130   111265803.799       -2966.394          42.000  
R22  20783497.401   110943716.441        1606.818          46.000  
R11  19377644.301   103548230.846         886.107          47.000  
R20  23607282.523   126238777.184       -3699.877          39.000  
R21  19976852.069   106900191.388       -1961.682          48.000  
S20  37909789.972   199217268.535         -21.680          41.000  
> 2017 11 15 18 29 36.6000000  0 15                     
G 2  20651913.663   108526532.460       -1605.552          48.000  
G 5  24121584.867   126759804.903        2176.708          44.000  
G 6  23713747.993   124616640.785       -3212.567          42.000  
G12  20730760.186   108940880.005         408.289          49.000  
R12  22235250.089   118776753.292        3805.755          44.000  
G24  21643379.822   113736698.218       -2743.224          45.000  
G25  22056510.202   115907739.133        2169.946          46.000  
G29  21777903.708   114443670.164        1241.030          48.000  
G32  25752628.816   135330933.901       -1236.407          26.000  
R10  20873299.515   111266397.111       -2966.180          42.000  
R22  20783437.181   110943395.074        1607.312          46.000  
R11  19377611.094   103548053.630         886.457          47.000  
R20  23607420.799   126239517.111       -3698.993          39.000  
R21  19976925.430   106900583.729       -1961.331          48.000  
S20  37909790.845   199217272.850         -21.397          41.000  
> 2017 11 15 18 29 36.8000000  0 15                     
G 2  20651974.739   108526853.659       -1605.902          48.000  
G 5  24121502.066   126759369.614        2176.720          44.000  
G 6  23713870.267   124617283.393       -3212.805          42.000  
G12  20730744.620   108940798.419         408.160          49.000  
R12  22235107.625   118775992.221        3805.509          44.000  
G24  21643484.262   113737246.918       -2743.419          45.000  
G25  22056427.645   115907305.248        2169.570          46.000  
G29  21777856.488   114443422.019        1240.915          48.000  
G32  25752676.124   135331181.276       -1236.678          26.000  
R10  20873410.882   111266990.421       -2966.357          42.000  
R22  20783376.995   110943073.734        1606.952          46.000  
R11  19377577.851   103547876.431         886.108          47.000  
R20  23607559.179   126240257.041       -3699.504          39.000  
R21  19976998.790   106900976.081       -1961.516          48.000  
S20  37909791.665   199217277.137         -21.098          41.000  
> 2017 11 15 18 29 37.0000000  0 15                     
G 2  20652035.832   108527174.809       -1605.824          48.000  
G 5  24121419.299   126758934.278        2176.790          44.000  
G 6  23713992.488   124617925.926       -3212.848          42.000  
G12  20730728.967   108940716.777         408.154          49.000  
R12  22234964.900   118775231.089        3805.629          44.000  
G24  21643588.632   113737795.570       -2743.294          45.000  
G25  22056345.088   115906871.288        2169.842          46.000  
G29  21777809.285   114443173.821        1241.117          48.000  
G32  25752723.431   135331428.587       -1236.667          26.000  
R10  20873522.127   111267583.695       -2966.370          41.000  
R22  20783316.739   110942752.339        1606.958          46.000  
R11  19377544.661   103547699.192         886.085          47.000  
R20  23607697.454   126240996.870       -3698.899          39.000  
R21  19977072.064   106901368.378       -1961.439          48.000  
S20  37909792.625   199217281.367         -20.995          41.000  
> 2017 11 15 18 29 37.2000000  0 16                     
G 2  20652096.925   108527496.019       -1605.894          48.000  
G 5  24121336.480   126758498.977        2176.656          44.000  
G 6  23714114.849   124618568.524       -3212.561          42.000  
G12  20730713.506   108940635.176         408.160          49.000  
R12  22234822.296   118774470.000        3805.561          44.000  
G24  21643693.071   113738344.280       -2743.352          45.000  
G25  22056262.409   115906437.383        2169.766          46.000  
G29  21777761.995   114442925.673        1240.937          48.000  
G32  25752770.337   135331675.907       -1236.629          26.000  
G20  25012241.624                1       2662.000          18.000  
R10  20873633.477   111268177.030       -2966.516          41.000  
R22  20783256.501   110942431.016        1606.787          46.000  
R11  19377511.348   103547522.027         885.898          47.000  
R20  23607835.870   126241736.757       -3699.026          39.000  
R21  19977145.285   106901760.729       -1961.585          48.000  
S20  37909793.480   199217285.665         -21.309          41.000  
> 2017 11 15 18 29 37.4000000  0 16                     
G 2  20652158.105   108527817.201       -1605.766          48.000  
G 5  24121253.679   126758063.627        2176.927          44.000  
G 6  23714237.227   124619211.068       -3212.781          42.000  
G12  20730697.784   108940553.548         408.325          49.000  
R12  22234679.728   118773708.883        3805.538          44.000  
G24  21643797.493   113738892.957       -2743.337          45.000  
G25  22056179.765   115906003.421        2169.905          45.000  
G29  21777714.687   114442677.477        1241.117          48.000  
G32  25752817.645   135331923.265       -1236.766          26.000  
G20  25012135.475                1       2662.000          17.000  
R10  20873744.774   111268770.324       -2966.364          41.000  
R22  20783196.193   110942109.651        1606.879          46.000  
R11  19377478.018   103547344.838         886.017          47.000  
R20  23607974.145   126242476.591       -3698.799          38.000  
R21  19977218.558   106902153.044       -1961.408          48.000  
S20  37909794.300   199217289.897         -21.198          41.000  
> 2017 11 15 18 29 37.6000000  0 16                     
G 2  20652219.216   108528138.380       -1606.020          48.000  
G 5  24121170.930   126757628.248        2176.671          44.000  
G 6  23714359.483   124619853.584       -3212.750          42.000  
G12  20730682.323   108940471.883         408.051          49.000  
R12  22234537.195   118772947.717        3805.465          44.000  
G24  21643901.880   113739441.595       -2743.434          45.000  
G25  22056097.138   115905569.429        2169.693          45.000  
G29  21777667.432   114442429.264        1240.834          48.000  
G32  25752865.266   135332170.482       -1236.178          26.000  
G20  25012035.276                1       2662.000          17.000  
R10  20873856.089   111269363.618       -2966.681          41.000  
R22  20783136.130   110941788.268        1606.561          46.000  
R11  19377444.723   103547167.645         885.675          47.000  
R20  23608112.456   126243216.382       -3699.314          38.000  
R21  19977291.797   106902545.335       -1961.660          48.000  
S20  37909795.033   199217294.081         -21.050          41.000  
> 2017 11 15 18 29 37.8000000  0 16                     
G 2  20652280.344   108528459.545       -1605.848          48.000  
G 5  24121088.042   126757192.830        2177.095          44.000  
G 6  23714481.827   124620496.078       -3212.329          42.000  
G12  20730666.670   108940390.197         408.411          49.000  
R12  22234394.661   118772186.521        3806.193          44.000  
G24  21644006.407   113739990.228       -2743.303          45.000  
G25  22056014.494   115905135.402        2170.124          45.000  
G29  21777620.020   114442181.019        1241.157          48.000  
G32  25752913.132   135332417.763       -1236.336          26.000  
G20  25011935.181                1       2662.000          17.000  
R10  20873967.474   111269956.897       -2966.583          41.000  
R22  20783076.031   110941466.869        1606.940          46.000  
R11  19377411.481   103546990.449         885.866          47.000  
R20  23608250.749   126243956.116       -3698.781          38.000  
R21  19977365.088   106902937.616       -1961.442          48.000  
S20  37909795.888   199217298.239         -20.766          41.000  
> 2017 11 15 18 29 38.0000000  0 16                     
G 2  20652341.437   108528780.747       -1606.160          47.000  
G 5  24121005.240   126756757.433        2176.769          44.000  
G 6  23714604.048   124621138.608       -3212.720          42.000  
G12  20730651.139   108940308.539         407.989          49.000  
R12  22234252.006   118771425.376        3805.709          44.000  
G24  21644111.039   113740538.877       -2743.509          45.000  
G25  22055931.885   115904701.400        2169.810          45.000  
G29  21777572.782   114441932.796        1240.849          48.000  
G32  25752960.457   135332665.077       -1236.689          26.000  
G20  25011830.480                1       2662.000          17.000  
R10  20874078.772   111270550.200       -2966.595          41.000  
R22  20783015.810   110941145.512        1606.586          46.000  
R11  19377378.308   103546813.293         885.435          47.000  
R20  23608388.972   126244695.863       -3698.917          38.000  
R21  19977438.431   106903329.921       -1961.807          48.000  
S20  37909796.708   199217302.412         -21.104          41.000  
> 2017 11 15 18 29 38.2000000  0 16                     
G 2  20652402.600   108529101.958       -1605.876          47.000  
G 5  24120922.334   126756322.020        2177.184          44.000  
G 6  23714726.427   124621781.115       -3212.408          42.000  
G12  20730635.486   108940226.868         408.429          49.000  
R12  22234109.542   118770664.206        3805.923          44.000  
G24  21644215.496   113741087.533       -2743.118          45.000  
G25  22055849.206   115904267.374        2170.341          45.000  
G29  21777525.562   114441684.566        1241.128          48.000  
G32  25753007.364   135332912.368       -1236.423          26.000  
G20  25011727.140                1       2662.000          18.000  
R10  20874189.999   111271143.526       -2966.595          41.000  
R22  20782955.642   110940824.150        1606.860          46.000  
R11  19377345.240   103546636.152         885.825          47.000  
R20  23608527.247   126245435.597       -3698.552          38.000  
R21  19977511.652   106903722.214       -1961.363          48.000  
S20  37909797.476   199217306.561         -20.595          41.000  
> 2017 11 15 18 29 38.4000000  0 16                     
G 2  20652463.711   108529423.182       -1606.326          47.000  
G 5  24120839.446   126755886.600        2176.959          44.000  
G 6  23714848.735   124622423.627       -3212.488          42.000  
G12  20730619.886   108940145.201         408.203          49.000  
R12  22233967.096   118769903.034        3805.456          44.000  
G24  21644320.005   113741636.204       -2743.551          45.000  
G25  22055766.544   115903833.361        2169.843          45.000  
G29  21777478.272   114441436.328        1241.019          48.000  
G32  25753054.933   135333159.579       -1236.183          26.000  
G20  25011623.084                1       2662.000          18.000  
R10  20874301.244   111271736.845       -2966.559          41.000  
R22  20782895.456   110940502.803        1606.726          46.000  
R11  19377312.067   103546459.034         885.373          47.000  
R20  23608665.715   126246175.309       -3698.757          38.000  
R21  19977585.135   106904114.519       -1961.594          48.000  
S20  37909798.244   199217310.712         -20.810          41.000  
> 2017 11 15 18 29 38.6000000  0 16                     
G 2  20652524.769   108529744.363       -1606.039          47.000  
G 5  24120756.592   126755451.119        2177.532          44.000  
G 6  23714971.009   124623066.095       -3212.555          42.000  
G12  20730604.425   108940063.484         408.545          49.000  
R12  22233824.266   118769141.780        3806.228          44.000  
G24  21644424.445   113742184.816       -2743.222          45.000  
G25  22055684.004   115903399.259        2170.345          45.000  
G29  21777431.034   114441188.040        1241.380          48.000  
G32  25753102.293   135333406.869       -1236.261          26.000  
G20  25011521.122                1       2662.000          17.000  
R10  20874412.559   111272330.140       -2966.571          41.000  
R22  20782835.253   110940181.423        1606.683          46.000  
R11  19377279.033   103546281.881         885.804          47.000  
R20  23608804.200   126246914.949       -3698.157          38.000  
R21  19977658.304   106904506.778       -1961.355          48.000  
S20  37909798.977   199217314.787         -20.269          41.000  
> 2017 11 15 18 29 38.8000000  0 16                     
G 2  20652585.950   108530065.624       -1606.312          47.000  
G 5  24120673.669   126755015.706        2177.186          44.000  
G 6  23715093.283   124623708.608       -3212.622          42.000  
G12  20730588.807   108939981.827         408.441          49.000  
R12  22233681.768   118768380.622        3805.878          44.000  
G24  21644528.937   113742733.507       -2743.367          45.000  
G25  22055601.570   115902965.231        2170.268          45.000  
G29  21777383.866   114440939.821        1241.258          48.000  
G32  25753150.281   135333654.115       -1236.504          26.000  
G20  25011417.835                1       2662.000          17.000  
R10  20874523.909   111272923.501       -2966.760          41.000  
R22  20782775.120   110939860.102        1606.659          46.000  
R11  19377245.843   103546104.814         885.450          47.000  
R20  23608942.475   126247654.660       -3698.406          38.000  
R21  19977731.560   106904899.092       -1961.510          48.000  
S20  37909799.692   199217318.934         -20.514          41.000  
> 2017 11 15 18 29 39.0000000  0 16                     
G 2  20652647.043   108530386.854       -1606.104          47.000  
G 5  24120590.815   126754580.236        2177.570          44.000  
G 6  23715215.486   124624351.077       -3212.384          42.000  
G12  20730573.276   108939900.125         408.673          49.000  
R12  22233539.234   118767619.405        3806.158          44.000  
G24  21644633.306   113743282.146       -2743.226          45.000  
G25  22055518.908   115902531.149        2170.539          45.000  
G29  21777336.593   114440691.550        1241.417          48.000  
G32  25753197.536   135333901.364       -1236.071          26.000  
G20  25011314.756                1       2662.000          17.000  
R10  20874635.172   111273516.817       -2966.321          41.000  
R22  20782714.986   110939538.744        1606.860          46.000  
R11  19377212.600   103545927.710         885.607          47.000  
R20  23609080.681   126248394.288       -3698.152          39.000  
R21  19977804.851   106905291.371       -1961.251          48.000  
S20  37909800.477   199217323.035         -20.385          41.000  
> 2017 11 15 18 29 39.2000000  0 16                     
G 2  20652708.224   108530708.120       -1606.527          47.000  
G 5  24120508.119   126754144.773        2177.136          44.000  
G 6  23715337.743   124624993.561       -3212.720          42.000  
G12  20730557.850   108939818.446         408.289          49.000  
R12  22233396.806   118766858.204        3805.837          44.000  
G24  21644737.606   113743830.822       -2743.620          45.000  
G25  22055436.211   115902097.073        2170.346          45.000  
G29  21777289.390   114440443.301        1241.054          48.000  
G32  25753245.664   135334148.592       -1235.877          26.000  
G20  25011212.655                1       2662.000          16.000  
R10  20874746.539   111274110.189       -2966.913          41.000  
R22  20782654.800   110939217.419        1606.506          46.000  
R11  19377179.358   103545750.655         885.125          47.000  
R20  23609219.009   126249133.923       -3698.545          39.000  
R21  19977878.124   106905683.670       -1961.618          48.000  
S20  37909801.158   199217327.151         -20.532          41.000  
> 2017 11 15 18 29 39.4000000  0 16                     
G 2  20652769.352   108531029.385       -1606.385          48.000  
G 5  24120425.405   126753709.294        2177.450          44.000  
G 6  23715459.999   124625636.033       -3212.170          42.000  
G12  20730542.215   108939736.747         408.606          49.000  
R12  22233254.237   118766096.987        3806.194          44.000  
G24  21644841.889   113744379.483       -2743.474          45.000  
G25  22055353.724   115901662.988        2170.349          45.000  
G29  21777242.083   114440195.030        1241.408          48.000  
G32  25753292.169   135334395.902       -1235.981          26.000  
G20  25011111.653                1       2662.000          16.000  
R10  20874857.732   111274703.542       -2966.754          41.000  
R22  20782594.545   110938896.098        1606.604          46.000  
R11  19377146.307   103545573.591         885.383          47.000  
R20  23609357.459   126249873.531       -3698.023          39.000  
R21  19977951.380   106906075.963       -1961.451          48.000  
S20  37909801.891   199217331.251         -20.719          41.000  
> 2017 11 15 18 29 39.6000000  0 16                     
G 2  20652830.515   108531350.680       -1606.507          48.000  
G 5  24120342.464   126753273.818        2177.342          44.000  
G 6  23715582.290   124626278.529       -3212.457          42.000  
G12  20730526.859   108939655.072         408.490          49.000  
R12  22233111.721   118765335.797        3805.983          44.000  
G24  21644946.224   113744928.156       -2743.380          45.000  
G25  22055271.027   115901228.908        2170.404          45.000  
G29  21777194.863   114439946.785        1241.369          48.000  
G32  25753338.185   135334643.112       -1236.042          25.000  
G20  25011005.887                1       2662.000          16.000  
R10  20874969.064   111275296.929       -2966.998          41.000  
R22  20782534.324   110938574.799        1606.354          46.000  
R11  19377113.221   103545396.570         885.100          47.000  
R20  23609495.769   126250613.150       -3698.102          38.000  
R21  19978024.636   106906468.278       -1961.580          48.000  
S20  37909802.693   199217335.350         -20.457          41.000  
> 2017 11 15 18 29 39.8000000  0 16                     
G 2  20652891.660   108531671.978       -1606.816          48.000  
G 5  24120259.575   126752838.314        2177.382          44.000  
G 6  23715704.616   124626921.009       -3212.695          42.000  
G12  20730511.241   108939573.389         408.215          49.000  
R12  22232969.171   118764574.583        3805.754          44.000  
G24  21645050.576   113745476.838       -2743.650          45.000  
G25  22055188.418   115900794.808        2170.450          45.000  
G29  21777147.695   114439698.522        1241.011          48.000  
G32  25753384.149   135334890.390       -1236.438          25.000  
G20  25010902.268                1       2662.000          16.000  
R10  20875080.397   111275890.327       -2967.102          41.000  
R22  20782474.103   110938253.480        1606.384          46.000  
R11  19377080.083   103545219.549         884.866          47.000  
R20  23609634.045   126251352.713       -3698.198          39.000  
R21  19978097.962   106906860.585       -1961.855          48.000  
S20  37909803.409   199217339.420         -20.431          41.000  
> 2017 11 15 18 29 40.0000000  0 16                     
G 2  20652952.806   108531993.324       -1606.659          48.000  
G 5  24120176.861   126752402.856        2177.412          44.000  
G 6  23715826.890   124627563.532       -3212.445          42.000  
G12  20730495.675   108939491.738         408.264          49.000  
R12  22232826.672   118763813.398        3806.075          44.000  
G24  21645155.016   113746025.559       -2743.636          45.000  
G25  22055105.722   115900360.745        2170.275          45.000  
G29  21777100.352   114439450.294        1241.247          48.000  
G32  25753429.973   135335137.7531      -1237.201          25.000  
G20  25010799.015                1       2662.000          16.000  
R10  20875191.642   111276483.751       -2967.090          41.000  
R22  20782413.935   110937932.227        1606.354          46.000  
R11  19377047.033   103545042.588         884.800          47.000  
R20  23609772.355   126252092.335       -3698.265          39.000  
R21  19978171.288   106907252.933       -1961.619          48.000  
S20  37909804.124   199217343.503         -20.248          41.000  
> 2017 11 15 18 29 40.2000000  0 16                     
G 2  20653014.004   108532314.693       -1606.787          48.000  
G 5  24120094.130   126751967.399        2177.332          44.000  
G 6  23715949.059   124628206.040       -3212.415          42.000  
G12  20730480.214   108939410.089         408.276          49.000  
R12  22232684.278   118763052.232        3805.784          44.000  
G24  21645259.420   113746574.278       -2743.364          45.000  
G25  22055023.060   115899926.686        2170.227          45.000  
G29  21777053.115   114439202.082        1241.063          48.000  
G32  25753476.216   135335385.0451      -1236.916          25.000  
G20  25010697.018                1       2662.000          15.000  
R10  20875302.922   111277077.205       -2967.096          41.000  
R22  20782353.714   110937611.007        1606.189          46.000  
R11  19377013.825   103544865.648         884.746          47.000  
R20  23609910.613   126252831.917       -3697.721          39.000  
R21  19978244.579   106907645.294       -1961.633          48.000  
S20  37909804.892   199217347.605         -20.269          41.000  
> 2017 11 15 18 29 40.4000000  0 16                     
G 2  20653075.132   108532636.077       -1606.989          48.000  
G 5  24120011.276   126751531.922        2177.296          44.000  
G 6  23716071.350   124628848.576       -3212.805          42.000  
G12  20730464.701   108939328.453         407.989          49.000  
R12  22232541.762   118762291.049        3805.696          44.000  
G24  21645363.912   113747123.032       -2743.882          45.000  
G25  22054940.381   115899492.608        2170.275          45.000  
G29  21777005.894   114438953.851        1241.028          48.000  
G32  25753522.756   135335632.3191      -1236.405          24.000  
G20  25010594.621                1       2662.000          15.000  
R10  20875414.254   111277670.671       -2967.468          41.000  
R22  20782293.598   110937289.776        1605.810          46.000  
R11  19376980.704   103544688.722         884.482          47.000  
R20  23610048.906   126253571.499       -3697.969          39.000  
R21  19978317.975   106908037.661       -1962.095          48.000  
S20  37909805.765   199217351.690         -20.435          41.000  
> 2017 11 15 18 29 40.6000000  0 16                     
G 2  20653136.365   108532957.523       -1607.275          48.000  
G 5  24119928.422   126751096.492        2177.139          45.000  
G 6  23716193.623   124629491.123       -3212.640          42.000  
G12  20730449.136   108939246.835         408.124          50.000  
R12  22232399.177   118761529.892        3805.864          44.000  
G24  21645468.334   113747671.802       -2743.818          46.000  
G25  22054857.824   115899058.551        2170.406          46.000  
G29  21776958.534   114438705.671        1241.084          49.000  
G32  25753568.772   135335879.6141      -1236.399          25.000  
G20  25010493.409                1       2662.000          15.000  
R10  20875525.517   111278264.189       -2967.566          41.000  
R22  20782233.552   110936968.592        1605.914          46.000  
R11  19376947.567   103544511.854         884.459          47.000  
R20  23610187.182   126254311.105       -3697.875          38.000  
R21  19978391.388   106908430.054       -1961.829          48.000  
S20  37909806.480   199217355.788         -20.243          42.000  
> 2017 11 15 18 29 40.8000000  0 16                     
G 2  20653197.632   108533278.950       -1607.494          48.000  
G 5  24119845.691   126750661.024        2177.118          45.000  
G 6  23716315.949   124630133.673       -3212.921          42.000  
G12  20730433.448   108939165.217         408.166          50.000  
R12  22232256.574   118760768.744        3805.629          44.000  
G24  21645572.739   113748220.568       -2743.998          46.000  
G25  22054775.232   115898624.497        2170.094          46.000  
G29  21776911.209   114438457.479        1240.774          49.000  
G32  25753614.282   135336127.1151      -1237.388          24.000  
G20  25010391.954                1       2662.000          15.000  
R10  20875636.884   111278857.691       -2967.657          41.000  
R22  20782173.471   110936647.416        1605.725          46.000  
R11  19376914.463   103544334.995         884.007          47.000  
R20  23610325.440   126255050.664       -3697.884          38.000  
R21  19978464.713   106908822.447       -1962.066          48.000  
S20  37909807.318   199217359.854         -20.086          42.000  
> 2017 11 15 18 29 41.0000000  0 16                     
G 2  20653258.761   108533600.377       -1607.252          48.000  
G 5  24119762.785   126750225.540        2177.491          45.000  
G 6  23716438.101   124630776.184       -3212.622          42.000  
G12  20730418.022   108939083.585         408.197          50.000  
R12  22232114.023   118760007.554        3806.014          44.000  
G24  21645677.283   113748769.317       -2743.698          46.000  
G25  22054692.640   115898190.406        2170.350          46.000  
G29  21776864.094   114438209.253        1241.109          49.000  
G32  25753660.421                1      -1236.197          24.000  
G20  25010288.003                1       2662.000          15.000  
R10  20875748.286   111279451.210       -2967.511          41.000  
R22  20782113.215   110936326.214        1605.987          46.000  
R11  19376881.430   103544158.124         884.381          47.000  
R20  23610463.733   126255790.204       -3697.379          38.000  
R21  19978537.987   106909214.827       -1961.834          48.000  
S20  37909808.138   199217363.894         -20.185          42.000  
> 2017 11 15 18 29 41.2000000  0 15                     
G 2  20653319.801   108533921.792       -1606.859          48.000  
G 5  24119680.001   126749790.029        2177.840          45.000  
G 6  23716560.427   124631418.704       -3212.549          42.000  
G12  20730402.369   108939001.927         408.429          50.000  
R12  22231971.472   118759246.364        3806.074          44.000  
G24  21645781.792   113749318.054       -2743.340          46.000  
G25  22054610.066   115897756.289        2170.799          46.000  
G29  21776816.873   114437961.014        1241.395          49.000  
G20  25010185.832                1       2662.000          16.000  
R10  20875859.671   111280044.712       -2967.474          41.000  
R22  20782053.152   110936005.012        1606.146          46.000  
R11  19376848.275   103543981.272         884.378          47.000  
R20  23610601.921   126256529.720       -3697.405          38.000  
R21  19978611.295   106909607.202       -1961.698          48.000  
S20  37909808.801   199217367.880         -19.727          42.000  
> 2017 11 15 18 29 41.4000000  0 15                     
G 2  20653380.999   108534243.239       -1606.856          48.000  
G 5  24119597.304   126749354.519        2177.746          45.000  
G 6  23716682.579   124632061.192       -3212.238          42.000  
G12  20730386.821   108938920.272         408.545          50.000  
R12  22231829.008   118758485.171        3806.144          44.000  
G24  21645886.215   113749866.802       -2743.531          46.000  
G25  22054527.456   115897322.173        2170.868          46.000  
G29  21776769.810   114437712.784        1241.348          49.000  
G20  25010083.382                1       2662.000          16.000  
R10  20875970.916   111280638.222       -2967.474          41.000  
R22  20781993.001   110935683.827        1606.171          46.000  
R11  19376815.102   103543804.426         884.443          47.000  
R20  23610740.127   126257269.217       -3697.392          38.000  
R21  19978684.656   106909999.568       -1961.664          48.000  
S20  37909809.708   199217371.847         -19.460          42.000  
> 2017 11 15 18 29 41.6000000  0 15                     
G 2  20653442.302   108534564.680       -1607.356          48.000  
G 5  24119514.556   126748918.976        2177.473          45.000  
G 6  23716804.852   124632703.680       -3212.573          43.000  
G12  20730371.412   108938838.597         408.289          50.000  
R12  22231686.492   118757723.950        3805.937          44.000  
G24  21645990.689   113750415.526       -2743.783          46.000  
G25  22054444.899   115896888.022        2170.654          46.000  
G29  21776722.572   114437464.526        1241.099          49.000  
G20  25009979.500                1       2662.000          16.000  
R10  20876082.196   111281231.722       -2967.682          41.000  
R22  20781932.763   110935362.626        1605.774          46.000  
R11  19376781.912   103543627.589         883.925          47.000  
R20  23610878.420   126258008.663       -3697.186          38.000  
R21  19978757.982   106910391.923       -1961.857          48.000  
S20  37909810.546   199217375.792         -19.818          42.000  
> 2017 11 15 18 29 41.8000000  0 15                     
G 2  20653503.395   108534886.131       -1607.325          48.000  
G 5  24119431.632   126748483.416        2177.549          44.000  
G 6  23716927.126   124633346.169       -3212.469          43.000  
G12  20730355.829   108938756.928         408.350          50.000  
R12  22231544.029   118756962.726        3805.990          44.000  
G24  21646095.094   113750964.253       -2743.476          46.000  
G25  22054362.238   115896453.878        2170.612          46.000  
G29  21776675.370   114437216.266        1241.198          49.000  
G20  25009877.713                1       2662.000          16.000  
R10  20876193.424   111281825.237       -2967.633          41.000  
R22  20781872.577   110935041.441        1605.725          46.000  
R11  19376748.878   103543450.755         884.132          47.000  
R20  23611016.556   126258748.113       -3697.237          38.000  
R21  19978831.273   106910784.290       -1961.958          48.000  
S20  37909811.401   199217379.721         -19.851          42.000  
> 2017 11 15 18 29 42.0000000  0 15                     
G 2  20653564.541   108535207.569       -1606.949          48.000  
G 5  24119348.744   126748047.830        2178.125          44.000  
G 6  23717049.347   124633988.617       -3212.067          43.000  
G12  20730340.386   108938675.233         408.661          50.000  
R12  22231401.373   118756201.474        3806.431          44.000  
G24  21646199.586   113751512.974       -2743.175          46.000  
G25  22054279.681   115896019.696        2171.059          46.000  
G29  21776628.184   114436967.976        1241.603          49.000  
G20  25009775.228                1       2662.000          16.000  
R10  20876304.756   111282418.734       -2967.273          41.000  
R22  20781812.461   110934720.233        1606.097          46.000  
R11  19376715.758   103543273.921         884.493          47.000  
R20  23611154.866   126259487.528       -3696.731          38.000  
R21  19978904.564   106911176.630       -1961.537          48.000  
S20  37909812.064   199217383.623         -19.199          42.000  
> 2017 11 15 18 29 42.2000000  0 15                     
G 2  20653625.686   108535529.051       -1607.657          48.000  
G 5  24119265.925   126747612.267        2177.651          44.000  
G 6  23717171.481   124634631.085       -3212.335          42.000  
G12  20730324.873   108938593.565         408.173          50.000  
R12  22231258.822   118755440.245        3806.025          44.000  
G24  21646304.025   113752061.726       -2743.979          46.000  
G25  22054197.036   115895585.526        2170.811          46.000  
G29  21776580.912   114436719.722        1241.100          49.000  
G20  25009674.488                1       2662.000          16.000  
R10  20876415.879   111283012.274       -2967.828          41.000  
R22  20781752.450   110934399.061        1605.682          47.000  
R11  19376682.533   103543097.157         883.688          47.000  
R20  23611293.072   126260226.944       -3697.373          38.000  
R21  19978977.994   106911569.003       -1961.998          48.000  
S20  37909812.849   199217387.560         -19.838          42.000  
> 2017 11 15 18 29 42.4000000  0 15                     
G 2  20653686.919   108535850.492       -1607.178          48.000  
G 5  24119182.949   126747176.646        2178.076          44.000  
G 6  23717293.685   124635273.524       -3211.792          42.000  
G12  20730309.429   108938511.833         408.746          50.000  
R12  22231116.254   118754678.960        3806.533          44.000  
G24  21646408.430   113752610.429       -2743.377          46.000  
G25  22054114.392   115895151.322        2171.100          46.000  
G29  21776533.691   114436471.400        1241.701          49.000  
G20  25009571.357                1       2662.000          16.000  
R10  20876527.212   111283605.767       -2967.468          41.000  
R22  20781692.491   110934077.842        1606.177          47.000  
R11  19376649.499   103542920.347         883.985          47.000  
R20  23611431.312   126260966.281       -3696.669          38.000  
R21  19979051.303   106911961.327       -1961.486          48.000  
S20  37909813.635   199217391.414         -19.162          42.000  
> 2017 11 15 18 29 42.6000000  0 15                     
G 2  20653748.239   108536171.933       -1607.054          48.000  
G 5  24119100.008   126746740.994        2178.426          44.000  
G 6  23717415.854   124635915.949       -3212.085          42.000  
G12  20730293.968   108938430.109         408.795          50.000  
R12  22230973.633   118753917.667        3806.579          44.000  
G24  21646512.887   113753159.121       -2743.252          46.000  
G25  22054031.748   115894717.074        2171.292          46.000  
G29  21776486.454   114436223.086        1241.720          49.000  
G20  25009470.460                1       2662.000          16.000  
R10  20876638.474   111284199.275       -2967.419          41.000  
R22  20781632.375   110933756.636        1606.195          47.000  
R11  19376616.361   103542743.546         884.062          47.000  
R20  23611569.396   126261705.603       -3696.279          38.000  
R21  19979124.593   106912353.655       -1961.401          48.000  
S20  37909814.385   199217395.270         -19.098          42.000  
> 2017 11 15 18 29 42.8000000  0 15                     
G 2  20653809.489   108536493.378       -1607.029          48.000  
G 5  24119017.085   126746305.337        2178.561          44.000  
G 6  23717538.110   124636558.347       -3211.859          42.000  
G12  20730278.420   108938348.370         408.740          50.000  
R12  22230831.135   118753156.349        3806.620          44.000  
G24  21646617.291   113753707.830       -2743.538          46.000  
G25  22053949.208   115894282.820        2171.396          46.000  
G29  21776439.146   114435974.745        1241.761          49.000  
G20  25009369.528                1       2662.000          16.000  
R10  20876749.789   111284792.790       -2967.859          41.000  
R22  20781572.416   110933435.427        1606.030          47.000  
R11  19376583.293   103542566.758         883.970          47.000  
R20  23611707.637   126262444.897       -3696.177          38.000  
R21  19979197.919   106912745.976       -1961.587          48.000  
S20  37909815.153   199217399.093         -19.163          42.000  
> 2017 11 15 18 29 43.0000000  0 15                     
G 2  20653870.740   108536814.808       -1607.112          48.000  
G 5  24118934.266   126745869.634        2178.700          44.000  
G 6  23717660.401   124637200.719       -3211.810          42.000  
G12  20730262.959   108938266.582         409.027          50.000  
R12  22230688.619   118752395.017        3806.823          44.000  
G24  21646721.731   113754256.481       -2743.365          46.000  
G25  22053866.512   115893848.516        2171.642          46.000  
G29  21776391.821   114435726.363        1241.998          49.000  
G20  25009268.317                1       2662.000          15.000  
R10  20876861.069   111285386.254       -2967.407          41.000  
R22  20781512.335   110933114.180        1606.415          47.000  
R11  19376549.998   103542389.951         884.043          47.000  
R20  23611845.598   126263184.149       -3696.259          38.000  
R21  19979271.350   106913138.259       -1961.246          48.000  
S20  37909815.938   199217402.865         -18.655          42.000  
> 2017 11 15 18 29 43.2000000  0 15                     
G 2  20653931.868   108537136.256       -1607.282          48.000  
G 5  24118851.343   126745433.941        2178.524          44.000  
G 6  23717782.623   124637843.088       -3211.591          42.000  
G12  20730247.446   108938184.812         408.948          50.000  
R12  22230546.068   118751633.680        3806.632          44.000  
G24  21646826.153   113754805.160       -2743.467          46.000  
G25  22053783.798   115893414.217        2171.523          46.000  
G29  21776344.601   114435477.998        1241.844          49.000  
G20  25009166.495                1       2662.000          14.000  
R10  20876972.384   111285979.743       -2967.542          41.000  
R22  20781452.306   110932792.964        1606.116          47.000  
R11  19376516.860   103542213.175         883.815          47.000  
R20  23611983.769   126263923.382       -3696.352          38.000  
R21  19979344.833   106913530.566       -1961.486          48.000  
S20  37909816.671   199217406.649         -18.763          42.000  
> 2017 11 15 18 29 43.4000000  0 15                     
G 2  20653993.048   108537457.714       -1607.355          48.000  
G 5  24118768.524   126744998.223        2178.534          44.000  
G 6  23717904.827   124638485.470       -3211.908          42.000  
G12  20730231.950   108938103.032         408.881          50.000  
R12  22230403.727   118750872.328        3806.729          44.000  
G24  21646930.628   113755353.843       -2743.485          46.000  
G25  22053701.136   115892979.902        2171.623          46.000  
G29  21776297.293   114435229.626        1241.757          49.000  
G20  25009064.498                1       2662.000          14.000  
R10  20877083.717   111286573.244       -2967.615          41.000  
R22  20781392.260   110932471.750        1605.963          47.000  
R11  19376483.740   103542036.418         883.652          47.000  
R20  23612122.010   126264662.583       -3696.008          38.000  
R21  19979418.124   106913922.856       -1961.552          48.000  
S20  37909817.404   199217410.410         -18.906          42.000  
> 2017 11 15 18 29 43.6000000  0 15                     
G 2  20654054.229   108537779.232       -1607.599          48.000  
G 5  24118685.740   126744562.545        2178.567          45.000  
G 6  23718026.996   124639127.872       -3211.950          42.000  
G12  20730216.385   108938021.305         408.801          50.000  
R12  22230261.071   118750111.035        3806.593          44.000  
G24  21647035.102   113755902.572       -2743.625          46.000  
G25  22053618.405   115892545.642        2171.347          46.000  
G29  21776250.055   114434981.295        1241.771          49.000  
G20  25008962.205                1       2662.000          14.000  
R10  20877194.979   111287166.808       -2967.761          41.000  
R22  20781332.248   110932150.590        1605.835          47.000  
R11  19376450.654   103541859.717         883.481          47.000  
R20  23612260.215   126265401.834       -3696.055          38.000  
R21  19979491.467   106914315.204       -1961.648          48.000  
S20  37909818.119   199217414.178         -18.683          42.000  
> 2017 11 15 18 29 43.8000000  0 15                     
G 2  20654115.496   108538100.728       -1607.286          48.000  
G 5  24118602.782   126744126.842        2178.754          45.000  
G 6  23718149.165   124639770.257       -3211.652          42.000  
G12  20730200.767   108937939.541         409.131          50.000  
R12  22230118.538   118749349.701        3806.760          44.000  
G24  21647139.611   113756451.271       -2743.367          46.000  
G25  22053535.760   115892111.324        2171.808          46.000  
G29  21776202.818   114434732.935        1242.047          49.000  
G20  25008860.680                1       2662.000          15.000  
R10  20877306.364   111287760.342       -2967.468          41.000  
R22  20781272.150   110931829.412        1606.073          47.000  
R11  19376417.603   103541683.007         883.781          47.000  
R20  23612398.456   126266141.028       -3695.620          38.000  
R21  19979564.845   106914707.529       -1961.460          48.000  
S20  37909818.765   199217417.918         -18.652          42.000  
> 2017 11 15 18 29 44.0000000  0 15                     
G 2  20654176.642   108538422.260       -1607.814          48.000  
G 5  24118519.893   126743691.130        2178.454          45.000  
G 6  23718271.316   124640412.666       -3212.292          42.000  
G12  20730185.463   108937857.802         408.600          50.000  
R12  22229976.022   118748588.368        3806.612          44.000  
G24  21647244.103   113756999.998       -2743.744          46.000  
G25  22053453.029   115891677.032        2171.422          46.000  
G29  21776155.563   114434484.593        1241.647          49.000  
G20  25008760.097                1       2662.000          15.000  
R10  20877417.644   111288353.910       -2967.926          41.000  
R22  20781212.086   110931508.266        1605.487          47.000  
R11  19376384.553   103541506.333         883.375          47.000  
R20  23612536.609   126266880.217       -3695.861          39.000  
R21  19979638.118   106915099.865       -1961.763          48.000  
S20  37909819.585   199217421.654         -18.886          42.000  
> 2017 11 15 18 29 44.2000000  0 15                     
G 2  20654237.875   108538743.858       -1608.231          48.000  
G 5  24118436.987   126743255.478        2178.373          45.000  
G 6  23718393.415   124641055.109       -3212.506          42.000  
G12  20730169.950   108937776.115         408.447          50.000  
R12  22229833.489   118747827.110        3806.241          44.000  
G24  21647348.560   113757548.769       -2743.946          46.000  
G25  22053370.402   115891242.776        2171.195          46.000  
G29  21776108.290   114434236.306        1241.351          49.000  
G20  25008658.990                1       2662.000          14.000  
R10  20877529.046   111288947.540       -2968.280          41.000  
R22  20781151.988   110931187.173        1605.212          47.000  
R11  19376351.519   103541329.732         882.931          47.000  
R20  23612674.815   126267619.472       -3696.345          39.000  
R21  19979711.340   106915492.260       -1961.982          48.000  
S20  37909820.301   199217425.425         -18.742          42.000  
> 2017 11 15 18 29 44.4000000  0 15                     
G 2  20654299.125   108539065.441       -1607.874          48.000  
G 5  24118354.168   126742819.793        2178.375          45.000  
G 6  23718515.637   124641697.518       -3211.975          42.000  
G12  20730154.489   108937694.408         408.502          50.000  
R12  22229691.008   118747065.815        3806.293          44.000  
G24  21647452.947   113758097.546       -2743.826          46.000  
G25  22053287.706   115890808.497        2171.311          46.000  
G29  21776061.122   114433987.984        1241.610          49.000  
G20  25008557.273                1       2662.000          14.000  
R10  20877640.379   111289541.172       -2968.250          41.000  
R22  20781091.976   110930866.070        1605.463          47.000  
R11  19376318.469   103541153.123         883.100          47.000  
R20  23612813.143   126268358.652       -3695.910          39.000  
R21  19979784.788   106915884.646       -1961.871          48.000  
S20  37909821.086   199217429.198         -18.938          42.000  
> 2017 11 15 18 29 44.6000000  0 14                     
G 2  20654360.358   108539387.035       -1607.706          48.000  
G 5  24118271.280   126742384.081        2178.924          45.000  
G 6  23718637.893   124642339.933       -3211.786          42.000  
G12  20730139.063   108937612.679         408.844          50.000  
R12  22229548.474   118746304.498        3807.041          44.000  
G24  21647557.387   113758646.298       -2743.718          46.000  
G25  22053205.044   115890374.188        2171.951          46.000  
G29  21776013.902   114433739.657        1241.975          49.000  
R10  20877751.763   111290134.786       -2967.847          41.000  
R22  20781031.982   110930544.966        1605.725          47.000  
R11  19376285.348   103540976.518         883.274          47.000  
R20  23612951.366   126269097.818       -3695.531          39.000  
R21  19979858.061   106916277.012       -1961.617          48.000  
S20  37909821.767   199217432.932         -18.544          42.000  
> 2017 11 15 18 29 44.8000000  0 14                     
G 2  20654421.399   108539708.663       -1608.106          48.000  
G 5  24118188.391   126741948.393        2178.455          45.000  
G 6  23718760.079   124642982.377       -3212.244          42.000  
G12  20730123.567   108937530.990         408.386          50.000  
R12  22229406.011   118745543.227        3806.380          44.000  
G24  21647661.757   113759195.084       -2744.079          46.000  
G25  22053122.417   115889939.911        2171.495          45.000  
G29  21775966.559   114433491.361        1241.496          49.000  
R10  20877863.113   111290728.462       -2968.335          41.000  
R22  20780971.954   110930223.907        1605.176          47.000  
R11  19376252.193   103540799.965         882.768          47.000  
R20  23613089.589   126269837.000       -3695.516          39.000  
R21  19979931.491   106916669.417       -1961.969          48.000  
S20  37909822.499   199217436.703         -19.001          42.000  
> 2017 11 15 18 29 45.0000000  0 14                     
G 2  20654482.806   108540030.315       -1608.210          48.000  
G 5  24118105.555   126741512.698        2178.574          45.000  
G 6  23718882.405   124643624.812       -3212.085          42.000  
G12  20730108.089   108937449.284         408.606          50.000  
R12  22229263.512   118744781.939        3806.532          44.000  
G24  21647766.161   113759743.877       -2743.940          46.000  
G25  22053039.721   115889505.635        2171.503          45.000  
G29  21775919.339   114433243.057        1241.590          49.000  
R10  20877974.463   111291322.137       -2968.384          41.000  
R22  20780911.838   110929902.835        1605.401          47.000  
R11  19376219.002   103540623.413         882.797          46.000  
R20  23613227.795   126270576.187       -3695.999          39.000  
R21  19980004.782   106917061.825       -1961.975          48.000  
S20  37909823.232   199217440.469         -18.637          42.000  
> 2017 11 15 18 29 45.2000000  0 14                     
G 2  20654544.074   108540351.974       -1608.369          48.000  
G 5  24118022.719   126741077.001        2178.291          45.000  
G 6  23719004.662   124644267.251       -3212.384          42.000  
G12  20730092.593   108937367.599         408.423          50.000  
R12  22229120.926   118744020.662        3806.356          44.000  
G24  21647870.566   113760292.669       -2744.018          46.000  
G25  22052957.041   115889071.333        2171.371          45.000  
G29  21775872.049   114432994.756        1241.428          49.000  
R10  20878085.918   111291915.827       -2968.427          41.000  
R22  20780851.669   110929581.789        1605.182          47.000  
R11  19376185.812   103540446.889         882.670          46.000  
R20  23613366.001   126271315.338       -3695.542          39.000  
R21  19980078.108   106917454.227       -1962.095          48.000  
S20  37909824.018   199217444.226         -18.675          42.000  
> 2017 11 15 18 29 45.4000000  0 14                     
G 2  20654605.341   108540673.667       -1608.521          48.000  
G 5  24117939.865   126740641.313        2178.396          45.000  
G 6  23719126.883   124644909.703       -3212.238          43.000  
G12  20730077.114   108937285.924         408.203          50.000  
R12  22228978.480   118743259.403        3806.124          44.000  
G24  21647975.093   113760841.492       -2744.090          46.000  
G25  22052874.380   115888637.053        2171.286          45.000  
G29  21775824.706   114432746.470        1241.246          49.000  
R10  20878197.267   111292509.555       -2968.890          41.000  
R22  20780791.728   110929260.771        1605.017          47.000  
R11  19376152.709   103540270.409         882.205          46.000  
R20  23613504.363   126272054.508       -3695.843          39.000  
R21  19980151.329   106917846.669       -1962.195          48.000  
S20  37909824.751   199217447.991         -18.846          42.000  
> 2017 11 15 18 29 45.6000000  0 14                     
G 2  20654666.609   108540995.345       -1608.295          48.000  
G 5  24117856.994   126740205.581        2178.817          44.000  
G 6  23719249.191   124645552.134       -3212.067          42.000  
G12  20730061.479   108937204.213         408.539          50.000  
R12  22228836.087   118742498.099        3806.598          44.000  
G24  21648079.480   113761390.293       -2743.968          46.000  
G25  22052791.666   115888202.730        2171.709          45.000  
G29  21775777.347   114432498.146        1241.687          49.000  
R10  20878308.670   111293103.249       -2968.469          41.000  
R22  20780731.821   110928939.736        1605.237          47.000  
R11  19376119.589   103540093.897         882.465          46.000  
R20  23613642.674   126272793.622       -3695.366          39.000  
R21  19980224.550   106918239.079       -1962.007          48.000  
S20  37909825.396   199217451.683         -18.587          42.000  
> 2017 11 15 18 29 45.8000000  0 14                     
G 2  20654727.842   108541317.094       -1608.562          48.000  
G 5  24117774.193   126739769.920        2178.471          44.000  
G 6  23719371.552   124646194.615       -3212.085          42.000  
G12  20730046.036   108937122.568         408.380          50.000  
R12  22228693.588   118741736.861        3806.570          44.000  
G24  21648183.989   113761939.147       -2744.079          46.000  
G25  22052709.056   115887768.467        2171.670          45.000  
G29  21775730.109   114432249.892        1241.514          49.000  
R10  20878420.089   111293697.027       -2968.634          41.000  
R22  20780671.705   110928618.761        1605.102          47.000  
R11  19376086.520   103539917.473         882.280          46.000  
R20  23613780.653   126273532.793       -3695.646          39.000  
R21  19980297.772   106918631.555       -1962.178          48.000  
S20  37909826.164   199217455.434         -18.386          42.000  
> 2017 11 15 18 29 46.0000000  0 14                     
G 2  20654789.092   108541638.844       -1608.877          48.000  
G 5  24117691.270   126739334.226        2178.312          44.000  
G 6  23719493.844   124646837.079       -3212.433          42.000  
G12  20730030.487   108937040.904         408.166          50.000  
R12  22228551.020   118740975.599        3806.140          44.000  
G24  21648288.394   113762487.991       -2744.251          46.000  
G25  22052626.342   115887334.181        2171.289          45.000  
G29  21775682.697   114432001.616        1241.194          48.000  
R10  20878531.509   111294290.801       -2969.128          41.000  
R22  20780611.729   110928297.785        1604.779          47.000  
R11  19376053.470   103539741.050         881.865          46.000  
R20  23613918.824   126274271.920       -3695.908          39.000  
R21  19980371.115   106919024.016       -1962.376          48.000  
S20  37909826.914   199217459.166         -18.749          42.000  
> 2017 11 15 18 29 46.2000000  0 14                     
G 2  20654850.412   108541960.652       -1608.885          48.000  
G 5  24117608.346   126738898.555        2178.609          44.000  
G 6  23719616.082   124647479.592       -3212.433          42.000  
G12  20730014.974   108936959.284         408.350          50.000  
R12  22228408.486   118740214.384        3806.417          44.000  
G24  21648393.026   113763036.892       -2744.258          46.000  
G25  22052543.716   115886899.926        2171.499          45.000  
G29  21775635.459   114431753.382        1241.423          48.000  
R10  20878642.998   111294884.629       -2968.854          41.000  
R22  20780551.717   110927976.864        1604.883          47.000  
R11  19376020.367   103539564.694         882.067          46.000  
R20  23614057.047   126275011.071       -3695.228          38.000  
R21  19980444.388   106919416.530       -1962.341          48.000  
S20  37909827.508   199217462.926         -18.438          42.000  
> 2017 11 15 18 29 46.4000000  0 14                     
G 2  20654911.523   108542282.463       -1608.990          48.000  
G 5  24117525.458   126738462.885        2178.515          44.000  
G 6  23719738.391   124648122.080       -3212.408          42.000  
G12  20729999.548   108936877.662         408.209          50.000  
R12  22228266.040   118739453.174        3805.949          44.000  
G24  21648497.465   113763585.794       -2744.406          46.000  
G25  22052461.141   115886465.661        2171.542          45.000  
G29  21775588.169   114431505.141        1241.288          48.000  
R10  20878754.418   111295478.456       -2969.079          41.000  
R22  20780491.724   110927655.941        1604.883          47.000  
R11  19375987.159   103539388.344         881.900          46.000  
R20  23614195.165   126275750.212       -3695.208          38.000  
R21  19980517.749   106919809.031       -1962.279          48.000  
S20  37909828.206   199217466.667         -18.454          42.000  
> 2017 11 15 18 29 46.6000000  0 14                     
G 2  20654972.703   108542604.284       -1609.273          48.000  
G 5  24117442.447   126738027.198        2178.320          44.000  
G 6  23719860.665   124648764.571       -3212.653          42.000  
G12  20729983.930   108936796.026         408.105          50.000  
R12  22228123.542   118738691.936        3805.982          44.000  
G24  21648602.062   113764134.683       -2744.521          46.000  
G25  22052378.584   115886031.381        2171.122          45.000  
G29  21775540.948   114431256.891        1241.021          48.000  
R10  20878865.750   111296072.299       -2969.336          41.000  
R22  20780431.800   110927335.023        1604.468          47.000  
R11  19375953.986   103539212.013         881.484          46.000  
R20  23614333.266   126276489.328       -3695.623          39.000  
R21  19980591.057   106920201.546       -1962.638          47.000  
S20  37909828.991   199217470.386         -18.719          42.000  
> 2017 11 15 18 29 46.8000000  0 14                     
G 2  20655033.936   108542926.157       -1609.574          48.000  
G 5  24117359.646   126737591.538        2178.293          44.000  
G 6  23719982.921   124649407.100       -3212.781          42.000  
G12  20729968.504   108936714.436         407.971          50.000  
R12  22227981.061   118737930.734        3805.816          44.000  
G24  21648706.589   113764683.621       -2744.677          46.000  
G25  22052295.940   115885597.138        2171.092          46.000  
G29  21775493.658   114431008.675        1240.938          48.000  
R10  20878977.205   111296666.179       -2969.574          41.000  
R22  20780371.893   110927014.157        1604.120          47.000  
R11  19375920.883   103539035.735         881.226          46.000  
R20  23614471.437   126277228.468       -3695.691          39.000  
R21  19980664.278   106920594.100       -1962.819          48.000  
S20  37909829.671   199217474.145         -18.732          42.000  
> 2017 11 15 18 29 47.0000000  0 14                     
G 2  20655095.099   108543247.997       -1608.914          48.000  
G 5  24117276.722   126737155.829        2178.949          44.000  
G 6  23720105.212   124650049.581       -3212.079          42.000  
G12  20729952.991   108936632.813         408.282          50.000  
R12  22227838.562   118737169.485        3806.624          44.000  
G24  21648811.098   113765232.521       -2744.259          46.000  
G25  22052213.243   115885162.845        2171.668          46.000  
G29  21775446.333   114430760.418        1241.653          48.000  
R10  20879088.607   111297260.042       -2969.263          41.000  
R22  20780311.899   110926693.261        1604.632          47.000  
R11  19375887.832   103538859.437         881.647          46.000  
R20  23614609.730   126277967.554       -3695.053          39.000  
R21  19980737.552   106920986.611       -1962.258          48.000  
S20  37909830.369   199217477.851         -18.150          42.000  
> 2017 11 15 18 29 47.2000000  0 14                     
G 2  20655156.454   108543569.857       -1609.303          48.000  
G 5  24117193.851   126736720.118        2178.743          44.000  
G 6  23720227.573   124650692.066       -3212.457          42.000  
G12  20729937.582   108936551.169         408.160          50.000  
R12  22227696.046   118736408.258        3806.181          44.000  
G24  21648915.607   113765781.423       -2744.583          46.000  
G25  22052130.669   115884728.533        2171.715          46.000  
G29  21775399.078   114430512.162        1241.308          48.000  
R10  20879200.062   111297853.899       -2969.275          41.000  
R22  20780251.783   110926372.363        1604.553          47.000  
R11  19375854.747   103538683.154         881.460          46.000  
R20  23614747.953   126278706.627       -3695.171          39.000  
R21  19980810.930   106921379.126       -1962.577          47.000  
S20  37909831.050   199217481.548         -18.491          42.000  
> 2017 11 15 18 29 47.4000000  0 14                     
G 2  20655217.792   108543891.746       -1609.485          48.000  
G 5  24117110.840   126736284.426        2178.450          44.000  
G 6  23720349.847   124651334.558       -3212.494          42.000  
G12  20729922.139   108936469.554         408.301          50.000  
R12  22227553.635   118735647.026        3806.246          44.000  
G24  21649020.151   113766330.350       -2744.481          46.000  
G25  22052048.164   115884294.252        2171.554          46.000  
G29  21775351.788   114430263.919        1241.222          48.000  
R10  20879311.481   111298447.809       -2969.617          41.000  
R22  20780191.807   110926051.505        1604.400          47.000  
R11  19375821.696   103538506.914         881.354          46.000  
R20  23614886.124   126279445.685       -3695.029          39.000  
R21  19980884.308   106921771.671       -1962.688          47.000  
S20  37909831.678   199217485.238         -18.208          42.000  
> 2017 11 15 18 29 47.6000000  0 14                     
G 2  20655279.042   108544213.634       -1609.202          48.000  
G 5  24117027.847   126735848.686        2178.978          44.000  
G 6  23720472.085   124651977.052       -3212.262          42.000  
G12  20729906.521   108936387.932         408.344          50.000  
R12  22227411.172   118734885.787        3806.432          44.000  
G24  21649124.661   113766879.268       -2744.310          46.000  
G25  22051965.380   115883859.939        2171.727          46.000  
G29  21775304.463   114430015.661        1241.693          48.000  
R10  20879422.918   111299041.709       -2969.318          41.000  
R22  20780131.830   110925730.637        1604.596          47.000  
R11  19375788.506   103538330.694         881.387          46.000  
R20  23615024.243   126280184.743       -3695.011          39.000  
R21  19980957.529   106922164.201       -1962.407          47.000  
S20  37909832.289   199217488.918         -17.724          42.000  
> 2017 11 15 18 29 47.8000000  0 14                     
G 2  20655340.257   108544535.531       -1609.386          48.000  
G 5  24116944.819   126735412.958        2178.919          44.000  
G 6  23720594.219   124652619.524       -3212.115          42.000  
G12  20729891.078   108936306.293         408.380          50.000  
R12  22227268.656   118734124.538        3806.472          45.000  
G24  21649229.083   113767428.193       -2744.559          46.000  
G25  22051882.736   115883425.617        2171.675          46.000  
G29  21775257.208   114429767.403        1241.416          48.000  
R10  20879534.338   111299635.619       -2969.574          41.000  
R22  20780071.802   110925409.778        1604.474          47.000  
R11  19375755.542   103538154.474         881.235          46.000  
R20  23615162.535   126280923.767       -3694.939          39.000  
R21  19981030.820   106922556.723       -1962.483          47.000  
S20  37909832.970   199217492.576         -18.262          42.000  
> 2017 11 15 18 29 48.0000000  0 14                     
G 2  20655401.490   108544857.400       -1609.456          48.000  
G 5  24116861.651   126734977.176        2178.726          44.000  
G 6  23720716.371   124653261.970       -3212.506          42.000  
G12  20729875.407   108936224.621         408.185          50.000  
R12  22227126.087   118733363.248        3806.326          45.000  
G24  21649333.400   113767977.072       -2744.656          46.000  
G25  22051800.109   115882991.250        2171.628          46.000  
G29  21775209.988   114429519.099        1241.198          48.000  
R10  20879645.827   111300229.481       -2969.855          41.000  
R22  20780011.773   110925088.885        1604.077          47.000  
R11  19375722.439   103537978.235         880.827          46.000  
R20  23615300.619   126281662.738       -3695.188          39.000  
R21  19981104.303   106922949.221       -1962.792          47.000  
S20  37909833.755   199217496.166         -18.040          42.000  
> 2017 11 15 18 29 48.2000000  0 14                     
G 2  20655462.810   108545179.309       -1609.541          48.000  
G 5  24116778.606   126734541.412        2178.914          44.000  
G 6  23720838.714   124653904.430       -3212.311          42.000  
G12  20729859.877   108936142.972         408.112          50.000  
R12  22226983.694   118732601.977        3806.320          45.000  
G24  21649437.875   113768525.964       -2744.375          46.000  
G25  22051717.430   115882556.885        2171.969          46.000  
G29  21775162.750   114429270.813        1241.366          48.000  
R10  20879757.282   111300823.395       -2969.757          41.000  
R22  20779951.744   110924768.016        1604.266          47.000  
R11  19375689.371   103537802.041         880.764          46.000  
R20  23615438.546   126282401.704       -3694.881          39.000  
R21  19981177.577   106923341.733       -1962.552          47.000  
S20  37909834.331   199217499.756         -17.726          42.000  
> 2017 11 15 18 29 48.4000000  0 14                     
G 2  20655524.026   108545501.220       -1609.417          48.000  
G 5  24116695.612   126734105.619        2178.991          44.000  
G 6  23720960.866   124654546.874       -3212.109          42.000  
G12  20729844.381   108936061.299         408.423          50.000  
R12  22226841.195   118731840.696        3806.361          45.000  
G24  21649542.262   113769074.877       -2744.385          46.000  
G25  22051634.786   115882122.517        2172.071          46.000  
G29  21775115.442   114429022.512        1241.619          48.000  
R10  20879868.789   111301417.293       -2969.647          41.000  
R22  20779891.733   110924447.151        1604.400          47.000  
R11  19375656.250   103537625.843         881.019          46.000  
R20  23615576.629   126283140.650       -3694.628          39.000  
R21  19981250.763   106923734.241       -1962.450          48.000  
S20  37909835.098   199217503.318         -17.753          42.000  
> 2017 11 15 18 29 48.6000000  0 14                     
G 2  20655585.276   108545823.123       -1609.460          48.000  
G 5  24116612.637   126733669.804        2179.141          44.000  
G 6  23721083.122   124655189.286       -3212.127          42.000  
G12  20729828.868   108935979.619         408.502          50.000  
R12  22226698.574   118731079.377        3806.529          45.000  
G24  21649646.702   113769623.768       -2744.570          46.000  
G25  22051552.246   115881688.122        2171.819          46.000  
G29  21775068.187   114428774.193        1241.752          48.000  
R10  20879980.278   111302011.178       -2969.397          41.000  
R22  20779831.582   110924126.271        1604.419          47.000  
R11  19375623.182   103537449.649         880.986          46.000  
R20  23615714.660   126283879.573       -3694.845          39.000  
R21  19981323.984   106924126.724       -1962.219          48.000  
S20  37909835.831   199217506.820         -17.571          42.000  
> 2017 11 15 18 29 48.8000000  0 14                     
G 2  20655646.491   108546145.010       -1609.764          48.000  
G 5  24116529.643   126733234.022        2178.662          44.000  
G 6  23721205.361   124655831.647       -3211.993          42.000  
G12  20729813.302   108935897.898         408.392          50.000  
R12  22226555.989   118730317.974        3806.995          45.000  
G24  21649751.298   113770172.682       -2744.718          46.000  
G25  22051469.585   115881253.644        2172.211          46.000  
G29  21775020.914   114428525.848        1241.521          48.000  
R10  20880091.803   111302605.119       -2969.922          41.000  
R22  20779771.710   110923805.404        1604.083          47.000  
R11  19375590.132   103537273.436         880.910          46.000  
R20  23615852.953   126284618.373       -3694.241          39.000  
R21  19981397.362   106924519.171       -1962.392          48.000  
S20  37909836.564   199217510.357         -17.941          42.000  
> 2017 11 15 18 29 49.0000000  0 14                     
G 2  20655707.724   108546466.861       -1608.896          48.000  
G 5  24116446.790   126732798.263        2178.688          44.000  
G 6  23721327.477   124656473.920       -3210.663          42.000  
G12  20729797.510   108935816.137         409.290          50.000  
R12  22226413.560   118729556.541        3807.810          45.000  
G24  21649855.633   113770721.651       -2744.962          46.000  
G25  22051386.906   115880819.127        2173.177          46.000  
G29  21774973.624   114428277.484        1242.136          48.000  
R10  20880203.397   111303199.078       -2969.818          41.000  
R22  20779711.489   110923484.547        1604.388          47.000  
R11  19375557.151   103537097.227         881.433          46.000  
R20  23615991.107   126285357.125       -3692.985          39.000  
R21  19981470.705   106924911.572       -1961.547          48.000  
S20  37909837.297   199217513.896         -17.865          42.000  
> 2017 11 15 18 29 49.2000000  0 14                     
G 2  20655768.887   108546788.725       -1609.487          48.000  
G 5  24116363.674   126732362.529        2178.362          44.000  
G 6  23721449.891   124657116.208       -3211.554          42.000  
G12  20729781.961   108935734.360         408.783          50.000  
R12  22226270.992   118728795.031        3807.466          45.000  
G24  21649959.968   113771270.656       -2745.254          46.000  
G25  22051304.331   115880384.573        2172.644          46.000  
G29  21774926.404   114428029.116        1241.731          48.000  
R10  20880314.799   111303793.106       -2970.184          40.000  
R22  20779651.269   110923163.706        1604.016          46.000  
R11  19375524.431   103536921.038         880.728          47.000  
R20  23616129.347   126286095.809       -3693.580          39.000  
R21  19981544.241   106925303.953       -1962.022          48.000  
S20  37909837.908   199217517.423         -17.948          40.000  
> 2017 11 15 18 29 49.4000000  0 14                     
G 2  20655830.102   108547110.553       -1608.853          49.000  
G 5  24116280.716   126731926.762        2179.222          45.000  
G 6  23721572.147   124657758.425       -3210.846          42.000  
G12  20729766.448   108935652.536         409.363          51.000  
R12  22226128.266   118728033.469        3808.167          45.000  
G24  21650064.442   113771819.700       -2744.840          46.000  
G25  22051221.617   115879949.913        2173.719          46.000  
G29  21774879.254   114427780.683        1242.531          49.000  
R10  20880426.236   111304387.160       -2969.849          40.000  
R22  20779590.961   110922842.860        1604.376          46.000  
R11  19375491.381   103536744.821         881.388          47.000  
R20  23616267.483   126286834.396       -3692.705          39.000  
R21  19981617.584   106925696.272       -1961.238          48.000  
S20  37909838.501   199217520.946         -16.876          40.000  
> 2017 11 15 18 29 49.6000000  0 14                     
G 2  20655891.423   108547432.380       -1609.211          49.000  
G 5  24116197.740   126731491.040        2177.991          44.000  
G 6  23721694.194   124658400.517       -3210.925          41.000  
G12  20729751.197   108935570.691         409.247          51.000  
R12  22225985.646   118727271.814        3808.400          45.000  
G24  21650168.882   113772368.757       -2745.511          46.000  
G25  22051139.025   115879515.226        2173.383          46.000  
G29  21774832.208   114427532.256        1242.230          49.000  
R10  20880537.673   111304981.232       -2970.520          40.000  
R22  20779530.618   110922522.015        1604.217          46.000  
R11  19375458.295   103536568.584         881.285          46.000  
R20  23616405.549   126287572.890       -3692.037          39.000  
R21  19981691.119   106926088.540       -1961.075          48.000  
S20  37909839.129   199217524.455         -17.443          40.000  
> 2017 11 15 18 29 49.8000000  0 14                     
G 2  20655952.935   108547754.214       -1609.342          49.000  
G 5  24116114.607   126731055.382        2178.002          44.000  
G 6  23721816.293   124659042.696       -3210.632          41.000  
G12  20729735.875   108935488.848         409.192          51.000  
R12  22225843.130   118726510.190        3808.045          45.000  
G24  21650273.234   113772917.914       -2746.088          46.000  
G25  22051056.556   115879080.553        2173.386          47.000  
G29  21774785.022   114427283.886        1241.735          48.000  
R10  20880649.128   111305575.411       -2971.246          40.000  
R22  20779470.362   110922201.283        1603.161          46.000  
R11  19375425.384   103536392.407         880.459          47.000  
R20  23616543.720   126288311.411       -3692.480          39.000  
R21  19981764.585   106926480.841       -1961.629          48.000  
S20  37909839.810   199217528.024         -18.500          38.000  
> 2017 11 15 18 29 50.0000000  0 14                     
G 2  20656014.220   108548076.062       -1609.204          49.000  
G 5  24116031.771   126730619.705        2178.120          45.000  
G 6  23721938.514   124659684.795       -3210.956          42.000  
G12  20729720.223   108935407.003         409.399          50.000  
R12  22225700.387   118725748.520        3808.317          45.000  
G24  21650377.691   113773467.131       -2746.118          46.000  
G25  22050973.859   115878645.842        2173.428          46.000  
G29  21774737.767   114427035.503        1242.135          48.000  
R10  20880760.443   111306169.619       -2971.466          41.000  
R22  20779410.177   110921880.551        1603.815          46.000  
R11  19375392.421   103536216.233         881.096          47.000  
R20  23616681.821   126289049.828       -3691.948          39.000  
R21  19981837.910   106926873.120       -1961.232          48.000  
S20  37909840.438   199217531.603         -17.981          40.000  
> 2017 11 15 18 29 50.2000000  0 14                     
G 2  20656075.662   108548397.911       -1609.321          49.000  
G 5  24115948.569   126730184.189        2177.711          44.000  
G 6  23722060.509   124660326.810       -3209.839          41.000  
G12  20729704.727   108935325.154         409.125          51.000  
R12  22225557.801   118724986.733        3808.695          46.000  
G24  21650482.166   113774016.404       -2746.587          46.000  
G25  22050891.215   115878211.049        2174.323          46.000  
G29  21774690.669   114426787.088        1241.956          49.000  
R10  20880872.002   111306763.939       -2971.863          41.000  
R22  20779350.008   110921559.834        1603.436          46.000  
R11  19375359.597   103536040.079         880.708          47.000  
R20  23616819.905   126289788.152       -3690.941          39.000  
R21  19981911.236   106927265.362       -1961.182          48.000  
S20  37909841.189   199217535.252         -18.036          40.000  
> 2017 11 15 18 29 50.4000000  0 14                     
G 2  20656136.965   108548719.763       -1609.340          49.000  
G 5  24115865.663   126729748.601        2177.903          45.000  
G 6  23722182.678   124660968.832       -3209.985          41.000  
G12  20729688.987   108935243.232         409.863          50.000  
R12  22225415.233   118724224.917        3809.266          46.000  
G24  21650586.483   113774565.699       -2746.418          45.000  
G25  22050808.536   115877776.252        2173.980          46.000  
G29  21774643.396   114426538.696        1242.057          48.000  
R10  20880983.509   111307358.270       -2971.545          41.000  
R22  20779289.875   110921239.139        1603.784          46.000  
R11  19375326.686   103535863.923         880.683          47.000  
R20  23616958.093   126290526.448       -3691.097          39.000  
R21  19981984.579   106927657.591       -1961.141          48.000  
S20  37909841.852   199217538.929         -18.316          40.000  
> 2017 11 15 18 29 50.6000000  0 14                     
G 2  20656198.110   108549041.621       -1609.106          49.000  
G 5  24115782.739   126729313.074        2177.846          45.000  
G 6  23722304.777   124661610.835       -3209.558          41.000  
G12  20729673.561   108935161.386         409.564          51.000  
R12  22225272.700   118723463.101        3809.651          45.000  
G24  21650690.783   113775115.035       -2746.954          45.000  
G25  22050725.874   115877341.400        2174.881          46.000  
G29  21774596.316   114426290.277        1242.321          49.000  
R10  20881094.946   111307952.647       -2971.674          41.000  
R22  20779229.619   110920918.461        1603.180          46.000  
R11  19375293.600   103535687.792         880.917          47.000  
R20  23617096.281   126291264.733       -3691.068          39.000  
R21  19982058.115   106928049.801       -1960.993          48.000  
S20  37909842.602   199217542.515         -18.230          40.000  
> 2017 11 15 18 29 50.8000000  0 14                     
G 2  20656259.360   108549363.524       -1609.522          48.000  
G 5  24115699.973   126728877.534        2177.590          46.000  
G 6  23722426.928   124662252.870       -3209.961          42.000  
G12  20729657.786   108935079.535         408.777          50.000  
R12  22225130.079   118722701.337        3809.299          45.000  
G24  21650795.205   113775664.383       -2746.773          45.000  
G25  22050643.387   115876906.621        2174.349          46.000  
G29  21774549.026   114426041.920        1241.570          48.000  
R10  20881206.418   111308547.055       -2972.437          40.000  
R22  20779169.451   110920597.843        1602.600          46.000  
R11  19375260.724   103535511.746         879.751          47.000  
R20  23617234.487   126292003.024       -3691.732          39.000  
R21  19982131.650   106928442.062       -1961.379          48.000  
S20  37909843.248   199217546.177         -17.657          38.000  
> 2017 11 15 18 29 51.0000000  0 15                     
G 2  20656320.663   108549685.456       -1609.742          49.000  
G 5  24115616.997   126728442.062        2177.598          46.000  
G 6  23722549.150   124662894.891       -3209.619          42.000  
G12  20729642.063   108934997.670         409.503          50.000  
R12  22224987.441   118721939.515        3810.037          44.000  
G24  21650899.749   113776213.783       -2746.876          46.000  
G25  22050560.655   115876471.805        2174.327          46.000  
G29  21774501.788   114425793.464        1242.370          49.000  
G32  25756012.867                1      -1235.652          25.000  
R10  20881318.012   111309141.494       -2972.546          41.000  
R22  20779109.440   110920277.165        1603.985          46.000  
R11  19375227.638   103535335.622         880.687          46.000  
R20  23617372.553   126292741.253       -3690.745          39.000  
R21  19982204.888   106928834.294       -1961.007          48.000  
S20  37909843.893   199217549.904         -19.257          39.000  
> 2017 11 15 18 29 51.2000000  0 15                     
G 2  20656381.913   108550007.356       -1609.948          49.000  
G 5  24115533.986   126728006.498        2177.517          46.000  
G 6  23722671.336   124663536.888       -3210.565          42.000  
G12  20729626.602   108934915.769         409.222          50.000  
R12  22224844.733   118721177.727        3808.505          44.000  
G24  21651004.241   113776763.128       -2747.034          46.000  
G25  22050477.680   115876036.988        2173.310          45.000  
G29  21774454.446   114425545.087        1241.785          48.000  
G32  25756061.745                1      -1235.652          31.000  
R10  20881429.536   111309735.898       -2972.204          41.000  
R22  20779049.254   110919956.549        1602.942          46.000  
R11  19375194.797   103535159.563         880.218          47.000  
R20  23617510.515   126293479.511       -3690.986          36.000  
R21  19982278.232   106929226.518       -1961.388          48.000  
S20  37909844.452   199217553.507         -18.302          40.000  
> 2017 11 15 18 29 51.4000000  0 15                     
G 2  20656443.321   108550329.250       -1609.079          49.000  
G 5  24115451.045   126727570.929        2177.782          46.000  
G 6  23722793.400   124664178.865       -3209.497          41.000  
G12  20729610.897   108934833.895         409.760          50.000  
R12  22224702.078   118720415.891        3809.207          44.000  
G24  21651108.663   113777312.495       -2746.308          45.000  
G25  22050394.861   115875602.121        2174.270          45.000  
G29  21774407.103   114425296.676        1242.341          48.000  
G32  25756110.134                1      -1235.652          31.000  
R10  20881541.078   111310330.355       -2972.418          41.000  
R22  20778989.138   110919635.924        1603.039          46.000  
R11  19375161.764   103534983.553         880.085          47.000  
R20  23617648.528   126294217.743       -3690.885          34.000  
R21  19982351.697   106929618.766       -1960.949          49.000  
S20  37909845.150   199217557.188         -17.823          40.000  
> 2017 11 15 18 29 51.6000000  0 15                     
G 2  20656504.518   108550651.219       -1609.894          49.000  
G 5  24115368.070   126727135.416        2177.904          46.000  
G 6  23722915.639   124664820.928       -3210.016          41.000  
G12  20729595.349   108934752.062         409.070          50.000  
R12  22224559.509   118719654.094        3809.204          43.000  
G24  21651212.981   113777861.890       -2746.610          45.000  
G25  22050312.129   115875167.284        2173.586          46.000  
G29  21774360.005   114425048.288        1241.643          48.000  
G32  25756163.323                1      -1235.652          31.000  
R10  20881652.777   111310924.779       -2971.820          41.000  
R22  20778929.092   110919315.327        1602.978          46.000  
R11  19375128.730   103534807.519         879.982          47.000  
R20  23617786.577   126294955.997       -3689.821          34.000  
R21  19982425.110   106930011.026       -1961.444          48.000  
S20  37909845.795   199217560.856         -18.646          40.000  
> 2017 11 15 18 29 51.8000000  0 15                     
G 2  20656565.839   108550973.148       -1609.552          49.000  
G 5  24115285.251   126726699.832        2177.199          45.000  
G 6  23723037.686   124665462.885       -3210.138          41.000  
G12  20729579.748   108934670.128         409.454          50.000  
R12  22224416.906   118718892.260        3809.318          43.000  
G24  21651317.281   113778411.273       -2746.739          44.000  
G25  22050229.258   115874732.377        2174.418          45.000  
G29  21774312.820   114424799.862        1242.259          48.000  
G32  25756207.018                1      -1244.922          31.000  
R10  20881764.266   111311519.241       -2971.881          41.000  
R22  20778868.958   110918994.718        1603.161          46.000  
R11  19375095.662   103534631.491         880.092          46.000  
R20  23617924.748   126295694.196       -3690.022          36.000  
R21  19982498.471   106930403.245       -1961.236          48.000  
S20  37909846.319   199217564.420         -17.957          40.000  
> 2017 11 15 18 29 52.0000000  0 15                     
G 2  20656627.193   108551295.075       -1609.755          49.000  
G 5  24115202.380   126726264.171        2178.080          46.000  
G 6  23723159.838   124666104.877       -3210.321          41.000  
G12  20729564.270   108934588.225         409.747          50.000  
R12  22224274.303   118718130.414        3809.653          43.000  
G24  21651421.790   113778960.605       -2746.804          46.000  
G25  22050146.352   115874297.469        2174.801          45.000  
G29  21774265.809   114424551.420        1242.282          48.000  
G32  25756255.233                1      -1234.508          30.000  
R10  20881875.983   111312113.691       -2972.852          41.000  
R22  20778808.685   110918674.069        1603.314          46.000  
R11  19375062.786   103534455.475         880.291          47.000  
R20  23618062.849   126296432.362       -3690.356          37.000  
R21  19982571.762   106930795.472       -1960.801          48.000  
S20  37909846.947   199217568.033         -17.861          40.000  
> 2017 11 15 18 29 52.2000000  0 15                     
G 2  20656688.461   108551616.994       -1609.441          49.000  
G 5  24115119.404   126725828.548        2178.621          44.000  
G 6  23723282.129   124666746.793       -3210.022          41.000  
G12  20729548.687   108934506.300         409.814          50.000  
R12  22224131.543   118717368.537        3809.677          43.000  
G24  21651526.456   113779509.961       -2746.380          46.000  
G25  22050063.499   115873862.573        2174.592          45.000  
G29  21774218.466   114424302.980        1242.282          48.000  
G32  25756300.551                1      -1236.550          30.000  
R10  20881987.420   111312708.127       -2972.986          42.000  
R22  20778748.534   110918353.444        1603.033          46.000  
R11  19375029.962   103534279.458         879.786          47.000  
R20  23618200.828   126297170.479       -3691.199          39.000  
R21  19982645.000   106931187.674       -1960.961          48.000  
S20  37909847.506   199217571.604         -17.540          40.000  
> 2017 11 15 18 29 52.4000000  0 15                     
G 2  20656749.781   108551938.957       -1609.864          49.000  
G 5  24115036.393   126725392.840        2178.753          43.000  
G 6  23723404.333   124667388.717       -3209.833          41.000  
G12  20729533.156   108934424.364         409.326          50.000  
R12  22223988.992   118716606.636        3809.564          44.000  
G24  21651631.105   113780059.304       -2746.134          46.000  
G25  22049980.662   115873427.596        2174.979          45.000  
G29  21774171.159   114424054.477        1242.568          48.000  
G32  25756344.945                1      -1235.538          30.000  
R10  20882098.909   111313302.563       -2972.595          42.000  
R22  20778688.366   110918032.791        1603.601          47.000  
R11  19374996.894   103534103.428         880.134          46.000  
R20  23618338.789   126297908.528       -3691.079          39.000  
R21  19982718.570   106931579.862       -1961.167          48.000  
S20  37909848.029   199217575.171         -18.061          40.000  
> 2017 11 15 18 29 52.6000000  0 15                     
G 2  20656810.962   108552260.897       -1609.853          49.000  
G 5  24114953.400   126724957.204        2179.039          44.000  
G 6  23723526.571   124668030.683       -3210.071          41.000  
G12  20729517.573   108934342.439         409.637          50.000  
R12  22223846.406   118715844.770        3809.120          44.000  
G24  21651735.615   113780608.662       -2746.468          46.000  
G25  22049898.018   115872992.678        2174.626          46.000  
G29  21774123.781   114423806.002        1242.222          48.000  
G32  25756396.580                1      -1235.633          29.000  
R10  20882210.451   111313896.992       -2972.125          42.000  
R22  20778628.215   110917712.175        1602.594          46.000  
R11  19374964.070   103533927.461         879.568          47.000  
R20  23618476.873   126298646.602       -3690.717          39.000  
R21  19982791.826   106931972.060       -1960.927          48.000  
S20  37909848.675   199217578.722         -18.491          40.000  
> 2017 11 15 18 29 52.8000000  0 15                     
G 2  20656872.299   108552582.823       -1609.786          49.000  
G 5  24114870.442   126724521.533        2177.797          44.000  
G 6  23723648.583   124668672.557       -3209.863          39.000  
G12  20729501.920   108934260.478         409.912          51.000  
R12  22223703.855   118715082.841        3809.738          44.000  
G24  21651839.950   113781158.010       -2746.533          45.000  
G25  22049815.252   115872557.676        2175.157          45.000  
G29  21774076.596   114423557.509        1242.455          49.000  
G32  25756442.230                1      -1235.674          29.000  
R10  20882322.028   111314491.421       -2972.046          41.000  
R22  20778568.081   110917391.555        1603.119          47.000  
R11  19374931.089   103533751.440         880.073          47.000  
R20  23618614.887   126299384.613       -3690.349          39.000  
R21  19982865.065   106932364.258       -1960.910          47.000  
S20  37909849.268   199217582.231         -17.672          40.000  
> 2017 11 15 18 29 53.0000000  0 15                     
G 2  20656933.375   108552904.767       -1609.706          48.000  
G 5  24114787.588   126724085.855        2178.318          44.000  
G 6  23723770.717   124669314.467       -3209.088          39.000  
G12  20729486.267   108934178.509         409.760          51.000  
R12  22223561.339   118714320.947        3809.645          44.000  
G24  21651944.354   113781707.322       -2746.129          44.000  
G25  22049732.503   115872122.708        2175.373          46.000  
G29  21774029.411   114423309.001        1242.777          48.000  
G32  25756490.933                1      -1234.629          29.000  
R10  20882433.465   111315085.858       -2972.381          41.000  
R22  20778507.896   110917070.894        1603.534          46.000  
R11  19374898.073   103533575.465         880.004          47.000  
R20  23618752.848   126300122.626       -3690.054          39.000  
R21  19982938.181   106932756.451       -1960.894          47.000  
S20  37909849.896   199217585.735         -17.063          40.000  
> 2017 11 15 18 29 53.2000000  0 15                     
G 2  20656994.468   108553226.712       -1609.569          49.000  
G 5  24114704.560   126723650.084        2177.687          43.000  
G 6  23723892.939   124669956.417       -3210.126          39.000  
G12  20729470.911   108934096.545         409.656          50.000  
R12  22223418.789   118713559.028        3808.495          44.000  
G24  21652048.864   113782256.630       -2746.359          45.000  
G25  22049649.824   115871687.715        2174.318          46.000  
G29  21773981.963   114423060.517        1241.858          49.000  
G32  25756541.783                1      -1236.613          29.000  
R10  20882544.919   111315680.266       -2972.278          41.000  
R22  20778447.762   110916750.251        1602.692          46.000  
R11  19374865.267   103533399.463         879.552          47.000  
R20  23618890.932   126300860.627       -3689.861          39.000  
R21  19983011.490   106933148.610       -1961.242          48.000  
S20  37909850.490   199217589.206         -17.299          40.000  
> 2017 11 15 18 29 53.4000000  0 15                     
G 2  20657055.788   108553548.666       -1609.797          49.000  
G 5  24114621.637   126723214.217        2180.062          44.000  
G 6  23724015.160   124670598.296       -3209.912          41.000  
G12  20729455.346   108934014.554         410.315          51.000  
R12  22223276.116   118712797.102        3809.553          44.000  
G24  21652153.460   113782805.897       -2746.438          46.000  
G25  22049566.970   115871252.677        2175.707          45.000  
G29  21773934.604   114422811.940        1243.397          48.000  
G32  25756588.009                1      -1234.006          29.000  
R10  20882656.531   111316274.655       -2971.808          41.000  
R22  20778387.803   110916429.585        1603.748          47.000  
R11  19374832.356   103533223.482         880.473          47.000  
R20  23619028.928   126301598.597       -3689.506          39.000  
R21  19983084.938   106933540.789       -1960.518          48.000  
S20  37909851.083   199217592.628         -17.076          40.000  
> 2017 11 15 18 29 53.6000000  0 15                     
G 2  20657116.899   108553870.670       -1610.244          48.000  
G 5  24114538.713   126722778.542        2179.029          44.000  
G 6  23724137.346   124671240.217       -3209.369          41.000  
G12  20729439.920   108933932.591         409.656          51.000  
R12  22223133.512   118712035.180        3808.948          43.000  
G24  21652258.144   113783355.236       -2746.823          46.000  
G25  22049484.186   115870817.717        2174.879          45.000  
G29  21773887.348   114422563.466        1242.143          48.000  
G32  25756634.042                1      -1237.562          29.000  
R10  20882768.125   111316869.129       -2972.235          41.000  
R22  20778327.670   110916109.000        1602.838          47.000  
R11  19374799.515   103533047.574         879.382          47.000  
R20  23619166.977   126302336.588       -3689.490          40.000  
R21  19983158.264   106933932.999       -1961.147          47.000  
S20  37909851.763   199217596.120         -17.476          40.000  
> 2017 11 15 18 29 53.8000000  0 15                     
G 2  20657178.254   108554192.660       -1609.820          48.000  
G 5  24114455.877   126722342.796        2179.008          45.000  
G 6  23724259.358   124671882.083       -3208.759          41.000  
G12  20729424.284   108933850.627         409.760          51.000  
R12  22222990.700   118711273.210        3809.850          43.000  
G24  21652362.688   113783904.600       -2747.013          46.000  
G25  22049401.315   115870382.675        2175.200          46.000  
G29  21773840.128   114422314.921        1242.601          49.000  
G32  25756681.158                1      -1233.511          29.000  
R10  20882879.649   111317463.584       -2972.211          41.000  
R22  20778267.554   110915788.368        1603.113          46.000  
R11  19374766.499   103532871.611         879.837          47.000  
R20  23619304.955   126303074.512       -3689.550          41.000  
R21  19983231.432   106934325.165       -1960.995          47.000  
S20  37909852.374   199217599.554         -16.786          40.000  
> 2017 11 15 18 29 54.0000000  0 15                     
G 2  20657239.766   108554514.657       -1609.930          49.000  
G 5  24114372.936   126721907.057        2179.195          45.000  
G 6  23724381.492   124672524.009       -3209.039          41.000  
G12  20729408.736   108933768.638         410.083          50.000  
R12  22222848.166   118710511.294        3809.684          43.000  
G24  21652467.285   113784453.951       -2747.132          46.000  
G25  22049318.531   115869947.622        2175.576          46.000  
G29  21773792.873   114422066.379        1243.156          48.000  
G32  25756729.827   135352483.0723      -1235.830          29.000  
R10  20882991.174   111318058.076       -2972.284          41.000  
R22  20778207.630   110915467.777        1603.137          47.000  
R11  19374733.710   103532695.735         879.575          47.000  
R20  23619443.109   126303812.413       -3689.173          41.000  
R21  19983304.566   106934717.334       -1960.488          47.000  
S20  37909852.968   199217603.014         -16.822          40.000  
> 2017 11 15 18 29 54.2000000  0 15                     
G 2  20657301.103   108554836.591       -1610.107          49.000  
G 5  24114289.838   126721471.261        2179.068          44.000  
G 6  23724503.644   124673165.822       -3209.558          41.000  
G12  20729393.136   108933686.592         409.894          50.000  
R12  22222705.493   118709749.244        3809.586          43.000  
G24  21652571.794   113785003.232       -2746.517          46.000  
G25  22049235.730   115869512.480        2175.842          46.000  
G29  21773745.496   114421817.852        1242.496          49.000  
G32  25756771.114   135352730.1943      -1235.432          29.000  
R10  20883102.716   111318652.541       -2972.174          41.000  
R22  20778147.531   110915147.160        1602.795          46.000  
R11  19374700.973   103532519.763         879.455          47.000  
R20  23619581.000   126304550.223       -3689.458          41.000  
R21  19983377.979   106935109.451       -1960.817          47.000  
S20  37909853.561   199217606.427         -17.528          40.000  
> 2017 11 15 18 29 54.4000000  0 15                     
G 2  20657362.458   108555158.574       -1609.592          48.000  
G 5  24114207.054   126721035.408        2179.337          46.000  
G 6  23724625.691   124673807.639       -3209.125          41.000  
G12  20729377.430   108933604.567         410.211          50.000  
R12  22222562.838   118708987.243        3809.945          43.000  
G24  21652676.461   113785552.511       -2745.836          45.000  
G25  22049152.999   115869077.396        2175.601          46.000  
G29  21773698.101   114421569.220        1242.756          48.000  
G32  25756815.053   135352977.2403      -1234.723          29.000  
R10  20883214.345   111319246.989       -2971.753          41.000  
R22  20778087.380   110914826.483        1603.668          46.000  
R11  19374667.905   103532343.815         879.732          47.000  
R20  23619719.067   126305288.044       -3689.377          41.000  
R21  19983451.305   106935501.583       -1960.728          47.000  
S20  37909854.084   199217609.697         -16.425          40.000  
> 2017 11 15 18 29 54.6000000  0 15                     
G 2  20657423.761   108555480.563       -1610.214          49.000  
G 5  24114124.166   126720599.623        2178.080          45.000  
G 6  23724747.912   124674449.458       -3209.344          41.000  
G12  20729361.882   108933522.543         410.168          50.000  
R12  22222420.235   118708225.254        3809.853          42.000  
G24  21652780.900   113786101.853       -2746.526          45.000  
G25  22049070.145   115868642.272        2175.438          45.000  
G29  21773650.811   114421320.626        1243.415          48.000  
G32  25756859.307   135353224.3473      -1235.945          29.000  
R10  20883325.747   111319841.483       -2973.157          40.000  
R22  20778027.247   110914505.891        1602.869          46.000  
R11  19374635.116   103532167.927         879.520          47.000  
R20  23619857.063   126306025.835       -3688.780          41.000  
R21  19983524.579   106935893.713       -1960.576          48.000  
S20  37909854.678   199217612.993         -16.227          40.000  
> 2017 11 15 18 29 54.8000000  0 15                     
G 2  20657484.872   108555802.491       -1609.355          48.000  
G 5  24114041.277   126720163.710        2178.796          46.000  
G 6  23724869.959   124675091.207       -3208.112          42.000  
G12  20729346.142   108933440.438         410.931          50.000  
R12  22222277.475   118707463.164        3811.082          41.000  
G24  21652885.410   113786651.092       -2745.934          45.000  
G25  22048987.361   115868207.112        2176.588          45.000  
G29  21773603.608   114421072.009        1243.456          49.000  
G32  25756908.185   135353471.2563      -1234.774          29.000  
R10  20883437.166   111320435.850       -2972.302          41.000  
R22  20777967.253   110914185.212        1603.686          47.000  
R11  19374602.048   103531991.975         879.950          46.000  
R20  23619995.164   126306763.564       -3687.789          39.000  
R21  19983597.957   106936285.798       -1960.130          48.000  
S20  37909855.236   199217616.220         -16.211          40.000  
> 2017 11 15 18 29 55.0000000  0 15                     
G 2  20657546.000   108556124.472       -1609.740          48.000  
G 5  24113958.371   126719727.794        2179.651          46.000  
G 6  23724992.163   124675732.980       -3208.649          42.000  
G12  20729330.577   108933358.348         410.474          50.000  
R12  22222134.941   118706701.153        3809.905          41.000  
G24  21652989.902   113787200.354       -2746.016          46.000  
G25  22048904.612   115867771.962        2175.352          46.000  
G29  21773556.248   114420823.372        1243.171          48.000  
G32  25756955.545   135353718.3513      -1234.814          29.000  
R10  20883548.726   111321030.284       -2971.887          42.000  
R22  20777907.154   110913864.572        1603.680          47.000  
R11  19374569.137   103531816.059         879.604          47.000  
R20  23620133.003   126307501.312       -3688.563          39.000  
R21  19983671.283   106936677.901       -1960.693          48.000  
S20  37909855.882   199217619.439         -15.761          40.000  
> 2017 11 15 18 29 55.2000000  0 15                     
G 2  20657607.390   108556446.460       -1609.961          49.000  
G 5  24113875.396   126719291.904        2179.286          46.000  
G 6  23725114.262   124676374.779       -3208.789          42.000  
G12  20729314.837   108933276.280         410.358          50.000  
R12  22221992.443   118705939.121        3810.052          41.000  
G24  21653094.620   113787749.629       -2746.258          46.000  
G25  22048821.916   115867336.773        2175.916          46.000  
G29  21773509.010   114420574.759        1243.255          48.000  
G32  25757005.069   135353965.3503      -1234.823          30.000  
R10  20883660.198   111321624.742       -2972.253          42.000  
R22  20777847.230   110913543.968        1602.283          47.000  
R11  19374536.121   103531640.161         879.348          47.000  
R20  23620271.034   126308239.029       -3688.487          38.000  
R21  19983744.399   106937070.021       -1960.662          48.000  
S20  37909856.388   199217622.622         -16.128          40.000  
> 2017 11 15 18 29 55.4000000  0 14                     
G 2  20657668.745   108556768.461       -1610.214          49.000  
G 5  24113792.681   126718855.955        2179.732          47.000  
G 6  23725236.326   124677016.578       -3208.893          42.000  
G12  20729299.184   108933194.228         410.449          50.000  
R12  22221849.892   118705177.065        3810.504          41.000  
G24  21653199.269   113788298.886       -2746.113          47.000  
G25  22048739.079   115866901.616        2175.324          46.000  
G29  21773461.650   114420326.162        1242.696          48.000  
R10  20883771.739   111322219.228       -2972.577          41.000  
R22  20777787.184   110913223.296        1603.589          46.000  
R11  19374503.472   103531464.317         879.123          47.000  
R20  23620409.013   126308976.783       -3688.553          38.000  
R21  19983817.812   106937462.139       -1960.311          48.000  
S20  37909856.981   199217625.821         -15.959          40.000  
> 2017 11 15 18 29 55.6000000  0 14                     
G 2  20657730.239   108557090.494       -1610.231          49.000  
G 5  24113709.793   126718420.088        2180.304          47.000  
G 6  23725358.582   124677658.368       -3208.722          44.000  
G12  20729283.705   108933112.161         410.406          51.000  
R12  22221707.132   118704415.029        3810.067          43.000  
G24  21653303.779   113788848.196       -2746.138          46.000  
G25  22048656.051   115866466.418        2176.138          46.000  
G29  21773414.395   114420077.494        1243.766          48.000  
R10  20883883.368   111322813.707       -2972.638          41.000  
R22  20777727.068   110912902.723        1603.473          47.000  
R11  19374470.526   103531288.462         879.505          47.000  
R20  23620546.922   126309714.469       -3688.250          36.000  
R21  19983891.016   106937854.279       -1960.338          48.000  
S20  37909857.487   199217629.071         -15.962          40.000  
> 2017 11 15 18 29 55.8000000  0 14                     
G 2  20657791.455   108557412.563       -1610.321          48.000  
G 5  24113626.870   126717984.260        2178.867          45.000  
G 6  23725480.804   124678300.198       -3209.308          44.000  
G12  20729267.791   108933030.153         410.089          50.000  
R12  22221564.598   118703652.992        3810.611          42.000  
G24  21653408.340   113789397.531       -2746.407          46.000  
G25  22048573.180   115866031.279        2176.289          46.000  
G29  21773367.192   114419828.952        1243.069          49.000  
R10  20883994.823   111323408.222       -2972.784          40.000  
R22  20777667.022   110912582.185        1602.264          47.000  
R11  19374437.789   103531112.686         879.051          47.000  
R20  23620684.936   126310452.206       -3688.394          38.000  
R21  19983964.342   106938246.466       -1960.566          48.000  
S20  37909858.115   199217632.269         -16.403          39.000  
> 2017 11 15 18 29 56.0000000  0 14                     
G 2  20657852.583   108557734.629       -1610.125          49.000  
G 5  24113543.789   126717548.329        2180.087          44.000  
G 6  23725602.886   124678941.939       -3209.021          43.000  
G12  20729252.277   108932948.078         410.559          51.000  
R12  22221421.995   118702890.910        3810.528          43.000  
G24  21653513.059   113789946.852       -2746.323          46.000  
G25  22048490.501   115865596.072        2176.143          46.000  
G29  21773320.112   114419580.290        1243.030          49.000  
R10  20884106.417   111324002.725       -2972.803          40.000  
R22  20777606.958   110912261.525        1603.589          47.000  
R11  19374405.017   103530936.885         879.013          47.000  
R20  23620822.880   126311189.897       -3688.929          39.000  
R21  19984037.859   106938638.613       -1960.738          48.000  
S20  37909858.674   199217635.440         -15.701          40.000  
> 2017 11 15 18 29 56.2000000  0 14                     
G 2  20657913.798   108558056.716       -1610.579          49.000  
G 5  24113460.726   126717112.411        2179.527          43.000  
G 6  23725724.985   124679583.770       -3208.227          42.000  
G12  20729236.677   108932866.035         410.583          51.000  
R12  22221279.462   118702128.868        3811.316          43.000  
G24  21653617.673   113790496.153       -2746.720          46.000  
G25  22048407.839   115865160.901        2176.102          46.000  
G29  21773272.769   114419331.643        1243.596          47.000  
R10  20884217.941   111324597.248       -2972.949          40.000  
R22  20777546.738   110911940.992        1603.216          46.000  
R11  19374372.211   103530761.100         879.114          47.000  
R20  23620960.824   126311927.589       -3688.138          38.000  
R21  19984111.325   106939030.770       -1960.343          48.000  
S20  37909859.250   199217638.655         -15.649          40.000  
> 2017 11 15 18 29 56.4000000  0 14                     
G 2  20657975.170   108558378.865       -1611.397          49.000  
G 5  24113377.698   126716676.505        2179.739          43.000  
G 6  23725847.206   124680225.667       -3209.857          41.000  
G12  20729221.111   108932784.075         408.893          50.000  
R12  22221136.876   118701366.918        3809.831          43.000  
G24  21653722.235   113791045.519       -2747.249          46.000  
G25  22048324.968   115864725.752        2175.323          45.000  
G29  21773225.462   114419083.136        1242.106          49.000  
R10  20884329.588   111325191.835       -2973.785          42.000  
R22  20777486.761   110911620.484        1601.153          46.000  
R11  19374339.387   103530585.421         877.979          46.000  
R20  23621098.855   126312665.333       -3688.906          38.000  
R21  19984184.895   106939423.021       -1961.996          48.000  
S20  37909859.791   199217641.852         -16.633          40.000  
> 2017 11 15 18 29 56.6000000  0 15                     
G14  25568521.655                1       -605.612          33.000  
G 2  20658036.491   108558700.994       -1610.319          48.000  
G 5  24113294.740   126716240.663        2179.081          43.000  
G 6  23725969.375   124680867.519       -3209.106          40.000  
G12  20729205.528   108932702.054         410.284          50.000  
R12  22220994.116   118700604.913        3810.299          42.000  
G24  21653826.779   113791594.882       -2747.055          46.000  
G25  22048242.254   115864290.587        2176.644          45.000  
G29  21773178.154   114418834.502        1243.101          49.000  
R10  20884441.234   111325786.423       -2973.602          42.000  
R22  20777426.872   110911299.915        1603.467          47.000  
R11  19374306.563   103530409.719         878.490          47.000  
R20  23621236.817   126313403.008       -3688.091          38.000  
R21  19984258.151   106939815.218       -1961.234          47.000  
S20  37909860.436   199217645.031         -16.144          40.000  
> 2017 11 15 18 29 56.8000000  0 15                     
G14  25568543.904                1       -605.612          33.000  
G 2  20658097.776   108559023.183       -1611.030          49.000  
G 5  24113211.834   126715804.812        2179.613          43.000  
G 6  23726091.439   124681509.345       -3209.302          40.000  
G12  20729189.928   108932620.008         410.376          50.000  
R12  22220851.373   118699842.812        3810.868          41.000  
G24  21653931.184   113792144.272       -2747.117          45.000  
G25  22048159.436   115863855.377        2176.023          46.000  
G29  21773130.602   114418585.908        1243.333          47.000  
R10  20884552.829   111326381.052       -2973.041          42.000  
R22  20777366.826   110910979.456        1602.215          46.000  
R11  19374273.739   103530234.020         878.126          46.000  
R20  23621374.743   126314140.655       -3687.925          38.000  
R21  19984331.215   106940207.395       -1960.707          48.000  
S20  37909860.925   199217648.268         -15.803          40.000  
> 2017 11 15 18 29 57.0000000  0 16                     
G14  25568565.891                1       -605.612          33.000  
G 2  20658159.061   108559345.338       -1611.119          49.000  
G 5  24113128.753   126715368.896        2179.444          43.000  
G 6  23726213.748   124682151.194       -3209.399          40.000  
G12  20729174.031   108932538.027         409.912          50.000  
R12  22220708.857   118699080.821        3810.651          41.000  
G24  21654035.553   113792693.586       -2746.840          45.000  
G25  22048076.756   115863420.172        2176.624          46.000  
G29  21773083.399   114418337.303        1243.024          48.000  
G32  25757435.967                1      -1229.896          24.000  
R10  20884664.318   111326975.631       -2972.839          42.000  
R22  20777306.692   110910658.883        1602.875          47.000  
R11  19374240.968   103530058.343         878.953          47.000  
R20  23621512.652   126314878.325       -3688.046          39.000  
R21  19984404.593   106940599.607       -1961.020          48.000  
S20  37909861.518   199217651.397         -16.267          40.000  
> 2017 11 15 18 29 57.2000000  0 15                     
G14  25568588.001                1       -607.910          33.000  
G 2  20658220.381   108559667.483       -1610.429          49.000  
G 5  24113045.812   126714932.964        2178.863          42.000  
G 6  23726335.830   124682792.978       -3208.746          40.000  
G12  20729158.483   108932455.986         410.150          51.000  
R12  22220566.219   118698318.770        3810.756          41.000  
G24  21654140.045   113793242.911       -2746.489          45.000  
G25  22047993.973   115862984.974        2176.240          46.000  
G29  21773036.197   114418088.660        1243.109          48.000  
R10  20884775.807   111327570.211       -2972.278          43.000  
R22  20777246.646   110910338.358        1602.856          47.000  
R11  19374207.900   103529882.667         877.901          47.000  
R20  23621650.614   126315615.930       -3687.754          39.000  
R21  19984477.936   106940991.784       -1960.721          48.000  
S20  37909862.146   199217654.506         -15.700          40.000  
> 2017 11 15 18 29 57.4000000  0 15                     
G14  25568610.459                1       -606.051          34.000  
G 2  20658281.614   108559989.609       -1610.849          48.000  
G 5  24112962.959   126714496.880        2179.545          44.000  
G 6  23726457.772   124683434.717       -3208.331          42.000  
G12  20729142.952   108932373.848         410.193          50.000  
R12  22220423.755   118697556.687        3811.175          41.000  
G24  21654244.607   113793792.242       -2747.101          46.000  
G25  22047910.997   115862549.709        2176.060          45.000  
G29  21772988.976   114417840.025        1243.197          49.000  
R10  20884887.349   111328164.790       -2973.163          42.000  
R22  20777186.635   110910017.834        1602.075          46.000  
R11  19374175.058   103529706.961         878.567          46.000  
R20  23621788.470   126316353.471       -3688.004          39.000  
R21  19984551.280   106941383.918       -1960.343          48.000  
S20  37909862.862   199217657.588         -15.345          41.000  
> 2017 11 15 18 29 57.6000000  0 15                     
G14  25568631.155                1       -606.817          33.000  
G 2  20658342.916   108560311.766       -1610.613          48.000  
G 5  24112880.035   126714060.907        2180.388          44.000  
G 6  23726579.819   124684076.514       -3208.459          42.000  
G12  20729127.264   108932291.800         410.706          49.000  
R12  22220281.205   118696794.642        3810.521          42.000  
G24  21654349.099   113794341.570       -2746.895          45.000  
G25  22047828.196   115862114.471        2175.920          45.000  
G29  21772941.564   114417591.348        1243.378          48.000  
R10  20884998.909   111328759.373       -2972.827          42.000  
R22  20777126.571   110909697.261        1603.393          47.000  
R11  19374142.427   103529531.290         878.476          47.000  
R20  23621926.362   126317091.037       -3688.083          39.000  
R21  19984624.640   106941776.106       -1960.709          48.000  
S20  37909863.490   199217660.687         -14.490          40.000  
> 2017 11 15 18 29 57.8000000  0 15                     
G14  25568653.596                1       -606.908          33.000  
G 2  20658404.289   108560633.915       -1610.995          48.000  
G 5  24112797.147   126713624.967        2180.190          44.000  
G 6  23726701.953   124684718.196       -3208.423          42.000  
G12  20729111.733   108932209.725         410.596          50.000  
R12  22220138.566   118696032.519        3810.921          42.000  
G24  21654453.434   113794890.970       -2747.303          45.000  
G25  22047745.481   115861679.200        2175.982          45.000  
G29  21772894.379   114417342.744        1243.377          49.000  
R10  20885110.520   111329354.013       -2972.778          42.000  
R22  20777066.508   110909376.867        1602.057          46.000  
R11  19374109.411   103529355.674         878.093          47.000  
R20  23622064.236   126317828.475       -3687.127          37.000  
R21  19984698.001   106942168.252       -1961.052          49.000  
S20  37909863.874   199217663.802         -16.253          38.000  
> 2017 11 15 18 29 58.0000000  0 15                     
G14  25568674.484   134364318.1613       -605.379          33.000  
G 2  20658465.679   108560956.072       -1610.656          48.000  
G 5  24112714.171   126713188.907        2180.007          44.000  
G 6  23726824.017   124685359.976       -3208.624          42.000  
G12  20729096.081   108932127.651         410.120          49.000  
R12  22219995.841   118695270.467        3810.437          40.000  
G24  21654557.873   113795440.209       -2745.986          44.000  
G25  22047662.767   115861243.949        2176.295          45.000  
G29  21772846.914   114417094.098        1243.388          47.000  
R10  20885222.010   111329948.554       -2972.314          41.000  
R22  20777006.479   110909056.302        1602.386          46.000  
R11  19374076.622   103529180.008         878.332          47.000  
R20  23622202.302   126318565.989       -3687.517          36.000  
R21  19984771.379   106942560.434       -1960.923          47.000  
S20  37909864.275   199217666.799         -14.647          40.000  
> 2017 11 15 18 29 58.2000000  0 15                     
G14  25568700.607   134364439.7853       -606.966          33.000  
G 2  20658527.121   108561278.309       -1610.435          49.000  
G 5  24112631.073   126712752.756        2180.412          45.000  
G 6  23726946.134   124686001.818       -3207.788          41.000  
G12  20729080.410   108932045.628         410.748          50.000  
R12  22219853.186   118694508.539        3810.295          40.000  
G24  21654662.243   113795989.464       -2746.725          44.000  
G25  22047579.949   115860808.788        2176.657          46.000  
G29  21772799.572   114416845.486        1243.225          48.000  
R10  20885333.516   111330543.079       -2973.633          41.000  
R22  20776946.363   110908735.807        1602.380          45.000  
R11  19374043.728   103529004.460         878.132          46.000  
R20  23622340.316   126319303.635       -3687.226          36.000  
R21  19984844.618   106942952.707       -1960.502          48.000  
S20  37909864.816   199217669.804         -14.934          40.000  
> 2017 11 15 18 29 58.4000000  0 15                     
G14  25568723.641   134364561.1812       -606.682          33.000  
G 2  20658588.319   108561600.495       -1611.097          49.000  
G 5  24112548.062   126712316.658        2180.807          46.000  
G 6  23727068.268   124686643.623       -3209.003          39.000  
G12  20729065.054   108931963.547         410.559          50.000  
R12  22219710.652   118693746.473        3809.722          40.000  
G24  21654766.770   113796538.729       -2746.601          45.000  
G25  22047497.043   115860373.494        2176.237          45.000  
G29  21772752.107   114416596.816        1243.052          47.000  
R10  20885444.954   111331137.604       -2973.096          42.000  
R22  20776886.352   110908415.230        1602.502          46.000  
R11  19374010.869   103528828.859         877.924          47.000  
R20  23622478.155   126320041.119       -3687.618          36.000  
R21  19984917.891   106943344.872       -1961.221          48.000  
S20  37909865.270   199217672.734         -14.385          40.000  
> 2017 11 15 18 29 58.6000000  0 15                     
G14  25568750.183   134364682.5922       -607.374          34.000  
G 2  20658649.604   108561922.630       -1610.966          49.000  
G 5  24112465.121   126711880.644        2180.151          47.000  
G 6  23727190.332   124687285.287       -3209.344          39.000  
G12  20729049.262   108931881.398         410.406          50.000  
R12  22219568.066   118692984.336        3810.333          40.000  
G24  21654871.227   113797088.108       -2746.875          45.000  
G25  22047414.207   115859938.156        2176.663          46.000  
G29  21772704.922   114416348.172        1243.763          49.000  
R10  20885556.530   111331732.255       -2973.358          42.000  
R22  20776826.428   110908094.833        1602.313          47.000  
R11  19373978.080   103528653.203         878.202          47.000  
R20  23622616.030   126320778.499       -3687.235          36.000  
R21  19984991.339   106943736.957       -1960.341          48.000  
S20  37909865.916   199217675.833         -15.527          40.000  
> 2017 11 15 18 29 58.8000000  0 15                     
G14  25568771.891   134364804.0002       -606.584          34.000  
G 2  20658710.837   108562244.813       -1610.773          49.000  
G 5  24112382.337   126711444.645        2180.281          47.000  
G 6  23727312.326   124687926.931       -3208.246          39.000  
G12  20729033.679   108931799.292         410.748          50.000  
R12  22219425.463   118692222.191        3810.703          38.000  
G24  21654975.806   113797637.480       -2747.039          45.000  
G25  22047331.405   115859502.814        2176.920          46.000  
G29  21772657.579   114416099.515        1243.188          48.000  
R10  20885668.002   111332326.935       -2973.224          42.000  
R22  20776766.259   110907774.364        1601.831          46.000  
R11  19373945.099   103528477.635         878.036          47.000  
R20  23622753.921   126321515.856       -3686.182          35.000  
R21  19985064.700   106944129.090       -1960.366          48.000  
S20  37909866.387   199217678.831         -15.597          40.000  
> 2017 11 15 18 29 59.0000000  0 15                     
G14  25568796.356   134364925.4662       -607.159          34.000  
G 2  20658772.157   108562567.053       -1610.850          49.000  
G 5  24112299.362   126711008.663        2179.750          46.000  
G 6  23727434.391   124688568.669       -3208.429          41.000  
G12  20729018.218   108931717.229         410.443          51.000  
R12  22219282.808   118691460.080        3810.718          38.000  
G24  21655080.298   113798186.890       -2747.007          45.000  
G25  22047248.639   115859067.483        2176.878          46.000  
G29  21772610.115   114415850.858        1243.691          48.000  
R10  20885779.561   111332921.653       -2973.560          40.000  
R22  20776706.196   110907453.914        1602.576          47.000  
R11  19373912.293   103528302.098         877.808          47.000  
R20  23622891.935   126322253.232       -3686.142          36.000  
R21  19985138.113   106944521.267       -1960.312          47.000  
S20  37909867.050   199217681.835         -14.960          40.000  
> 2017 11 15 18 29 59.2000000  0 15                     
G14  25568815.551   134365046.8702       -606.051          34.000  
G 2  20658833.634   108562889.264       -1611.110          49.000  
G 5  24112216.334   126710572.505        2180.705          46.000  
G 6  23727556.437   124689210.376       -3208.978          42.000  
G12  20729002.303   108931635.094         410.278          50.000  
R12  22219140.309   118690697.956        3810.500          38.000  
G24  21655184.912   113798736.202       -2746.677          45.000  
G25  22047165.593   115858632.157        2176.689          46.000  
G29  21772562.720   114415602.213        1243.195          48.000  
R10  20885891.156   111333516.201       -2972.406          41.000  
R22  20776646.045   110907133.464        1602.508          45.000  
R11  19373879.434   103528126.543         877.536          47.000  
R20  23623029.879   126322990.616       -3686.278          36.000  
R21  19985211.352   106944913.439       -1960.752          48.000  
S20  37909867.538   199217684.776         -14.910          40.000  
> 2017 11 15 18 29 59.4000000  0 15                     
G14  25568840.401   134365168.3962       -606.680          34.000  
G 2  20658894.832   108563211.532       -1611.286          48.000  
G 5  24112133.462   126710136.418        2181.118          47.000  
G 6  23727678.571   124689852.100       -3208.252          43.000  
G12  20728986.685   108931553.030         410.748          50.000  
R12  22218997.758   118689935.903        3810.591          38.000  
G24  21655289.456   113799285.589       -2746.854          46.000  
G25  22047082.670   115858196.846        2177.089          46.000  
G29  21772515.587   114415353.558        1243.249          49.000  
R10  20886002.680   111334110.892       -2972.589          41.000  
R22  20776585.894   110906813.035        1601.733          46.000  
R11  19373846.750   103527951.028         877.882          47.000  
R20  23623167.753   126323728.025       -3686.321          36.000  
R21  19985284.730   106945305.648       -1960.952          48.000  
S20  37909868.044   199217687.738         -14.496          40.000  
> 2017 11 15 18 29 59.6000000  0 15                     
G14  25568862.039   134365289.8622       -607.699          34.000  
G 2  20658956.239   108563533.836       -1611.753          49.000  
G 5  24112050.504   126709700.375        2179.755          45.000  
G 6  23727800.601   124690493.866       -3209.503          44.000  
G12  20728970.980   108931470.973         410.016          50.000  
R12  22218855.400   118689173.867        3809.222          38.000  
G24  21655394.123   113799834.970       -2747.152          46.000  
G25  22046999.991   115857761.585        2176.177          47.000  
G29  21772468.384   114415104.939        1243.049          49.000  
R10  20886114.466   111334705.588       -2973.248          41.000  
R22  20776525.935   110906492.619        1602.264          46.000  
R11  19373813.822   103527775.572         877.268          47.000  
R20  23623305.714   126324465.395       -3686.571          37.000  
R21  19985358.178   106945697.867       -1961.603          48.000  
S20  37909868.568   199217690.673         -14.351          40.000  
> 2017 11 15 18 29 59.8000000  0 15                     
G14  25568881.950   134365411.5072       -608.379          34.000  
G 2  20659017.472   108563856.154       -1611.591          49.000  
G 5  24111967.685   126709264.159        2180.349          46.000  
G 6  23727922.770   124691135.704       -3209.180          44.000  
G12  20728955.345   108931388.946         410.144          50.000  
R12  22218712.866   118688411.891        3809.289          40.000  
G24  21655498.737   113800384.264       -2747.028          46.000  
G25  22046917.347   115857326.343        2176.137          46.000  
G29  21772421.076   114414856.320        1242.954          48.000  
R10  20886225.990   111335300.244       -2973.761          42.000  
R22  20776466.028   110906172.209        1601.745          47.000  
R11  19373780.945   103527600.148         876.869          47.000  
R20  23623443.554   126325202.908       -3686.698          37.000  
R21  19985431.538   106946090.158       -1961.313          48.000  
S20  37909869.196   199217693.609         -14.899          40.000  
> 2017 11 15 18 30  0.0000000  0 15                     
G14  25568905.193   134365533.0612       -607.857          34.000  
G 2  20659078.792   108564178.545       -1612.130          49.000  
G 5  24111884.518   126708828.027        2181.547          45.000  
G 6  23728044.956   124691777.582       -3209.509          43.000  
G12  20728939.657   108931306.974         409.650          50.000  
R12  22218570.315   118687649.953        3808.839          38.000  
G24  21655603.194   113800933.595       -2746.160          46.000  
G25  22046834.458   115856891.113        2175.648          46.000  
G29  21772373.629   114414607.720        1243.073          49.000  
R10  20886337.480   111335894.898       -2973.260          42.000  
R22  20776405.860   110905851.819        1601.861          47.000  
R11  19373748.087   103527424.765         876.835          47.000  
R20  23623581.515   126325940.476       -3688.248          37.000  
R21  19985505.074   106946482.490       -1962.196          49.000  
S20  37909869.755   199217696.522         -14.181          40.000  
> 2017 11 15 18 30  0.2000000  0 15                     
G14  25568931.875   134365654.8282       -609.276          34.000  
G 2  20659139.990   108564501.022       -1612.254          48.000  
G 5  24111801.437   126708391.874        2180.798          45.000  
G 6  23728167.143   124692419.586       -3209.943          43.000  
G12  20728923.864   108931225.054         409.619          50.000  
R12  22218427.555   118686888.141        3809.734          38.000  
G24  21655707.843   113801482.923       -2746.526          46.000  
G25  22046751.552   115856456.018        2175.679          46.000  
G29  21772326.304   114414359.182        1242.839          49.000  
R10  20886449.074   111336489.541       -2972.986          42.000  
R22  20776345.744   110905531.471        1601.928          46.000  
R11  19373715.280   103527249.476         876.467          47.000  
R20  23623719.372   126326678.084       -3688.709          37.000  
R21  19985578.347   106946874.916       -1961.842          48.000  
S20  37909870.435   199217699.449         -14.751          40.000  
> 2017 11 15 18 30  0.4000000  0 15                     
G14  25568955.206   134365776.4992       -608.922          34.000  
G 2  20659201.397   108564823.513       -1612.742          49.000  
G 5  24111718.374   126707955.664        2181.157          45.000  
G 6  23728289.312   124693061.587       -3210.479          43.000  
G12  20728908.508   108931143.135         409.302          51.000  
R12  22218284.882   118686126.359        3807.691          38.000  
G24  21655812.300   113802032.182       -2746.367          46.000  
G25  22046668.681   115856020.875        2175.295          46.000  
G29  21772279.171   114414110.642        1242.337          48.000  
R10  20886560.598   111337084.199       -2973.297          42.000  
R22  20776285.610   110905211.093        1601.928          46.000  
R11  19373682.474   103527074.181         876.161          47.000  
R20  23623857.281   126327415.621       -3687.673          34.000  
R21  19985651.830   106947267.327       -1962.442          48.000  
S20  37909870.906   199217702.321         -13.978          40.000  
> 2017 11 15 18 30  0.6000000  0 15                     
G14  25568977.647   134365898.2972       -609.073          35.000  
G 2  20659262.752   108565146.059       -1612.892          49.000  
G 5  24111635.154   126707519.457        2181.178          45.000  
G 6  23728411.516   124693703.655       -3210.626          43.000  
G12  20728893.100   108931061.275         409.192          51.000  
R12  22218142.401   118685364.602        3808.658          38.000  
G24  21655916.827   113802581.422       -2745.917          46.000  
G25  22046585.967   115855585.830        2175.076          46.000  
G29  21772231.689   114413862.135        1242.371          47.000  
R10  20886672.105   111337678.795       -2972.900          42.000  
R22  20776225.651   110904890.748        1601.764          47.000  
R11  19373649.807   103526898.963         875.967          47.000  
R20  23623995.242   126328153.352       -3689.235          34.000  
R21  19985725.121   106947659.843       -1962.694          48.000  
S20  37909871.517   199217705.159         -14.536          40.000  
> 2017 11 15 18 30  0.8000000  0 15                     
G14  25569002.216   134366020.0742       -609.212          35.000  
G 2  20659324.090   108565468.582       -1612.703          49.000  
G 5  24111552.056   126707083.162        2181.640          45.000  
G 6  23728533.685   124694345.699       -3210.229          43.000  
G12  20728877.674   108930979.385         409.406          50.000  
R12  22217999.763   118684602.882        3807.729          36.000  
G24  21656021.441   113803130.637       -2746.049          46.000  
G25  22046503.043   115855150.789        2175.006          46.000  
G29  21772184.207   114413613.613        1242.432          47.000  
R10  20886783.664   111338273.369       -2972.754          42.000  
R22  20776165.815   110904570.395        1601.605          47.000  
R11  19373617.018   103526723.734         876.063          47.000  
R20  23624133.169   126328890.968       -3687.874          34.000  
R21  19985798.412   106948052.339       -1962.541          48.000  
S20  37909872.006   199217707.956         -14.100          40.000  
> 2017 11 15 18 30  1.0000000  0 15                     
G14  25569025.739   134366142.0082       -609.836          35.000  
G 2  20659385.567   108565791.169       -1613.007          49.000  
G 5  24111469.202   126706646.841        2181.625          46.000  
G 6  23728655.906   124694987.798       -3210.529          42.000  
G12  20728862.160   108930897.548         409.167          50.000  
R12  22217857.282   118683841.240        3808.062          37.000  
G24  21656125.828   113803679.872       -2746.015          44.000  
G25  22046420.225   115854715.802        2175.020          46.000  
G29  21772136.917   114413365.123        1242.690          48.000  
R10  20886895.014   111338867.986       -2973.053          40.000  
R22  20776105.856   110904250.093        1601.886          47.000  
R11  19373584.212   103526548.569         875.733          47.000  
R20  23624271.043   126329628.648       -3688.812          34.000  
R21  19985871.738   106948444.923       -1962.884          48.000  
S20  37909872.424   199217710.722         -13.837          39.000  
> 2017 11 15 18 30  1.2000000  0 15                     
G14  25569047.447   134366263.8832       -609.940          35.000  
G 2  20659446.957   108566113.790       -1613.234          49.000  
G 5  24111386.611   126706210.469        2181.778          47.000  
G 6  23728778.022   124695629.939       -3210.876          42.000  
G12  20728846.647   108930815.724         408.923          50.000  
R12  22217714.592   118683079.622        3808.100          37.000  
G24  21656230.180   113804229.036       -2745.812          44.000  
G25  22046337.354   115854280.821        2174.671          46.000  
G29  21772089.714   114413116.616        1242.363          49.000  
R10  20887006.416   111339462.526       -2972.870          40.000  
R22  20776045.705   110903929.766        1601.556          46.000  
R11  19373551.353   103526373.419         875.486          47.000  
R20  23624409.144   126330366.405       -3689.121          34.000  
R21  19985945.412   106948837.531       -1963.291          48.000  
S20  37909872.826   199217713.455         -13.642          39.000  
> 2017 11 15 18 30  1.4000000  0 15                     
G14  25569071.756   134366385.7902       -609.425          35.000  
G 2  20659508.329   108566436.463       -1613.922          49.000  
G 5  24111303.949   126705774.106        2181.306          47.000  
G 6  23728900.209   124696272.156       -3211.798          42.000  
G12  20728831.012   108930733.946         408.417          50.000  
R12  22217572.041   118682318.081        3807.853          36.000  
G24  21656334.550   113804778.160       -2745.762          44.000  
G25  22046254.483   115853845.870        2174.724          46.000  
G29  21772042.668   114412868.125        1242.445          49.000  
R10  20887117.906   111340057.066       -2973.364          40.000  
R22  20775985.659   110903609.437        1601.501          46.000  
R11  19373518.546   103526198.320         875.014          47.000  
R20  23624547.123   126331104.188       -3689.378          35.000  
R21  19986018.843   106949230.181       -1963.560          47.000  
S20  37909873.349   199217716.151         -14.356          39.000  
> 2017 11 15 18 30  1.6000000  0 15                     
G14  25569095.750   134366507.7802       -610.055          35.000  
G 2  20659569.684   108566759.114       -1613.135          49.000  
G 5  24111221.287   126705337.678        2182.087          47.000  
G 6  23729022.483   124696914.342       -3210.632          42.000  
G12  20728815.411   108930652.139         409.241          50.000  
R12  22217429.507   118681556.518        3808.166          36.000  
G24  21656438.832   113805327.261       -2745.812          44.000  
G25  22046171.559   115853410.938        2174.897          45.000  
G29  21771995.518   114412619.640        1242.506          49.000  
R10  20887229.291   111340651.560       -2972.638          41.000  
R22  20775925.525   110903289.112        1601.282          46.000  
R11  19373485.653   103526023.220         875.540          47.000  
R20  23624685.259   126331841.922       -3688.291          35.000  
R21  19986092.239   106949622.830       -1962.982          47.000  
S20  37909873.838   199217718.793         -13.201          39.000  
> 2017 11 15 18 30  1.8000000  0 16                     
G14  25569118.749   134366629.7372       -610.677          35.000  
G 2  20659631.091   108567081.841       -1613.556          49.000  
G 5  24111138.503   126704901.265        2182.558          47.000  
G 6  23729144.756   124697556.585       -3210.974          42.000  
G12  20728800.020   108930570.390         408.917          50.000  
R12  22217286.991   118680795.014        3807.468          36.000  
G24  21656543.132   113805876.386       -2745.456          43.000  
G25  22046088.758   115852976.026        2174.253          45.000  
G29  21771948.350   114412371.195        1241.908          49.000  
G32  25758558.784                1      -1236.537          25.000  
R10  20887340.815   111341246.115       -2972.571          41.000  
R22  20775865.374   110902968.815        1601.044          46.000  
R11  19373452.829   103525848.191         875.065          47.000  
R20  23624823.203   126332579.732       -3688.885          35.000  
R21  19986165.791   106950015.540       -1963.696          47.000  
S20  37909874.379   199217721.480         -13.131          39.000  
> 2017 11 15 18 30  2.0000000  0 17                     
G14  25569141.068   134366751.7652       -610.063          35.000  
G 2  20659692.534   108567404.599       -1613.960          49.000  
G 5  24111055.632   126704464.922        2182.022          47.000  
G 6  23729266.943   124698198.851       -3211.572          42.000  
G12  20728784.315   108930488.666         408.435          50.000  
R12  22217144.476   118680033.503        3807.458          36.000  
G24  21656647.554   113806425.603       -2745.667          43.000  
G25  22046005.939   115852541.116        2174.401          45.000  
G29  21771901.182   114412122.761        1242.240          49.000  
G32  25758612.374                1      -1236.537          25.000  
G20  24999676.508                1       2679.000          19.000  
R10  20887452.304   111341840.738       -2972.827          41.000  
R22  20775805.223   110902648.574        1601.489          46.000  
R11  19373420.040   103525673.205         874.785          46.000  
R20  23624961.164   126333317.542       -3689.644          35.000  
R21  19986239.169   106950408.262       -1963.896          47.000  
S20  37909874.955   199217724.235         -13.702          40.000  
> 2017 11 15 18 30  2.2000000  0 17                     
G14  25569165.481   134366873.7572       -609.932          37.000  
G 2  20659754.046   108567727.345       -1613.722          49.000  
G 5  24110972.656   126704028.508        2182.061          46.000  
G 6  23729389.094   124698841.090       -3211.212          42.000  
G12  20728768.819   108930406.909         408.978          50.000  
R12  22217001.890   118679272.034        3807.999          36.000  
G24  21656752.081   113806974.738       -2745.552          43.000  
G25  22045923.120   115852106.195        2174.856          45.000  
G29  21771853.909   114411874.317        1242.516          49.000  
G32  25758660.170                1      -1236.537          25.000  
G20  24999572.068                1       2679.000          18.000  
R10  20887563.846   111342435.314       -2972.967          41.000  
R22  20775744.985   110902328.316        1601.428          46.000  
R11  19373387.286   103525498.218         875.069          46.000  
R20  23625099.178   126334055.275       -3688.228          35.000  
R21  19986312.617   106950800.970       -1963.226          47.000  
S20  37909875.496   199217726.909         -13.102          40.000  
> 2017 11 15 18 30  2.4000000  0 17                     
G14  25569188.201   134366995.7942       -610.806          37.000  
G 2  20659815.540   108568050.121       -1614.127          49.000  
G 5  24110889.733   126703592.090        2181.823          45.000  
G 6  23729511.420   124699483.330       -3211.511          42.000  
G12  20728753.306   108930325.165         408.496          50.000  
R12  22216859.374   118678510.537        3807.188          35.000  
G24  21656856.591   113807523.892       -2746.166          43.000  
G25  22045840.284   115851671.258        2174.538          45.000  
G29  21771806.724   114411625.861        1242.003          50.000  
G32  25758707.215                1      -1236.537          25.000  
G20  24999470.857                1       2679.000          19.000  
R10  20887675.318   111343029.913       -2973.383          42.000  
R22  20775684.887   110902008.063        1600.806          46.000  
R11  19373354.375   103525323.250         874.552          46.000  
R20  23625237.314   126334793.058       -3689.240          35.000  
R21  19986386.083   106951193.700       -1963.865          46.000  
S20  37909875.932   199217729.578         -13.603          40.000  
> 2017 11 15 18 30  2.6000000  0 16                     
G14  25569212.090   134367117.8092       -609.856          38.000  
G 2  20659877.122   108568372.955       -1614.401          49.000  
G 5  24110806.775   126703155.705        2181.855          45.000  
G 6  23729633.676   124700125.621       -3211.456          42.000  
G12  20728737.723   108930243.457         408.508          50.000  
R12  22216716.858   118677749.060        3807.485          35.000  
G24  21656961.013   113808073.072       -2746.021          43.000  
G25  22045757.396   115851236.373        2174.238          45.000  
G29  21771759.451   114411377.438        1242.188          50.000  
G20  24999361.828                1       2679.000          18.000  
R10  20887786.773   111343624.548       -2973.248          42.000  
R22  20775624.806   110901687.845        1601.178          46.000  
R11  19373321.516   103525148.344         874.447          46.000  
R20  23625375.188   126335530.839       -3688.960          35.000  
R21  19986459.478   106951586.469       -1963.972          46.000  
S20  37909876.473   199217732.263         -13.525          42.000  
> 2017 11 15 18 30  2.8000000  0 16                     
G14  25569234.549   134367239.8062       -609.345          38.000  
G 2  20659938.652   108568695.729       -1613.998          49.000  
G 5  24110723.694   126702719.271        2182.024          45.000  
G 6  23729755.985   124700767.857       -3211.334          42.000  
G12  20728722.175   108930161.687         408.832          50.000  
R12  22216574.359   118676987.531        3808.330          35.000  
G24  21657065.470   113808622.220       -2745.965          43.000  
G25  22045674.402   115850801.384        2174.969          45.000  
G29  21771712.249   114411128.939        1242.586          50.000  
G20  24999256.045                1       2679.000          18.000  
R10  20887898.384   111344219.147       -2972.900          43.000  
R22  20775564.672   110901367.584        1601.373          46.000  
R11  19373288.727   103524973.383         874.852          46.000  
R20  23625513.132   126336268.542       -3688.633          35.000  
R21  19986532.857   106951979.156       -1963.449          46.000  
S20  37909876.962   199217734.883         -13.397          41.000  
> 2017 11 15 18 30  3.0000000  0 16                     
G14  25569257.792   134367361.8042       -609.846          38.000  
G 2  20660000.181   108569018.506       -1613.756          49.000  
G 5  24110640.614   126702282.779        2182.562          44.000  
G 6  23729878.328   124701410.062       -3211.120          42.000  
G12  20728706.592   108930079.898         408.966          50.000  
R12  22216431.809   118676225.990        3807.431          35.000  
G24  21657169.857   113809171.314       -2745.534          43.000  
G25  22045591.619   115850366.387        2174.827          45.000  
G29  21771664.941   114410880.415        1242.595          50.000  
G20  24999148.691                1       2679.000          18.000  
R10  20888010.013   111344813.739       -2972.876          43.000  
R22  20775504.486   110901047.278        1601.483          46.000  
R11  19373255.868   103524798.430         874.693          46.000  
R20  23625651.076   126337006.241       -3688.261          35.000  
R21  19986606.182   106952371.847       -1963.529          46.000  
S20  37909877.485   199217737.439         -12.556          42.000  
> 2017 11 15 18 30  3.2000000  0 16                     
G14  25569280.600   134367483.7832       -610.233          38.000  
G 2  20660061.780   108569341.303       -1614.391          48.000  
G 5  24110557.498   126701846.296        2182.325          44.000  
G 6  23730000.585   124702052.288       -3211.346          41.000  
G12  20728691.253   108929998.124         408.533          50.000  
R12  22216289.310   118675464.400        3807.287          35.000  
G24  21657274.366   113809720.434       -2745.902          43.000  
G25  22045508.765   115849931.373        2174.783          45.000  
G29  21771617.721   114410631.904        1242.218          50.000  
G20  24999046.084                1       2679.000          17.000  
R10  20888121.573   111345408.345       -2973.334          43.000  
R22  20775444.353   110900727.005        1600.934          46.000  
R11  19373222.905   103524623.484         874.360          46.000  
R20  23625789.072   126337743.929       -3688.773          35.000  
R21  19986679.630   106952764.540       -1963.864          46.000  
S20  37909878.026   199217740.016         -13.052          41.000  
> 2017 11 15 18 30  3.4000000  0 16                     
G14  25569304.437   134367605.7972       -610.118          38.000  
G 2  20660123.345   108569664.145       -1614.315          48.000  
G 5  24110474.523   126701409.872        2182.089          44.000  
G 6  23730122.858   124702694.542       -3211.261          40.000  
G12  20728675.652   108929916.371         408.746          51.000  
R12  22216146.724   118674702.797        3808.463          35.000  
G24  21657378.980   113810269.615       -2745.854          44.000  
G25  22045425.841   115849496.377        2175.031          45.000  
G29  21771570.483   114410383.405        1242.596          51.000  
G20  24998942.988                1       2679.000          17.000  
R10  20888233.114   111346002.997       -2973.157          43.000  
R22  20775384.167   110900406.765        1601.306          45.000  
R11  19373190.151   103524448.592         874.599          46.000  
R20  23625927.173   126338481.607       -3688.818          35.000  
R21  19986753.026   106953157.263       -1963.557          46.000  
S20  37909878.515   199217742.632         -13.088          42.000  
> 2017 11 15 18 30  3.6000000  0 16                     
G14  25569327.489   134367727.8572       -610.045          38.000  
G 2  20660184.822   108569987.002       -1614.197          48.000  
G 5  24110391.477   126700973.379        2182.510          43.000  
G 6  23730245.097   124703336.839       -3211.603          40.000  
G12  20728660.174   108929834.636         408.856          51.000  
R12  22216004.296   118673941.311        3807.527          35.000  
G24  21657483.542   113810818.781       -2745.788          44.000  
G25  22045343.058   115849061.412        2175.221          45.000  
G29  21771523.280   114410134.941        1242.638          51.000  
G20  24998842.457                1       2679.000          17.000  
R10  20888344.656   111346597.667       -2973.328          43.000  
R22  20775324.138   110900086.560        1601.178          45.000  
R11  19373157.397   103524273.742         874.486          46.000  
R20  23626065.187   126339219.290       -3688.239          36.000  
R21  19986826.404   106953550.013       -1963.471          47.000  
S20  37909879.090   199217745.195         -12.867          42.000  
> 2017 11 15 18 30  3.8000000  0 16                     
G14  25569350.819   134367849.8922       -610.615          38.000  
G 2  20660246.212   108570309.880       -1614.405          48.000  
G 5  24110308.362   126700536.933        2182.339          43.000  
G 6  23730367.266   124703979.095       -3211.456          40.000  
G12  20728644.766   108929752.894         408.746          51.000  
R12  22215861.797   118673179.725        3807.755          36.000  
G24  21657588.034   113811367.967       -2746.157          44.000  
G25  22045260.204   115848626.422        2175.101          45.000  
G29  21771476.060   114409886.458        1242.419          51.000  
G20  24998740.182                1       2679.000          16.000  
R10  20888456.146   111347192.353       -2973.669          43.000  
R22  20775264.092   110899766.353        1601.050          45.000  
R11  19373124.643   103524098.914         873.982          46.000  
R20  23626203.166   126339956.944       -3687.869          36.000  
R21  19986899.887   106953942.760       -1963.735          47.000  
S20  37909879.597   199217747.778         -12.855          42.000  
> 2017 11 15 18 30  4.0000000  0 16                     
G14  25569373.819   134367971.8962       -609.840          38.000  
G 2  20660307.636   108570632.767       -1614.583          48.000  
G 5  24110225.264   126700100.486        2182.228          43.000  
G 6  23730489.470   124704621.352       -3211.395          40.000  
G12  20728629.287   108929671.151         408.636          51.000  
R12  22215719.246   118672418.173        3807.767          36.000  
G24  21657692.421   113811917.148       -2745.831          44.000  
G25  22045177.438   115848191.405        2175.193          45.000  
G29  21771428.682   114409637.956        1242.503          50.000  
G20  24998641.064                1       2679.000          15.000  
R10  20888567.705   111347787.050       -2973.517          43.000  
R22  20775204.098   110899446.132        1601.074          45.000  
R11  19373092.011   103523924.070         874.119          46.000  
R20  23626341.197   126340694.610       -3688.294          36.000  
R21  19986973.387   106954335.484       -1963.764          48.000  
S20  37909880.137   199217750.360         -12.752          42.000  
> 2017 11 15 18 30  4.2000000  0 16                     
G14  25569397.045   134368094.0302       -610.777          38.000  
G 2  20660369.096   108570955.664       -1614.478          48.000  
G 5  24110142.061   126699664.015        2182.294          43.000  
G 6  23730611.709   124705263.611       -3211.072          40.000  
G12  20728613.861   108929589.424         408.618          51.000  
R12  22215576.835   118671656.667        3807.475          36.000  
G24  21657796.861   113812466.391       -2746.514          44.000  
G25  22045094.514   115847756.443        2174.681          45.000  
G29  21771381.480   114409389.534        1241.797          50.000  
G20  24998538.928                1       2679.000          15.000  
R10  20888679.194   111348381.775       -2973.816          43.000  
R22  20775143.965   110899126.001        1600.238          45.000  
R11  19373059.396   103523749.301         873.701          46.000  
R20  23626479.019   126341432.238       -3687.936          36.000  
R21  19987046.626   106954728.264       -1963.949          48.000  
S20  37909880.678   199217752.947         -12.975          42.000  
> 2017 11 15 18 30  4.4000000  0 16                     
G14  25569420.830   134368216.1952       -611.031          38.000  
G 2  20660430.538   108571278.516       -1614.209          48.000  
G 5  24110058.876   126699227.450        2182.742          43.000  
G 6  23730733.808   124705905.761       -3210.901          40.000  
G12  20728598.261   108929507.658         408.734          51.000  
R12  22215434.529   118670895.154        3807.526          36.000  
G24  21657901.422   113813015.605       -2746.420          44.000  
G25  22045011.765   115847321.458        2174.758          45.000  
G29  21771334.172   114409141.126        1241.867          50.000  
G20  24998438.520                1       2679.000          14.000  
R10  20888790.806   111348976.468       -2973.737          43.000  
R22  20775083.988   110898805.884        1600.317          45.000  
R11  19373026.695   103523574.515         873.712          46.000  
R20  23626617.190   126342169.792       -3687.924          36.000  
R21  19987120.004   106955121.002       -1963.857          48.000  
S20  37909881.080   199217755.452         -12.632          42.000  
> 2017 11 15 18 30  4.6000000  0 16                     
G14  25569444.265   134368338.4622       -611.549          38.000  
G 2  20660491.876   108571601.380       -1614.042          47.000  
G 5  24109975.865   126698790.857        2183.210          44.000  
G 6  23730855.925   124706547.912       -3210.437          40.000  
G12  20728582.660   108929425.906         408.948          51.000  
R12  22215292.117   118670133.677        3807.651          37.000  
G24  21658005.967   113813564.854       -2746.282          44.000  
G25  22044929.051   115846886.529        2174.697          45.000  
G29  21771286.934   114408892.819        1241.459          50.000  
G20  24998340.048                1       2679.000          14.000  
R10  20888902.383   111349571.173       -2973.431          44.000  
R22  20775024.082   110898485.889        1599.847          45.000  
R11  19372994.045   103523399.810         873.489          46.000  
R20  23626755.204   126342907.321       -3687.345          36.000  
R21  19987193.435   106955513.773       -1963.603          48.000  
S20  37909881.621   199217757.937         -12.052          42.000  
> 2017 11 15 18 30  4.8000000  0 16                     
G14  25569467.684   134368460.6892       -611.428          38.000  
G 2  20660553.335   108571924.233       -1614.036          47.000  
G 5  24109892.942   126698354.286        2183.057          45.000  
G 6  23730978.216   124707190.028       -3210.272          42.000  
G12  20728566.781   108929344.106         409.229          50.000  
R12  22215149.584   118669372.183        3807.570          34.000  
G24  21658110.511   113814114.105       -2746.317          44.000  
G25  22044846.267   115846451.586        2174.861          45.000  
G29  21771239.749   114408644.467        1241.703          51.000  
G20  24998236.865                1       2679.000          13.000  
R10  20889013.977   111350165.866       -2973.291          44.000  
R22  20774964.210   110898165.867        1599.975          45.000  
R11  19372961.378   103523225.078         873.660          47.000  
R20  23626893.148   126343644.718       -3686.304          35.000  
R21  19987266.882   106955906.521       -1963.608          48.000  
S20  37909882.005   199217760.397         -12.065          42.000  
> 2017 11 15 18 30  5.0000000  0 16                     
G14  25569491.014   134368582.9552       -611.647          38.000  
G 2  20660614.743   108572247.123       -1614.873          47.000  
G 5  24109809.669   126697917.712        2182.564          44.000  
G 6  23731100.594   124707832.179       -3211.414          42.000  
G12  20728551.058   108929262.343         408.344          50.000  
R12  22215006.806   118668610.756        3807.388          33.000  
G24  21658215.107   113814663.401       -2746.420          45.000  
G25  22044763.676   115846016.643        2174.945          45.000  
G29  21771192.564   114408396.129        1242.086          51.000  
G20  24998135.375                1       2679.000          13.000  
R10  20889125.396   111350760.604       -2974.048          44.000  
R22  20774904.216   110897845.879        1600.293          45.000  
R11  19372928.729   103523050.384         873.291          46.000  
R20  23627031.179   126344382.204       -3688.038          35.000  
R21  19987340.278   106956299.292       -1964.046          47.000  
S20  37909882.476   199217762.885         -12.829          42.000  
> 2017 11 15 18 30  5.2000000  0 16                     
G14  25569514.066   134368705.1622       -611.160          38.000  
G 2  20660676.133   108572570.029       -1614.379          47.000  
G 5  24109726.100   126697481.060        2183.538          42.000  
G 6  23731222.746   124708474.317       -3210.419          42.000  
G12  20728535.527   108929180.563         409.051          50.000  
R12  22214864.343   118667849.268        3807.487          33.000  
G24  21658319.739   113815212.663       -2746.342          45.000  
G25  22044681.084   115845581.683        2174.791          46.000  
G29  21771145.431   114408147.778        1241.694          50.000  
G20  24998036.048                1       2679.000          14.000  
R10  20889236.973   111351355.314       -2973.633          44.000  
R22  20774844.379   110897525.849        1600.000          45.000  
R11  19372895.992   103522875.674         873.525          46.000  
R20  23627168.966   126345119.665       -3686.825          35.000  
R21  19987413.499   106956692.055       -1963.644          47.000  
S20  37909883.052   199217765.325         -11.988          42.000  
> 2017 11 15 18 30  5.4000000  0 16                     
G14  25569537.397   134368827.4622       -611.456          38.000  
G 2  20660737.575   108572892.929       -1614.657          47.000  
G 5  24109642.636   126697044.400        2183.081          43.000  
G 6  23731344.915   124709116.435       -3210.413          42.000  
G12  20728519.962   108929098.790         408.954          50.000  
R12  22214721.862   118667087.730        3807.907          34.000  
G24  21658424.423   113815761.957       -2746.493          46.000  
G25  22044598.387   115845146.731        2174.788          46.000  
G29  21771098.245   114407899.445        1241.607          51.000  
G20  24997933.371                1       2679.000          15.000  
R10  20889348.445   111351950.018       -2973.572          43.000  
R22  20774784.333   110897205.907        1599.560          45.000  
R11  19372863.413   103522701.008         873.063          46.000  
R20  23627306.788   126345857.053       -3686.802          35.000  
R21  19987486.668   106957084.840       -1963.922          47.000  
S20  37909883.558   199217767.729         -11.772          42.000  
> 2017 11 15 18 30  5.6000000  0 16                     
G14  25569560.658   134368949.8452       -612.322          38.000  
G 2  20660799.104   108573215.798       -1614.357          47.000  
G 5  24109559.608   126696607.704        2183.550          43.000  
G 6  23731467.031   124709758.453       -3209.881          40.000  
G12  20728504.414   108929016.981         409.100          50.000  
R12  22214579.311   118666326.266        3807.082          30.000  
G24  21658529.176   113816311.218       -2746.591          46.000  
G25  22044515.743   115844711.799        2174.553          46.000  
G29  21771051.112   114407651.152        1241.358          51.000  
G20  24997832.369                1       2679.000          15.000  
R10  20889459.952   111352544.670       -2973.297          42.000  
R22  20774724.392   110896885.973        1599.322          45.000  
R11  19372830.851   103522526.352         873.038          46.000  
R20  23627444.627   126346594.394       -3686.478          35.000  
R21  19987560.029   106957477.613       -1963.988          48.000  
S20  37909883.907   199217770.046         -11.315          42.000  
> 2017 11 15 18 30  5.8000000  0 16                     
G14  25569583.972   134369072.2612       -612.023          37.000  
G 2  20660860.424   108573538.657       -1614.380          47.000  
G 5  24109476.196   126696170.955        2183.972          43.000  
G 6  23731589.130   124710400.488       -3210.846          40.000  
G12  20728488.673   108928935.182         408.911          50.000  
R12  22214436.481   118665564.942        3806.864          30.000  
G24  21658633.773   113816860.515       -2746.510          45.000  
G25  22044432.959   115844276.885        2174.366          46.000  
G29  21771004.084   114407402.931        1241.069          51.000  
G20  24997731.716                1       2679.000          16.000  
R10  20889571.581   111353139.382       -2973.431          44.000  
R22  20774664.398   110896566.133        1599.090          46.000  
R11  19372798.132   103522351.756         872.970          46.000  
R20  23627582.571   126347331.746       -3686.396          35.000  
R21  19987633.302   106957870.411       -1963.875          48.000  
S20  37909884.395   199217772.339         -11.659          41.000  
> 2017 11 15 18 30  6.0000000  0 16                     
G14  25569607.198   134369194.8152       -613.042          37.000  
G 2  20660921.832   108573861.498       -1614.197          47.000  
G 5  24109393.150   126695734.203        2183.595          44.000  
G 6  23731711.195   124711042.475       -3209.705          40.000  
G12  20728472.968   108928853.365         409.051          49.000  
R12  22214296.303   118664803.473        3807.385          34.000  
G24  21658738.440   113817409.869       -2746.707          46.000  
G25  22044350.175   115843842.006        2174.530          45.000  
G29  21770957.090   114407154.791        1240.708          50.000  
G20  24997631.674                1       2679.000          17.000  
R10  20889683.158   111353734.060       -2973.535          44.000  
R22  20774604.544   110896246.364        1598.792          46.000  
R11  19372765.343   103522177.169         872.871          45.000  
R20  23627720.497   126348068.996       -3686.626          34.000  
R21  19987706.453   106958263.213       -1963.882          47.000  
S20  37909884.919   199217774.545         -11.000          41.000  
> 2017 11 15 18 30  6.2000000  0 16                     
G14  25569630.564   134369317.3782       -612.972          37.000  
G 2  20660983.326   108574184.364       -1614.276          47.000  
G 5  24109309.825   126695297.312        2184.368          42.000  
G 6  23731833.311   124711684.461       -3209.674          40.000  
G12  20728457.315   108928771.580         409.064          50.000  
R12  22214153.491   118664042.207        3806.485          34.000  
G24  21658843.001   113817959.212       -2746.851          46.000  
G25  22044267.374   115843407.130        2174.403          45.000  
G29  21770909.975   114406906.643        1240.579          50.000  
G20  24997528.962                1       2679.000          17.000  
R10  20889794.804   111354328.765       -2973.279          45.000  
R22  20774544.689   110895926.623        1598.645          46.000  
R11  19372732.781   103522002.638         872.771          46.000  
R20  23627858.372   126348806.251       -3685.717          31.000  
R21  19987779.919   106958656.065       -1963.993          48.000  
S20  37909885.425   199217776.782         -11.037          41.000  
> 2017 11 15 18 30  6.4000000  0 16                     
G14  25569653.895   134369440.0032       -613.643          37.000  
G 2  20661044.646   108574507.225       -1613.819          46.000  
G 5  24109226.815   126694860.418        2185.145          43.000  
G 6  23731955.463   124712326.422       -3210.138          42.000  
G12  20728441.767   108928689.735         409.436          50.000  
R12  22214010.033   118663280.916        3806.351          34.000  
G24  21658947.476   113818508.555       -2746.659          45.000  
G25  22044184.555   115842972.282        2174.383          45.000  
G29  21770862.597   114406658.551        1240.518          50.000  
G20  24997427.541                1       2679.000          18.000  
R10  20889906.346   111354923.412       -2973.236          44.000  
R22  20774484.730   110895606.908        1598.572          46.000  
R11  19372700.306   103521828.125         872.571          46.000  
R20  23627994.850   126349543.470       -3686.002          31.000  
R21  19987853.192   106959048.911       -1964.184          47.000  
S20  37909885.948   199217778.915         -10.530          41.000  
> 2017 11 15 18 30  6.6000000  0 16                     
G14  25569677.173   134369562.5742       -612.446          37.000  
G 2  20661106.001   108574830.041       -1613.976          46.000  
G 5  24109143.961   126694423.490        2185.080          45.000  
G 6  23732077.597   124712968.265       -3208.569          42.000  
G12  20728426.394   108928607.875         409.308          50.000  
R12  22213867.377   118662519.555        3807.327          35.000  
G24  21659051.985   113819057.851       -2746.503          45.000  
G25  22044101.824   115842537.395        2174.169          46.000  
G29  21770815.412   114406410.426        1240.578          50.000  
G20  24997326.941                1       2679.000          17.000  
R10  20890017.888   111355518.080       -2973.315          44.000  
R22  20774424.894   110895287.215        1598.358          45.000  
R11  19372667.674   103521653.576         872.642          46.000  
R20  23628133.736   126350280.655       -3685.407          32.000  
R21  19987926.658   106959441.711       -1964.042          47.000  
S20  37909886.385   199217780.992         -10.174          41.000  
> 2017 11 15 18 30  6.8000000  0 16                     
G14  25569700.539   134369685.1632       -612.487          37.000  
G 2  20661167.461   108575152.847       -1614.539          47.000  
G 5  24109060.950   126693986.472        2184.077          46.000  
G 6  23732199.905   124713610.221       -3209.906          43.000  
G12  20728410.566   108928525.972         409.467          50.000  
R12  22213730.009   118661758.316        3806.795          34.000  
G24  21659156.634   113819607.130       -2746.719          45.000  
G25  22044019.284   115842102.483        2174.580          47.000  
G29  21770768.174   114406162.270        1240.808          50.000  
G20  24997225.189                1       2679.000          17.000  
R10  20890129.430   111356112.661       -2973.187          44.000  
R22  20774365.074   110894967.474        1598.218          45.000  
R11  19372634.920   103521479.025         872.867          45.000  
R20  23628270.057   126351017.766       -3685.512          32.000  
R21  19987999.931   106959834.487       -1963.938          47.000  
S20  37909886.681   199217783.011         -10.272          41.000  
> 2017 11 15 18 30  7.0000000  0 16                     
G14  25569723.940   134369807.8192       -613.192          37.000  
G 2  20661229.008   108575475.656       -1613.935          46.000  
G 5  24108977.940   126693549.474        2184.868          45.000  
G 6  23732322.005   124714252.085       -3209.637          42.000  
G12  20728395.088   108928444.096         409.509          50.000  
R12  22213585.294   118660996.949        3805.642          31.000  
G24  21659261.178   113820156.501       -2747.053          45.000  
G25  22043936.692   115841667.614        2174.618          46.000  
G29  21770720.937   114405914.197        1240.236          50.000  
G20  24997123.820                1       2679.000          17.000  
R10  20890240.936   111356707.307       -2973.132          44.000  
R22  20774305.220   110894647.782        1598.413          46.000  
R11  19372602.218   103521304.533         872.105          46.000  
R20  23628405.558   126351754.872       -3686.831          31.000  
R21  19988073.362   106960227.320       -1964.453          47.000  
S20  37909887.222   199217785.060         -10.193          41.000  
> 2017 11 15 18 30  7.2000000  0 16                     
G14  25569747.306   134369930.5302       -613.133          37.000  
G 2  20661290.502   108575798.486       -1614.167          47.000  
G 5  24108894.667   126693112.407        2185.158          44.000  
G 6  23732444.086   124714893.955       -3208.325          40.000  
G12  20728379.487   108928362.204         409.589          50.000  
R12  22213440.510   118660235.593        3808.137          31.000  
G24  21659365.688   113820705.783       -2745.985          45.000  
G25  22043853.978   115841232.745        2174.404          45.000  
G29  21770673.629   114405666.155        1240.306          50.000  
G20  24997024.127                1       2679.000          17.000  
R10  20890352.531   111357301.941       -2972.912          43.000  
R22  20774245.523   110894328.183        1598.627          46.000  
R11  19372569.726   103521130.054         872.810          46.000  
R20  23628541.757   126352491.790       -3685.302          31.000  
R21  19988146.618   106960620.121       -1963.949          48.000  
S20  37909887.536   199217787.053          -9.658          41.000  
> 2017 11 15 18 30  7.4000000  0 16                     
G14  25569770.637   134370053.2502       -613.219          37.000  
G 2  20661351.892   108576121.283       -1613.849          46.000  
G 5  24108811.342   126692675.388        2185.153          43.000  
G 6  23732566.203   124715535.864       -3209.613          40.000  
G12  20728364.044   108928280.323         409.369          50.000  
R12  22213297.121   118659474.269        3807.239          31.000  
G24  21659470.389   113821255.203       -2746.981          45.000  
G25  22043771.386   115840797.837        2174.349          45.000  
G29  21770626.583   114405418.065        1240.385          50.000  
G20  24996921.834                1       2679.000          17.000  
R10  20890464.195   111357896.662       -2973.449          44.000  
R22  20774185.773   110894008.581        1597.870          46.000  
R11  19372537.146   103520955.615         872.223          46.000  
R20  23628681.935   126353228.766       -3684.978          31.000  
R21  19988220.101   106961012.950       -1964.080          49.000  
S20  37909887.938   199217789.078         -10.394          41.000  
> 2017 11 15 18 30  7.6000000  0 16                     
G14  25569794.020   134370175.9732       -613.779          36.000  
G 2  20661413.195   108576444.152       -1613.991          46.000  
G 5  24108728.227   126692238.345        2184.979          44.000  
G 6  23732688.302   124716177.644       -3208.734          39.000  
G12  20728348.601   108928198.442         409.174          50.000  
R12  22213155.862   118658713.1811       3805.839          30.000  
G24  21659574.898   113821804.525       -2746.508          45.000  
G25  22043688.672   115840362.917        2174.927          45.000  
G29  21770579.136   114405170.029        1239.943          48.000  
G20  24996819.890                1       2679.000          17.000  
R10  20890575.701   111358491.290       -2973.657          43.000  
R22  20774126.024   110893688.993        1597.925          46.000  
R11  19372504.497   103520781.166         871.961          46.000  
R20  23628821.484   126353965.890       -3685.742          34.000  
R21  19988293.514   106961405.789       -1964.481          49.000  
S20  37909888.165   199217791.019         -10.059          41.000  
> 2017 11 15 18 30  7.8000000  0 16                     
G14  25569817.386   134370298.6092       -613.532          36.000  
G 2  20661474.707   108576767.078       -1614.611          47.000  
G 5  24108645.077   126691801.333        2185.441          44.000  
G 6  23732810.628   124716819.547       -3210.290          39.000  
G12  20728332.878   108928116.533         409.680          50.000  
R12  22213015.440   118657951.6091       3808.446          30.000  
G24  21659679.495   113822353.873       -2746.744          44.000  
G25  22043606.046   115839927.987        2174.780          45.000  
G29  21770531.637   114404921.871        1240.933          49.000  
G20  24996718.731                1       2679.000          17.000  
R10  20890687.313   111359085.987       -2973.315          43.000  
R22  20774066.222   110893369.339        1597.894          46.000  
R11  19372471.882   103520606.718         872.408          46.000  
R20  23628959.899   126354702.860       -3685.119          34.000  
R21  19988366.752   106961798.583       -1963.809          47.000  
S20  37909888.671   199217793.092         -10.312          41.000  
> 2017 11 15 18 30  8.0000000  0 16                     
G14  25569840.787   134370421.3162       -613.741          36.000  
G 2  20661536.027   108577089.903       -1614.476          47.000  
G 5  24108561.909   126691364.252        2186.074          43.000  
G 6  23732932.675   124717461.281       -3209.088          39.000  
G12  20728317.469   108928034.665         409.448          50.000  
R12  22212875.786   118657190.3801       3806.494          30.000  
G24  21659784.091   113822903.248       -2746.852          45.000  
G25  22043523.436   115839493.095        2174.732          45.000  
G29  21770484.277   114404673.797        1240.765          49.000  
G20  24996619.439                1       2679.000          17.000  
R10  20890798.907   111359680.671       -2972.986          43.000  
R22  20774006.246   110893049.741        1597.699          45.000  
R11  19372439.355   103520432.299         872.131          46.000  
R20  23629095.452   126355439.920       -3685.408          39.000  
R21  19988440.130   106962191.422       -1964.040          47.000  
S20  37909889.020   199217795.063          -9.899          41.000  
> 2017 11 15 18 30  8.2000000  0 16                     
G14  25569864.187   134370543.9412       -613.201          36.000  
G 2  20661597.417   108577412.778       -1614.406          47.000  
G 5  24108478.724   126690927.166        2185.795          43.000  
G 6  23733054.687   124718103.129       -3208.307          40.000  
G12  20728301.659   108927952.737         409.631          50.000  
R12  22212737.912   118656429.0521       3807.326          34.000  
G24  21659888.496   113823452.512       -2746.049          43.000  
G25  22043440.460   115839058.134        2174.476          44.000  
G29  21770436.952   114404425.651        1240.490          49.000  
G20  24996518.769                1       2679.000          18.000  
R10  20890910.519   111360275.328       -2973.242          43.000  
R22  20773946.479   110892730.086        1597.803          45.000  
R11  19372406.828   103520257.863         872.156          46.000  
R20  23629236.031   126356176.856       -3684.218          39.000  
R21  19988513.439   106962584.236       -1964.431          48.000  
S20  37909889.351   199217797.027          -9.297          41.000  
> 2017 11 15 18 30  8.4000000  0 16                     
G14  25569887.379   134370666.6522       -613.005          36.000  
G 2  20661658.719   108577735.610       -1614.335          47.000  
G 5  24108395.661   126690490.068        2184.661          44.000  
G 6  23733176.821   124718744.947       -3208.978          40.000  
G12  20728286.059   108927870.798         409.558          50.000  
R12  22212599.357   118655667.713        3808.450          34.000  
G24  21659993.163   113824001.839       -2746.510          45.000  
G25  22043357.694   115838623.167        2175.080          44.000  
G29  21770389.801   114404177.524        1240.840          49.000  
G20  24996417.174                1       2679.000          18.000  
R10  20891022.026   111360869.986       -2973.071          43.000  
R22  20773886.572   110892410.474        1598.089          45.000  
R11  19372374.353   103520083.469         872.097          46.000  
R20  23629375.528   126356913.747       -3684.031          37.000  
R21  19988586.834   106962977.029       -1963.457          48.000  
S20  37909889.648   199217798.960          -9.650          41.000  
> 2017 11 15 18 30  8.6000000  0 16                     
G14  25569910.710   134370789.2862       -612.883          35.000  
G 2  20661720.109   108578058.510       -1614.245          47.000  
G 5  24108312.371   126690052.922        2184.743          44.000  
G 6  23733298.938   124719386.766       -3209.497          40.000  
G12  20728270.406   108927788.869         409.784          50.000  
R12  22212456.684   118654906.4411       3803.854          30.000  
G24  21660097.620   113824551.147       -2745.924          45.000  
G25  22043275.050   115838188.178        2175.156          45.000  
G29  21770342.494   114403929.373        1241.406          49.000  
G20  24996315.561                1       2679.000          18.000  
R10  20891133.620   111361464.689       -2973.920          44.000  
R22  20773826.735   110892090.845        1598.443          45.000  
R11  19372341.669   103519909.082         871.974          46.000  
R20  23629512.879   126357650.646       -3684.218          34.000  
R21  19988660.387   106963369.824       -1964.277          48.000  
S20  37909889.945   199217800.900          -9.858          41.000  
> 2017 11 15 18 30  8.8000000  0 16                     
G14  25569934.145   134370911.9892       -614.217          35.000  
G 2  20661781.552   108578381.369       -1613.912          47.000  
G 5  24108229.255   126689615.785        2185.888          44.000  
G 6  23733421.089   124720028.592       -3209.393          40.000  
G12  20728254.806   108927706.933         409.717          50.000  
R12  22212314.953   118654145.0151       3807.363          30.000  
G24  21660202.286   113825100.483       -2746.732          45.000  
G25  22043192.301   115837753.154        2175.373          45.000  
G29  21770295.273   114403681.200        1241.179          49.000  
G20  24996214.245                1       2679.000          19.000  
R10  20891245.214   111362059.358       -2972.974          43.000  
R22  20773766.933   110891771.183        1598.498          46.000  
R11  19372309.054   103519734.650         872.344          46.000  
R20  23629651.067   126358387.438       -3683.531          34.000  
R21  19988733.713   106963762.600       -1963.408          48.000  
S20  37909890.259   199217802.754          -8.928          41.000  
> 2017 11 15 18 30  9.0000000  0 16                     
G14  25569957.494   134371034.6432       -614.648          32.000  
G 2  20661842.854   108578704.302       -1614.943          47.000  
G 5  24108146.140   126689178.692        2184.872          45.000  
G 6  23733543.188   124720670.333       -3208.942          36.000  
G12  20728239.205   108927625.009         409.479          50.000  
R12  22212168.563   118653383.6861       3803.199          30.000  
G24  21660306.883   113825649.786       -2746.592          46.000  
G25  22043109.814   115837318.170        2175.010          46.000  
G29  21770247.966   114403433.040        1240.921          49.000  
G20  24996112.563                1       2679.000          18.000  
R10  20891357.000   111362654.067       -2973.944          44.000  
R22  20773707.271   110891451.524        1598.273          46.000  
R11  19372276.440   103519560.298         871.731          46.000  
R20  23629786.307   126359124.326       -3684.068          34.000  
R21  19988807.196   106964155.428       -1964.291          47.000  
S20  37909890.573   199217804.646          -9.581          41.000  
> 2017 11 15 18 30  9.2000000  0 16                     
G14  25569980.772   134371157.2942       -613.749          32.000  
G 2  20661904.384   108579027.191       -1614.997          47.000  
G 5  24108063.077   126688741.476        2185.088          45.000  
G 6  23733665.305   124721312.126       -3208.588          37.000  
G12  20728223.709   108927543.057         409.351          50.000  
R12  22212018.230   118652622.0961       3807.855          34.000  
G24  21660411.270   113826199.097       -2746.826          45.000  
G25  22043027.257   115836883.176        2174.216          46.000  
G29  21770200.519   114403184.900        1239.950          49.000  
G20  24996011.264                1       2679.000          18.000  
R10  20891468.559   111363248.712       -2973.785          44.000  
R22  20773647.486   110891131.972        1597.351          45.000  
R11  19372243.965   103519385.943         871.004          46.000  
R20  23629928.892   126359861.218       -3684.688          34.000  
R21  19988880.609   106964548.201       -1964.470          47.000  
S20  37909890.869   199217806.464          -9.420          41.000  
> 2017 11 15 18 30  9.4000000  0 16                     
G14  25570004.173   134371279.9962       -613.900          33.000  
G 2  20661965.896   108579350.124       -1614.778          47.000  
G 5  24107979.944   126688304.256        2186.541          44.000  
G 6  23733787.509   124721953.998       -3209.332          37.000  
G12  20728208.248   108927461.119         409.723          50.000  
R12  22211873.951   118651860.7371       3807.974          31.000  
G24  21660515.779   113826748.414       -2746.717          45.000  
G25  22042944.525   115836448.130        2175.382          46.000  
G29  21770152.949   114402936.712        1241.045          49.000  
G20  24995909.721                1       2679.000          19.000  
R10  20891580.136   111363843.465       -2972.882          43.000  
R22  20773587.632   110890812.332        1598.230          46.000  
R11  19372211.281   103519211.609         871.964          46.000  
R20  23630064.289   126360598.139       -3684.588          37.000  
R21  19988953.917   106964941.035       -1964.008          48.000  
S20  37909891.253   199217808.291          -8.608          41.000  
> 2017 11 15 18 30  9.6000000  0 15                     
G14  25570027.504   134371402.7152       -613.663          32.000  
G 2  20662027.216   108579673.099       -1614.375          46.000  
G 5  24107896.881   126687867.119        2186.875          45.000  
G 6  23733909.765   124722595.755       -3209.088          37.000  
G12  20728192.683   108927379.219         409.906          50.000  
R12  22211728.434   118651099.364        3806.580          35.000  
G24  21660620.358   113827297.797       -2746.474          45.000  
G25  22042861.741   115836013.151        2175.334          45.000  
G29  21770105.747   114402688.636        1240.581          49.000  
R10  20891691.800   111364438.244       -2974.304          44.000  
R22  20773527.761   110890492.841        1597.156          44.000  
R11  19372178.858   103519037.333         871.330          46.000  
R20  23630202.547   126361334.988       -3684.316          35.000  
R21  19989027.383   106965333.869       -1963.979          48.000  
S20  37909891.532   199217810.177          -9.029          41.000  
> 2017 11 15 18 30  9.8000000  0 15                     
G14  25570049.770   134371525.4692       -613.947          32.000  
G 2  20662088.745   108579996.084       -1615.367          47.000  
G 5  24107813.836   126687430.005        2186.675          45.000  
G 6  23734031.917   124723237.585       -3208.551          37.000  
G12  20728177.135   108927297.305         409.326          50.000  
R12  22211584.191   118650337.943        3805.826          35.000  
G24  21660724.955   113827847.152       -2746.916          45.000  
G25  22042779.027   115835578.133        2175.275          46.000  
G29  21770058.736   114402440.493        1240.436          49.000  
R10  20891803.446   111365032.982       -2973.944          44.000  
R22  20773467.854   110890173.281        1597.858          45.000  
R11  19372146.523   103518863.057         871.361          47.000  
R20  23630340.491   126362071.783       -3684.058          35.000  
R21  19989100.708   106965726.703       -1964.254          48.000  
S20  37909891.934   199217811.978          -9.327          41.000  
> 2017 11 15 18 30 10.0000000  0 15                     
G14  25570070.938   134371648.2463       -614.171          32.000  
G 2  20662150.135   108580319.007       -1614.409          47.000  
G 5  24107730.476   126686992.801        2186.961          43.000  
G 6  23734154.155   124723879.388       -3209.717          39.000  
G12  20728161.517   108927215.350         409.845          50.000  
R12  22211437.609   118649576.541        3807.817          37.000  
G24  21660829.377   113828396.540       -2746.835          44.000  
G25  22042696.261   115835143.161        2174.406          46.000  
G29  21770011.690   114402192.399        1240.314          49.000  
R10  20891915.163   111365627.732       -2973.889          44.000  
R22  20773407.895   110889853.743        1597.912          45.000  
R11  19372113.874   103518688.792         871.621          46.000  
R20  23630477.300   126362808.547       -3683.184          35.000  
R21  19989174.279   106966119.538       -1964.330          49.000  
S20  37909892.108   199217813.701          -8.781          41.000  
> 2017 11 15 18 30 10.2000000  0 15                     
G14  25570095.141   134371771.0163       -615.051          32.000  
G 2  20662211.612   108580642.024       -1614.866          46.000  
G 5  24107647.064   126686555.679        2186.089          42.000  
G 6  23734276.324   124724521.152       -3208.331          39.000  
G12  20728145.620   108927133.427         409.845          49.000  
R12  22211294.011   118648815.090        3807.636          35.000  
G24  21660934.061   113828945.916       -2746.788          45.000  
G25  22042613.477   115834708.131        2174.611          46.000  
G29  21769964.696   114401944.269        1240.548          49.000  
R10  20892026.774   111366222.505       -2973.779          44.000  
R22  20773348.023   110889534.231        1597.888          45.000  
R11  19372081.172   103518514.558         870.862          46.000  
R20  23630613.831   126363545.338       -3684.167          35.000  
R21  19989247.744   106966512.377       -1964.110          49.000  
S20  37909892.457   199217815.508          -8.696          41.000  
> 2017 11 15 18 30 10.4000000  0 15                     
G14  25570121.002   134371893.7003       -614.902          32.000  
G 2  20662273.159   108580965.051       -1615.681          47.000  
G 5  24107563.844   126686118.553        2184.908          45.000  
G 6  23734398.511   124725162.958       -3208.533          39.000  
G12  20728130.089   108927051.506         409.241          50.000  
R12  22211160.848   118648053.608        3806.760          35.000  
G24  21661038.570   113829495.282       -2746.767          45.000  
G25  22042530.606   115834273.042        2175.457          46.000  
G29  21769917.616   114401696.057        1241.096          49.000  
R10  20892138.438   111366817.300       -2973.706          44.000  
R22  20773288.134   110889214.634        1598.108          46.000  
R11  19372048.575   103518340.317         871.241          46.000  
R20  23630753.467   126364282.080       -3683.876          35.000  
R21  19989321.122   106966905.183       -1963.961          47.000  
S20  37909892.806   199217817.309          -9.310          41.000  
> 2017 11 15 18 30 10.6000000  0 15                     
G14  25570142.396   134372016.3233       -613.086          32.000  
G 2  20662334.636   108581288.032       -1614.912          46.000  
G 5  24107480.379   126685681.354        2185.754          44.000  
G 6  23734520.505   124725804.780       -3208.984          39.000  
G12  20728114.436   108926969.576         409.979          50.000  
R12  22211021.246   118647292.049        3807.701          35.000  
G24  21661143.306   113830044.697       -2747.445          45.000  
G25  22042447.700   115833837.965        2175.662          45.000  
G29  21769870.308   114401447.894        1240.701          49.000  
R10  20892250.032   111367412.150       -2974.353          44.000  
R22  20773228.262   110888895.121        1597.534          46.000  
R11  19372016.030   103518166.066         871.210          46.000  
R20  23630890.888   126365018.802       -3684.151          35.000  
R21  19989394.518   106967298.036       -1964.127          49.000  
S20  37909893.138   199217819.048          -8.780          41.000  
> 2017 11 15 18 30 10.8000000  0 15                     
G14  25570167.402   134372139.0903       -614.825          32.000  
G 2  20662395.956   108581611.049       -1615.335          46.000  
G 5  24107397.194   126685244.177        2186.238          44.000  
G 6  23734642.814   124726446.601       -3209.863          39.000  
G12  20728098.870   108926887.631         409.198          50.000  
R12  22210882.744   118646530.645        3807.885          35.000  
G24  21661247.886   113830594.040       -2746.824          44.000  
G25  22042364.864   115833402.871        2175.465          47.000  
G29  21769822.983   114401199.661        1240.875          49.000  
R10  20892361.574   111368006.915       -2974.206          44.000  
R22  20773168.286   110888575.578        1596.759          45.000  
R11  19371983.555   103517991.861         870.582          46.000  
R20  23631029.931   126365755.515       -3683.854          36.000  
R21  19989467.913   106967690.843       -1964.206          48.000  
S20  37909893.487   199217820.777          -8.190          41.000  
> 2017 11 15 18 30 11.0000000  0 15                     
G14  25570190.280   134372261.7942       -613.238          32.000  
G 2  20662457.486   108581934.105       -1615.314          46.000  
G 5  24107314.061   126684807.044        2185.454          44.000  
G 6  23734764.948   124727088.346       -3210.040          39.000  
G12  20728083.375   108926805.715         409.735          50.000  
R12  22210742.863   118645769.337        3807.060          35.000  
G24  21661352.377   113831143.459       -2747.298          44.000  
G25  22042281.906   115832967.849        2174.867          46.000  
G29  21769775.588   114400951.532        1240.948          50.000  
R10  20892473.395   111368601.791       -2974.579          44.000  
R22  20773108.362   110888256.079        1597.009          45.000  
R11  19371950.993   103517817.707         870.737          46.000  
R20  23631167.352   126366492.229       -3683.422          36.000  
R21  19989541.361   106968083.705       -1964.623          48.000  
S20  37909893.888   199217822.586          -8.845          41.000  
> 2017 11 15 18 30 11.2000000  0 15                     
G14  25570213.139   134372384.6142       -614.066          32.000  
G 2  20662518.858   108582257.168       -1615.166          46.000  
G 5  24107230.702   126684369.794        2185.922          43.000  
G 6  23734887.134   124727730.092       -3207.763          39.000  
G12  20728067.827   108926723.775         409.448          50.000  
R12  22210601.429   118645007.817        3807.011          35.000  
G24  21661456.747   113831692.830       -2746.736          43.000  
G25  22042198.965   115832532.721        2175.363          46.000  
G29  21769728.386   114400703.388        1240.827          50.000  
R10  20892584.989   111369196.579       -2974.255          43.000  
R22  20773048.578   110887936.565        1597.742          45.000  
R11  19371918.414   103517643.536         870.662          46.000  
R20  23631304.598   126367228.931       -3683.551          38.000  
R21  19989614.513   106968476.534       -1963.954          48.000  
S20  37909894.237   199217824.309          -9.271          40.000  
> 2017 11 15 18 30 11.4000000  0 15                     
G14  25570237.482   134372507.4142       -614.559          32.000  
G 2  20662580.196   108582580.226       -1615.889          46.000  
G 5  24107147.621   126683932.571        2185.488          44.000  
G 6  23735009.286   124728371.931       -3209.637          39.000  
G12  20728052.296   108926641.858         409.363          50.000  
R12  22210452.823   118644246.514        3804.890          31.000  
G24  21661561.536   113832242.258       -2747.560          45.000  
G25  22042116.216   115832097.678        2175.229          45.000  
G29  21769681.462   114400455.269        1240.205          50.000  
R10  20892696.653   111369791.416       -2973.547          43.000  
R22  20772988.671   110887617.152        1596.832          45.000  
R11  19371885.904   103517469.406         870.604          46.000  
R20  23631440.395   126367965.557       -3683.624          37.000  
R21  19989687.908   106968869.407       -1964.580          48.000  
S20  37909894.412   199217826.014          -9.309          40.000  
> 2017 11 15 18 30 11.6000000  0 15                     
G14  25570260.866   134372630.2652       -613.817          32.000  
G 2  20662641.568   108582903.380       -1615.982          46.000  
G 5  24107064.314   126683495.369        2186.127          43.000  
G 6  23735131.525   124729013.709       -3207.892          37.000  
G12  20728036.783   108926560.001         409.167          50.000  
R12  22210314.146   118643485.245        3806.898          31.000  
G24  21661666.220   113832791.748       -2747.716          45.000  
G25  22042033.572   115831662.679        2174.766          45.000  
G29  21769634.294   114400207.201        1239.994          50.000  
R10  20892808.230   111370386.354       -2974.890          44.000  
R22  20772928.974   110887297.779        1596.515          45.000  
R11  19371853.150   103517295.381         869.838          45.000  
R20  23631577.955   126368702.360       -3685.003          35.000  
R21  19989761.321   106969262.350       -1964.982          48.000  
S20  37909894.691   199217827.808          -9.409          41.000  
> 2017 11 15 18 30 11.8000000  0 15                     
G14  25570283.795   134372753.1822       -613.779          32.000  
G 2  20662702.993   108583226.651       -1616.611          46.000  
G 5  24106981.216   126683058.257        2185.335          43.000  
G 6  23735253.763   124729655.800       -3210.999          39.000  
G12  20728021.077   108926478.245         408.496          49.000  
R12  22210171.264   118642724.030        3806.397          31.000  
G24  21661770.781   113833341.285       -2748.042          45.000  
G25  22041950.980   115831227.728        2174.588          45.000  
G29  21769587.021   114399959.175        1240.099          50.000  
R10  20892919.842   111370981.360       -2975.446          44.000  
R22  20772869.242   110886978.449        1596.313          45.000  
R11  19371820.396   103517121.430         869.660          46.000  
R20  23631714.730   126369439.108       -3684.428          33.000  
R21  19989834.717   106969655.384       -1965.559          48.000  
S20  37909895.005   199217829.676         -10.116          42.000  
> 2017 11 15 18 30 12.0000000  0 15                     
G14  25570306.411   134372876.1302       -614.918          32.000  
G 2  20662764.557   108583549.904       -1616.043          46.000  
G 5  24106898.205   126682621.195        2185.551          45.000  
G 6  23735375.880   124730297.692       -3209.717          37.000  
G12  20728005.459   108926396.466         408.997          50.000  
R12  22210022.588   118641962.530        3808.157          30.000  
G24  21661875.273   113833890.827       -2747.713          45.000  
G25  22041868.283   115830792.795        2174.662          45.000  
G29  21769539.836   114399711.153        1240.089          50.000  
R10  20893031.453   111371576.399       -2975.830          44.000  
R22  20772809.475   110886659.109        1595.630          45.000  
R11  19371787.747   103516947.503         869.424          46.000  
R20  23631851.871   126370175.985       -3683.067          33.000  
R21  19989907.973   106970048.401       -1964.893          47.000  
S20  37909895.372   199217831.537          -9.139          42.000  
> 2017 11 15 18 30 12.2000000  0 15                     
G14  25570333.877   134372998.5161       -614.669          32.000  
G 2  20662826.087   108583873.198       -1616.992          46.000  
G 5  24106815.282   126682184.133        2185.546          45.000  
G 6  23735498.032   124730939.664       -3210.205          37.000  
G12  20727990.033   108926314.712         408.466          50.000  
R12  22209881.259                1       3814.643          23.000  
G24  21661979.800   113834440.379       -2747.656          45.000  
G25  22041785.499   115830357.794        2174.625          45.000  
G29  21769492.616   114399463.094        1240.360          50.000  
R10  20893142.943   111372171.420       -2975.061          44.000  
R22  20772749.760   110886339.740        1596.991          45.000  
R11  19371755.289   103516773.575         869.680          46.000  
R20  23631990.810   126370912.811       -3685.637          33.000  
R21  19989981.560   106970441.403       -1965.471          48.000  
S20  37909895.721   199217833.434          -9.447          41.000  
> 2017 11 15 18 30 12.4000000  0 15                     
G14  25570356.633   134373121.4891       -613.990          32.000  
G 2  20662887.756   108584196.499       -1616.283          46.000  
G 5  24106732.236   126681747.042        2185.488          44.000  
G 6  23735620.270   124731581.526       -3208.942          35.000  
G12  20727974.555   108926232.967         408.795          49.000  
R12  22209738.778                1       3809.168          24.000  
G24  21662084.292   113834989.957       -2747.568          45.000  
G25  22041702.785   115829922.870        2174.697          45.000  
G29  21769445.570   114399215.125        1239.529          50.000  
R10  20893254.607   111372766.515       -2974.878          44.000  
R22  20772690.133   110886020.498        1596.234          45.000  
R11  19371722.762   103516599.712         869.121          46.000  
R20  23632129.190   126371649.514       -3681.847          33.000  
R21  19990055.043   106970834.492       -1965.328          48.000  
S20  37909896.157   199217835.274          -8.622          41.000  
> 2017 11 15 18 30 12.6000000  0 15                     
G14  25570379.562   134373244.4951       -614.149          32.000  
G 2  20662949.355   108584519.831       -1616.515          46.000  
G 5  24106648.894   126681309.949        2185.425          43.000  
G 6  23735742.369   124732223.443       -3208.801          35.000  
G12  20727958.955   108926151.205         408.771          50.000  
R12  22209600.485                1       3805.037          31.000  
G24  21662188.906   113835539.598       -2748.152          45.000  
G25  22041620.054   115829487.926        2174.819          45.000  
G29  21769398.437   114398967.130        1240.072          50.000  
R10  20893366.253   111373361.608       -2975.726          44.000  
R22  20772630.488   110885701.225        1596.594          45.000  
R11  19371690.305   103516425.872         869.083          46.000  
R20  23632267.832   126372386.285       -3683.496          33.000  
R21  19990128.561   106971227.526       -1965.238          47.000  
S20  37909896.506   199217837.141          -9.491          41.000  
> 2017 11 15 18 30 12.8000000  0 15                     
G14  25570400.607   134373367.5181       -614.957          32.000  
G 2  20663010.989   108584843.163       -1616.713          47.000  
G 5  24106565.534   126680872.793        2188.016          39.000  
G 6  23735864.538   124732865.395       -3210.822          35.000  
G12  20727943.529   108926069.430         409.015          50.000  
R12  22209463.989                1       3808.436          31.000  
G24  21662293.555   113836089.142       -2747.704          45.000  
G25  22041537.252   115829052.981        2174.776          46.000  
G29  21769351.217   114398719.153        1239.988          50.000  
R10  20893477.865   111373956.666       -2975.097          44.000  
R22  20772570.581   110885381.977        1596.252          45.000  
R11  19371657.725   103516252.049         869.031          46.000  
R20  23632406.108                1      -3678.764          28.000  
R21  19990202.096   106971620.566       -1965.156          49.000  
S20  37909896.680   199217838.912          -8.264          41.000  
> 2017 11 15 18 30 13.0000000  0 15                     
G14  25570425.456   134373490.440        -614.188          33.000  
G 2  20663072.536   108585166.500       -1616.485          47.000  
G 5  24106482.349   126680435.800        2186.491          42.000  
G 6  23735986.481   124733507.275       -3208.685          34.000  
G12  20727927.858   108925987.649         409.051          50.000  
R12  22209326.987                1       3807.942          30.000  
G24  21662398.134   113836638.780       -2748.025          45.000  
G25  22041454.416   115828617.986        2175.024          46.000  
G29  21769304.101   114398471.118        1240.227          50.000  
R10  20893589.494   111374551.780       -2975.665          44.000  
R22  20772510.849   110885062.712        1596.857          46.000  
R11  19371625.320   103516078.206         869.388          46.000  
R20  23632543.877                1      -3685.016          29.000  
R21  19990275.614   106972013.598       -1965.114          48.000  
S20  37909897.064   199217840.753          -8.641          41.000  
> 2017 11 15 18 30 13.2000000  0 15                     
G14  25570449.572   134373613.395        -613.785          32.000  
G 2  20663133.909   108585489.863       -1616.959          47.000  
G 5  24106399.199   126679998.802        2184.254          43.000  
G 6  23736108.458   124734149.332       -3210.333          34.000  
G12  20727912.223   108925905.907         408.759          50.000  
R12  22209190.352                1       3802.955          23.000  
G24  21662502.783   113837188.372       -2747.845          45.000  
G25  22041371.475   115828182.990        2175.019          46.000  
G29  21769256.933   114398223.077        1240.146          49.000  
R10  20893701.158   111375146.921       -2975.867          44.000  
R22  20772450.785   110884743.501        1595.978          45.000  
R11  19371592.636   103515904.419         868.899          46.000  
R20  23632679.692                1      -3684.077          30.000  
R21  19990349.271   106972406.651       -1965.219          48.000  
S20  37909897.483   199217842.644          -9.848          41.000  
> 2017 11 15 18 30 13.4000000  0 15                     
G14  25570473.985   134373736.375        -614.863          32.000  
G 2  20663195.560   108585813.348       -1617.277          47.000  
G 5  24106316.031   126679561.792        2184.018          44.000  
G 6  23736230.522   124734791.286       -3209.827          34.000  
G12  20727896.849   108925824.202         408.545          51.000  
R12  22209052.199                1       3807.434          31.000  
G24  21662607.292   113837737.996       -2748.085          44.000  
G25  22041288.674   115827747.965        2175.314          46.000  
G29  21769209.783   114397974.980        1240.730          50.000  
R10  20893812.822   111375742.144       -2976.074          44.000  
R22  20772391.036   110884424.177        1596.722          46.000  
R11  19371559.969   103515730.666         868.863          46.000  
R20  23632819.591                1      -3683.401          34.000  
R21  19990422.702   106972799.725       -1965.175          48.000  
S20  37909897.867   199217844.592          -9.583          41.000  
> 2017 11 15 18 30 13.6000000  0 15                     
G14  25570497.473   134373859.152        -615.053          32.000  
G 2  20663257.090   108586136.831       -1617.414          46.000  
G 5  24106233.003   126679124.808        2186.153          43.000  
G 6  23736352.604   124735433.360       -3209.583          34.000  
G12  20727881.441   108925742.515         408.490          51.000  
R12  22208912.213                1       3807.085          31.000  
G24  21662711.714   113838287.591       -2747.902          44.000  
G25  22041205.751   115827312.895        2175.333          46.000  
G29  21769162.580   114397726.818        1240.663          50.000  
R10  20893924.503   111376337.360       -2975.940          44.000  
R22  20772331.147   110884104.856        1596.204          46.000  
R11  19371527.494   103515556.897         868.768          46.000  
R20  23632958.651   126376048.1243      -3685.016          33.000  
R21  19990496.202   106973192.797       -1965.206          48.000  
S20  37909898.303   199217846.600          -9.895          41.000  
> 2017 11 15 18 30 13.8000000  0 15                     
G14  25570522.846   134373981.966        -613.322          32.000  
G 2  20663318.828   108586460.389       -1618.181          46.000  
G 5  24106149.922   126678687.915        2183.654          43.000  
G 6  23736474.807   124736075.534       -3211.041          35.000  
G12  20727865.893   108925660.838         408.350          50.000  
R12  22208768.406                1       3806.856          26.000  
G24  21662816.276   113838837.240       -2748.531          45.000  
G25  22041122.827   115826877.837        2175.289          46.000  
G29  21769115.482   114397478.670        1240.648          50.000  
R10  20894036.219   111376932.675       -2976.996          44.000  
R22  20772271.484   110883785.489        1596.734          46.000  
R11  19371495.054   103515383.168         868.442          46.000  
R20  23633096.299   126376785.0143      -3684.086          33.000  
R21  19990569.912   106973585.903       -1965.788          48.000  
S20  37909898.722   199217848.626         -10.223          41.000  
> 2017 11 15 18 30 14.0000000  0 15                     
G14  25570542.181   134374104.7891       -614.263          32.000  
G 2  20663380.375   108586784.036       -1618.317          47.000  
G 5  24106066.894   126678251.090        2184.418          44.000  
G 6  23736596.994   124736717.744       -3211.169          35.000  
G12  20727850.292   108925579.231         407.996          50.000  
R12  22208619.660                1       3808.033          27.000  
G24  21662920.925   113839386.889       -2748.013          45.000  
G25  22041039.974   115826442.783        2175.673          45.000  
G29  21769068.331   114397230.486        1241.187          50.000  
R10  20894147.901   111377528.045       -2976.868          44.000  
R22  20772211.630   110883466.142        1596.857          45.000  
R11  19371462.474   103515209.504         868.379          46.000  
R20  23633232.184   126377521.9252      -3684.930          29.000  
R21  19990643.447   106973979.044       -1965.793          48.000  
S20  37909899.036   199217850.704         -10.609          41.000  
> 2017 11 15 18 30 14.2000000  0 15                     
G14  25570564.325   134374227.4951       -612.617          32.000  
G 2  20663442.306   108587107.712       -1618.403          47.000  
G 5  24105983.709   126677814.265        2184.314          44.000  
G 6  23736719.111   124737359.969       -3211.603          34.000  
G12  20727834.761   108925497.613         408.191          50.000  
R12  22208468.873                1       3806.695          27.000  
G24  21663025.522   113839936.516       -2747.733          45.000  
G25  22040957.033   115826007.669        2175.675          45.000  
G29  21769021.163   114396982.234        1241.312          50.000  
R10  20894259.495   111378123.406       -2976.660          44.000  
R22  20772151.689   110883146.745        1597.107          45.000  
R11  19371429.930   103515035.819         868.567          46.000  
R20  23633370.983   126378258.8852      -3685.275          30.000  
R21  19990716.703   106974372.165       -1965.538          48.000  
S20  37909899.472   199217852.794         -10.290          41.000  
> 2017 11 15 18 30 14.4000000  0 15                     
G14  25570592.350   134374350.266        -614.293          32.000  
G 2  20663504.028   108587431.428       -1618.530          47.000  
G 5  24105900.838   126677377.487        2183.960          45.000  
G 6  23736841.349   124738002.257       -3211.420          34.000  
G12  20727819.196   108925416.018         408.258          50.000  
R12  22208318.731                1       3805.800          27.000  
G24  21663130.118   113840486.146       -2747.861          45.000  
G25  22040874.319   115825572.557        2176.049          45.000  
G29  21768974.048   114396733.978        1241.593          50.000  
R10  20894371.246   111378718.814       -2976.959          44.000  
R22  20772091.817   110882827.317        1597.351          46.000  
R11  19371397.472   103514862.174         868.384          46.000  
R20  23633508.944   126378995.8542      -3684.027          30.000  
R21  19990790.047   106974765.309       -1965.493          48.000  
S20  37909899.926   199217854.878         -10.203          41.000  
> 2017 11 15 18 30 14.6000000  0 15                     
G14  25570609.800   134374472.981        -614.218          31.000  
G 2  20663565.644   108587755.162       -1619.016          47.000  
G 5  24105818.019   126676940.766        2183.219          46.000  
G 6  23736963.414   124738644.562       -3211.877          34.000  
G12  20727803.526   108925334.440         407.629          50.000  
R12  22208173.737                1       3807.910          27.000  
G24  21663234.698   113841035.774       -2748.339          45.000  
G25  22040791.465   115825137.422        2175.544          45.000  
G29  21768926.984   114396485.678        1241.344          49.000  
R10  20894483.067   111379314.246       -2977.582          44.000  
R22  20772031.963   110882507.857        1597.266          46.000  
R11  19371364.980   103514688.531         867.943          46.000  
R20  23633647.691   126379732.8042      -3684.501          30.000  
R21  19990863.529   106975158.442       -1965.758          48.000  
S20  37909900.362   199217856.965         -10.810          41.000  
> 2017 11 15 18 30 14.8000000  0 15                     
G14  25570628.542   134374595.678        -613.485          31.000  
G 2  20663627.052   108588078.949       -1618.946          46.000  
G 5  24105734.921   126676504.075        2183.506          45.000  
G 6  23737085.478   124739286.864       -3211.475          30.000  
G12  20727788.030   108925252.875         407.855          50.000  
R12  22208032.094   118631359.5223       3806.625          32.000  
G24  21663339.242   113841585.402       -2747.903          45.000  
G25  22040708.542   115824702.243        2175.982          45.000  
G29  21768879.816   114396237.317        1242.065          49.000  
R10  20894594.888   111379909.715       -2977.118          44.000  
R22  20771972.039   110882188.374        1597.790          46.000  
R11  19371332.645   103514514.902         868.177          46.000  
R20  23633785.164   126380469.8062      -3685.550          29.000  
R21  19990937.030   106975551.596       -1965.755          48.000  
S20  37909900.781   199217859.102         -10.543          40.000  
> 2017 11 15 18 30 15.0000000  0 15                     
G14  25570648.453   134374718.166        -612.315          31.000  
G 2  20663688.564   108588402.727       -1618.989          46.000  
G 5  24105651.858   126676067.354        2183.598          45.000  
G 6  23737207.507   124739929.173       -3211.450          30.000  
G12  20727772.394   108925171.271         408.105          50.000  
R12  22207892.265   118630597.9513       3807.885          32.000  
G24  21663443.908   113842134.994       -2747.806          45.000  
G25  22040625.636   115824266.995        2176.358          45.000  
G29  21768832.474   114395988.881        1242.396          49.000  
R10  20894706.604   111380505.183       -2977.362          44.000  
R22  20771912.237   110881868.841        1597.864          46.000  
R11  19371300.310   103514341.245         868.279          46.000  
R20  23633924.434   126381206.6833      -3683.999          29.000  
R21  19991010.321   106975944.687       -1965.354          48.000  
S20  37909901.060   199217861.220         -10.557          40.000  
> 2017 11 15 18 30 15.2000000  0 15                     
G14  25570671.312   134374840.765        -612.890          30.000  
G 2  20663750.041   108588726.429       -1618.358          46.000  
G 5  24105569.022   126675630.559        2183.914          45.000  
G 6  23737329.519   124740571.387       -3210.840          31.000  
G12  20727756.899   108925089.615         408.301          50.000  
R12  22207752.332   118629836.3722       3808.611          32.000  
G24  21663548.278   113842684.542       -2748.007          45.000  
G25  22040542.782   115823831.685        2176.854          45.000  
G29  21768785.306   114395740.401        1242.485          48.000  
R10  20894818.286   111381100.584       -2977.350          44.000  
R22  20771852.452   110881549.264        1597.784          46.000  
R11  19371267.870   103514167.534         868.594          46.000  
R20  23634064.210   126381943.5402      -3683.976          29.000  
R21  19991083.751   106976337.727       -1964.975          48.000  
S20  37909901.444   199217863.257         -10.314          40.000  
> 2017 11 15 18 30 15.4000000  0 15                     
G14  25570692.933   134374963.215        -612.500          30.000  
G 2  20663811.500   108589050.156       -1618.635          47.000  
G 5  24105486.046   126675193.724        2184.279          46.000  
G 6  23737451.444   124741213.587       -3210.718          32.000  
G12  20727741.281   108925007.921         408.508          50.000  
R12  22207614.371   118629074.7792       3808.127          32.000  
G24  21663652.997   113843234.038       -2747.574          46.000  
G25  22040459.824   115823396.347        2176.686          45.000  
G29  21768738.033   114395491.875        1242.629          48.000  
R10  20894930.037   111381695.971       -2977.057          44.000  
R22  20771792.773   110881229.654        1598.089          47.000  
R11  19371235.377   103513993.829         868.513          47.000  
R20  23634200.042   126382680.3442      -3683.887          30.000  
R21  19991157.164   106976730.744       -1964.996          48.000  
S20  37909901.880   199217865.249         -10.080          40.000  
> 2017 11 15 18 30 15.6000000  0 15                     
G14  25570712.669   134375085.737        -612.770          30.000  
G 2  20663873.082   108589373.902       -1618.707          47.000  
G 5  24105403.088   126674756.932        2184.244          46.000  
G 6  23737573.508   124741855.807       -3211.316          32.000  
G12  20727725.628   108924926.267         408.490          50.000  
R12  22207471.680   118628313.2122       3807.543          32.000  
G24  21663757.628   113843783.583       -2747.516          46.000  
G25  22040376.970   115822961.021        2176.773          45.000  
G29  21768690.726   114395243.374        1242.753          47.000  
R10  20895041.910   111382291.422       -2977.045          44.000  
R22  20771733.058   110880910.089        1597.827          47.000  
R11  19371202.920   103513820.165         868.437          47.000  
R20  23634340.342   126383417.1822      -3683.717          30.000  
R21  19991230.752   106977123.803       -1965.158          48.000  
S20  37909902.212   199217867.257          -9.991          40.000  
> 2017 11 15 18 30 15.8000000  0 15                     
G14  25570736.594   134375208.224        -612.680          29.000  
G 2  20663934.699   108589697.694       -1618.958          47.000  
G 5  24105319.938   126674320.142        2184.036          46.000  
G 6  23737695.660   124742498.054       -3211.126          32.000  
G12  20727710.167   108924844.636         408.124          50.000  
R12  22207328.239   118627551.6432       3806.640          32.000  
G24  21663862.172   113844333.163       -2747.915          46.000  
G25  22040294.029   115822525.719        2176.476          45.000  
G29  21768643.418   114394994.888        1242.502          47.000  
R10  20895153.766   111382886.894       -2977.356          44.000  
R22  20771673.343   110880590.542        1597.693          47.000  
R11  19371170.532   103513646.548         868.015          47.000  
R20  23634477.588   126384153.9932      -3683.588          31.000  
R21  19991304.339   106977516.885       -1965.589          48.000  
S20  37909902.578   199217869.269          -9.878          40.000  
> 2017 11 15 18 30 16.0000000  0 15                     
G14  25570759.663   134375330.8351       -613.053          29.000  
G 2  20663996.176   108590021.475       -1618.798          47.000  
G 5  24105236.805   126673883.293        2184.256          46.000  
G 6  23737817.776   124743140.285       -3210.822          33.000  
G12  20727694.549   108924762.975         408.447          50.000  
R12  22207181.605   118626790.0052       3808.047          31.000  
G24  21663966.682   113844882.690       -2747.797          46.000  
G25  22040210.896   115822090.386        2176.790          45.000  
G29  21768596.146   114394746.387        1242.343          47.000  
R10  20895265.535   111383482.330       -2977.374          44.000  
R22  20771613.699   110880270.982        1597.534          47.000  
R11  19371137.988   103513472.911         868.310          47.000  
R20  23634613.927   126384890.8542      -3684.152          31.000  
R21  19991377.770   106977909.945       -1965.031          48.000  
S20  37909902.997   199217871.268          -9.779          40.000  
> 2017 11 15 18 30 16.2000000  0 15                     
G14  25570782.592   134375453.2761       -612.279          29.000  
G 2  20664057.828   108590345.275       -1619.248          47.000  
G 5  24105153.655   126673446.448        2184.028          46.000  
G 6  23737939.858   124743782.538       -3211.578          33.000  
G12  20727679.018   108924681.328         408.081          50.000  
R12  22207037.920   118626028.4032       3808.232          31.000  
G24  21664071.139   113845432.226       -2747.942          46.000  
G25  22040128.043   115821655.063        2176.328          45.000  
G29  21768548.699   114394497.886        1242.213          47.000  
R10  20895377.338   111384077.785       -2977.710          44.000  
R22  20771553.792   110879951.435        1597.430          47.000  
R11  19371105.356   103513299.325         867.762          47.000  
R20  23634750.021   126385627.6292      -3684.375          31.000  
R21  19991451.410   106978303.038       -1965.632          48.000  
S20  37909903.486   199217873.248         -10.227          40.000  
> 2017 11 15 18 30 16.4000000  0 15                     
G14  25570811.211   134375575.9511       -613.188          29.000  
G 2  20664119.462   108590669.119       -1619.103          47.000  
G 5  24105070.330   126673009.644        2184.191          45.000  
G 6  23738062.079   124744424.801       -3211.237          34.000  
G12  20727663.557   108924599.705         408.374          50.000  
R12  22206898.092   118625266.8012       3809.033          31.000  
G24  21664175.613   113845981.783       -2747.539          46.000  
G25  22040045.084   115821219.730        2177.089          45.000  
G29  21768501.304   114394249.394        1242.616          47.000  
R10  20895489.037   111384673.286       -2977.459          43.000  
R22  20771494.060   110879631.913        1597.839          47.000  
R11  19371072.881   103513125.769         867.893          47.000  
R20  23634885.749   126386364.4462      -3684.221          31.000  
R21  19991524.858   106978696.144       -1965.339          48.000  
S20  37909903.887   199217875.210          -9.723          40.000  
> 2017 11 15 18 30 16.6000000  0 14                     
G 2  20664181.096   108590992.999       -1619.317          48.000  
G 5  24104987.057   126672572.856        2184.124          45.000  
G 6  23738184.318   124745067.126       -3211.243          35.000  
G12  20727648.166   108924518.111         408.191          50.000  
R12  22206753.551   118624505.2312       3808.857          31.000  
G24  21664280.088   113846531.383       -2748.069          46.000  
G25  22039962.213   115820784.447        2176.434          44.000  
G29  21768454.118   114394000.924        1242.402          48.000  
R10  20895600.719   111385268.813       -2977.514          43.000  
R22  20771434.083   110879312.423        1597.430          47.000  
R11  19371040.319   103512952.253         867.565          47.000  
R20  23635021.965   126387101.2412      -3683.502          31.000  
R21  19991598.306   106979089.288       -1965.552          49.000  
S20  37909904.341   199217877.176          -9.670          40.000  
> 2017 11 15 18 30 16.8000000  0 14                     
G 2  20664242.835   108591316.886       -1619.607          48.000  
G 5  24104903.837   126672136.078        2183.819          45.000  
G 6  23738306.504   124745709.430       -3211.572          35.000  
G12  20727632.845   108924436.502         407.971          51.000  
R12  22206613.496   118623743.6502       3808.021          31.000  
G24  21664384.440   113847080.966       -2747.946          46.000  
G25  22039879.325   115820349.103        2176.805          44.000  
G29  21768406.881   114393752.448        1242.524          48.000  
R10  20895712.295   111385864.369       -2978.015          43.000  
R22  20771374.159   110878992.934        1597.436          47.000  
R11  19371007.704   103512778.744         867.377          47.000  
R20  23635158.827   126387838.0522      -3684.299          32.000  
R21  19991671.981   106979482.422       -1965.820          49.000  
S20  37909904.620   199217879.141          -9.884          40.000  
> 2017 11 15 18 30 17.0000000  0 14                     
G 2  20664304.556   108591640.825       -1619.801          48.000  
G 5  24104820.635   126671699.320        2183.702          44.000  
G 6  23738428.551   124746351.780       -3211.835          37.000  
G12  20727617.297   108924354.932         407.727          51.000  
R12  22206471.486   118622982.1612       3807.425          31.000  
G24  21664489.019   113847630.590       -2748.232          46.000  
G25  22039796.489   115819913.806        2176.633          44.000  
G29  21768359.643   114393504.012        1241.963          48.000  
R10  20895824.029   111386459.969       -2978.222          42.000  
R22  20771314.253   110878673.482        1597.107          47.000  
R11  19370975.264   103512605.289         867.059          47.000  
R20  23635298.813   126388574.8452      -3684.120          32.000  
R21  19991745.533   106979875.593       -1965.888          49.000  
S20  37909904.969   199217881.133         -10.145          40.000  
> 2017 11 15 18 30 17.2000000  0 14                     
G 2  20664366.138   108591964.790       -1619.880          48.000  
G 5  24104737.467   126671262.593        2183.444          44.000  
G 6  23738550.668   124746994.119       -3211.841          37.000  
G12  20727602.045   108924273.366         407.837          51.000  
R12  22206329.878   118622220.5942       3807.815          31.000  
G24  21664593.337   113848180.282       -2748.744          46.000  
G25  22039713.757   115819478.490        2176.690          44.000  
G29  21768312.527   114393255.571        1242.052          48.000  
R10  20895935.763   111387055.624       -2978.680          42.000  
R22  20771254.451   110878354.063        1596.942          47.000  
R11  19370942.702   103512431.853         867.068          47.000  
R20  23635436.687   126389311.6312      -3684.332          33.000  
R21  19991819.121   106980268.774       -1965.864          49.000  
S20  37909905.231   199217883.140         -10.201          40.000  
> 2017 11 15 18 30 17.4000000  0 14                     
G 2  20664428.017   108592288.764       -1620.004          49.000  
G 5  24104654.474   126670825.853        2183.703          45.000  
G 6  23738672.924   124747636.471       -3211.841          37.000  
G12  20727586.445   108924191.789         407.709          51.000  
R12  22206185.355   118621459.0142       3807.896          31.000  
G24  21664697.776   113848729.936       -2748.663          45.000  
G25  22039631.026   115819043.152        2176.515          44.000  
G29  21768265.290   114393007.100        1241.911          49.000  
R10  20896047.444   111387651.272       -2978.442          42.000  
R22  20771194.666   110878034.613        1596.759          47.000  
R11  19370910.175   103512258.429         866.895          47.000  
R20  23635577.842   126390048.3892      -3683.809          36.000  
R21  19991892.604   106980661.946       -1966.036          49.000  
S20  37909905.667   199217885.126         -10.035          41.000  
> 2017 11 15 18 30 17.6000000  0 14                     
G 2  20664489.756   108592612.782       -1620.057          49.000  
G 5  24104571.550   126670389.112        2183.925          46.000  
G 6  23738795.111   124748278.828       -3211.835          37.000  
G12  20727571.071   108924110.258         407.831          51.000  
R12  22206041.111   118620697.6092       3806.558          30.000  
G24  21664802.216   113849279.653       -2748.151          45.000  
G25  22039548.346   115818607.878        2176.756          44.000  
G29  21768218.087   114392758.720        1242.238          49.000  
R10  20896159.021   111388246.972       -2978.277          42.000  
R22  20771134.847   110877715.262        1597.174          48.000  
R11  19370877.718   103512085.091         866.890          47.000  
R20  23635713.605   126390785.1782      -3683.837          36.000  
R21  19991966.017   106981055.175       -1966.058          49.000  
S20  37909906.069   199217887.124          -9.780          41.000  
> 2017 11 15 18 30 17.8000000  0 14                     
G 2  20664551.547   108592936.839       -1620.331          49.000  
G 5  24104488.522   126669952.376        2183.928          46.000  
G 6  23738917.332   124748921.215       -3212.219          38.000  
G12  20727555.488   108924028.749         407.544          51.000  
R12  22205896.205   118619935.9923       3807.719          30.000  
G24  21664906.777   113849829.385       -2748.484          45.000  
G25  22039465.510   115818172.634        2176.093          44.000  
G29  21768170.936   114392510.353        1241.799          49.000  
R10  20896270.563   111388842.701       -2978.546          42.000  
R22  20771074.993   110877395.939        1596.710          47.000  
R11  19370845.260   103511911.794         866.392          47.000  
R20  23635852.386   126391521.9922      -3683.829          36.000  
R21  19992039.657   106981448.435       -1966.410          48.000  
S20  37909906.418   199217889.128          -9.837          41.000  
> 2017 11 15 18 30 18.0000000  0 15                     
G 2  20664613.286   108593260.933       -1620.743          49.000  
G 5  24104405.302   126669515.603        2183.589          46.000  
G 6  23739039.518   124749563.660       -3212.378          38.000  
G12  20727540.027   108923947.271         407.227          51.000  
R12  22205751.490   118619174.6563       3806.253          30.000  
G24  21665011.426   113850379.087       -2748.727          45.000  
G25  22039382.779   115817737.424        2176.072          44.000  
G29  21768123.646   114392262.011        1241.561          49.000  
G32  25762423.553                1      -1236.678          23.000  
R10  20896382.296   111389438.383       -2978.583          42.000  
R22  20771015.121   110877076.629        1596.344          47.000  
R11  19370812.820   103511738.545         865.888          47.000  
R20  23635993.436   126392258.8502      -3684.852          36.000  
R21  19992113.244   106981841.739       -1966.714          48.000  
S20  37909906.801   199217891.087          -9.877          41.000  
> 2017 11 15 18 30 18.2000000  0 16                     
G 2  20664674.990   108593585.009       -1620.263          49.000  
G 5  24104322.030   126669078.732        2184.668          46.000  
G 6  23739161.583   124750206.081       -3212.018          40.000  
G12  20727524.688   108923865.772         407.550          51.000  
R12  22205607.980   118618413.2332       3807.001          30.000  
G24  21665116.040   113850928.707       -2747.638          46.000  
G25  22039300.169   115817302.208        2176.275          45.000  
G29  21768076.443   114392013.637        1242.040          48.000  
G32  25762470.146                1      -1231.616          23.000  
G20  24991414.371                1       2683.039          20.000  
R10  20896494.013   111390034.022       -2977.942          42.000  
R22  20770955.372   110876757.284        1596.863          48.000  
R11  19370780.468   103511565.264         866.518          47.000  
R20  23636129.914   126392995.6852      -3684.031          36.000  
R21  19992186.954   106982235.028       -1966.295          48.000  
S20  37909907.185   199217892.972          -9.086          41.000  
> 2017 11 15 18 30 18.4000000  0 15                     
G 2  20664736.554   108593909.103       -1620.540          49.000  
G 5  24104238.792   126668641.823        2184.663          46.000  
G 6  23739283.856   124750848.508       -3212.103          41.000  
G12  20727509.036   108923784.270         407.367          51.000  
R12  22205463.736   118617651.8282       3807.102          31.000  
G24  21665220.759   113851478.298       -2747.948          46.000  
G25  22039217.525   115816866.994        2175.966          45.000  
G29  21768029.083   114391765.253        1241.711          48.000  
G20  24991312.619                1       2683.039          21.000  
R10  20896605.903   111390629.610       -2978.180          42.000  
R22  20770895.639   110876437.936        1596.533          48.000  
R11  19370748.185   103511391.999         866.268          48.000  
R20  23636267.562   126393732.4882      -3684.003          36.000  
R21  19992260.384   106982628.350       -1966.709          48.000  
S20  37909907.587   199217894.837          -9.388          41.000  
> 2017 11 15 18 30 18.6000000  0 15                     
G 2  20664798.171   108594233.218       -1620.575          49.000  
G 5  24104155.589   126668204.799        2185.602          45.000  
G 6  23739406.147   124751490.991       -3212.628          41.000  
G12  20727493.522   108923702.792         407.458          50.000  
R12  22205322.546   118616890.5592       3806.001          31.000  
G24  21665325.426   113852027.832       -2747.333          46.000  
G25  22039134.829   115816431.838        2175.798          45.000  
G29  21767981.566   114391516.895        1241.935          48.000  
G20  24991210.849                1       2683.039          20.000  
R10  20896717.620   111391225.150       -2977.454          42.000  
R22  20770835.681   110876118.539        1597.333          47.000  
R11  19370715.762   103511218.762         866.249          47.000  
R20  23636402.208   126394469.3892      -3684.071          35.000  
R21  19992333.640   106983021.699       -1966.521          48.000  
S20  37909907.988   199217896.660          -9.007          41.000  
> 2017 11 15 18 30 18.8000000  0 15                     
G 2  20664859.927   108594557.370       -1620.857          49.000  
G 5  24104072.387   126667767.847        2184.543          45.000  
G 6  23739528.456   124752133.500       -3212.427          42.000  
G12  20727477.835   108923621.317         407.391          51.000  
R12  22205177.867   118616129.2662       3805.924          31.000  
G24  21665430.092   113852577.332       -2747.538          46.000  
G25  22039052.307   115815996.678        2175.939          46.000  
G29  21767933.892   114391268.494        1242.061          48.000  
G20  24991107.840                1       2683.039          20.000  
R10  20896829.423   111391820.693       -2977.356          42.000  
R22  20770775.931   110875799.173        1597.034          48.000  
R11  19370683.200   103511045.570         865.846          47.000  
R20  23636539.663   126395206.2442      -3684.526          35.000  
R21  19992407.228   106983415.069       -1966.890          47.000  
S20  37909908.407   199217898.440          -8.633          42.000  
> 2017 11 15 18 30 19.0000000  0 15                     
G 2  20664921.701   108594881.512       -1620.820          49.000  
G 5  24103989.097   126667330.723        2186.089          44.000  
G 6  23739650.869   124752776.057       -3212.952          42.000  
G12  20727462.374   108923539.822         407.355          51.000  
R12  22205035.944   118615367.9842       3806.517          31.000  
G24  21665534.758   113853126.738       -2747.092          47.000  
G25  22038969.558   115815561.520        2175.544          46.000  
G29  21767886.184   114391020.076        1241.790          48.000  
G20  24991006.088                1       2683.039          19.000  
R10  20896941.052   111392416.104       -2977.032          42.000  
R22  20770716.147   110875479.768        1596.765          48.000  
R11  19370650.865   103510872.344         865.865          48.000  
R20  23636677.083   126395943.0892      -3683.974          34.000  
R21  19992480.676   106983808.456       -1967.031          47.000  
S20  37909908.616   199217900.134          -8.731          42.000  
> 2017 11 15 18 30 19.2000000  0 15                     
G 2  20664983.422   108595205.702       -1620.910          49.000  
G 5  24103905.702   126666893.636        2185.180          44.000  
G 6  23739773.562   124753418.587       -3212.671          43.000  
G12  20727447.000   108923458.385         407.220          51.000  
R12  22204891.631   118614606.8052       3804.645          30.000  
G24  21665639.599   113853676.144       -2746.815          47.000  
G25  22038886.809   115815126.387        2175.922          45.000  
G29  21767839.208   114390771.715        1241.879          49.000  
G20  24990903.847                1       2683.039          19.000  
R10  20897052.751   111393011.627       -2977.679          42.000  
R22  20770656.257   110875160.375        1596.936          47.000  
R11  19370618.442   103510699.184         865.771          48.000  
R20  23636814.993   126396679.9572      -3684.079          34.000  
R21  19992554.211   106984201.847       -1967.267          47.000  
S20  37909908.878   199217901.821          -8.380          42.000  
> 2017 11 15 18 30 19.4000000  0 15                     
G 2  20665045.109   108595529.858       -1620.919          49.000  
G 5  24103822.325   126666456.402        2187.042          44.000  
G 6  23739895.835   124754061.171       -3212.903          43.000  
G12  20727431.504   108923376.882         407.495          51.000  
R12  22204745.660   118613845.4422       3806.683          31.000  
G24  21665744.370   113854225.470       -2746.241          47.000  
G25  22038803.955   115814691.234        2175.808          45.000  
G29  21767791.865   114390523.293        1241.811          48.000  
G20  24990801.694                1       2683.039          19.000  
R10  20897164.467   111393606.970       -2976.898          42.000  
R22  20770596.543   110874840.926        1597.247          47.000  
R11  19370586.002   103510525.987         865.785          48.000  
R20  23636953.251   126397416.8882      -3684.562          33.000  
R21  19992627.607   106984595.241       -1966.797          47.000  
S20  37909909.122   199217903.486          -8.504          42.000  
> 2017 11 15 18 30 19.6000000  0 15                     
G 2  20665106.848   108595854.047       -1621.182          49.000  
G 5  24103739.192   126666019.147        2186.894          45.000  
G 6  23740018.231   124754703.757       -3213.604          42.000  
G12  20727415.764   108923295.398         407.343          50.000  
R12  22204602.498   118613084.3422       3805.795          31.000  
G24  21665848.897   113854774.734       -2746.020          46.000  
G25  22038721.154   115814256.131        2174.593          44.000  
G29  21767744.645   114390274.847        1242.026          48.000  
G20  24990699.191                1       2683.039          19.000  
R10  20897276.096   111394202.313       -2976.135          42.000  
R22  20770536.654   110874521.492        1596.539          47.000  
R11  19370553.685   103510352.824         865.643          48.000  
R20  23637089.554   126398153.8832      -3685.547          33.000  
R21  19992701.142   106984988.694       -1967.729          48.000  
S20  37909909.332   199217904.985          -6.998          40.000  
> 2017 11 15 18 30 19.8000000  0 15                     
G 2  20665168.552   108596178.291       -1621.167          49.000  
G 5  24103655.955   126665581.857        2186.054          45.000  
G 6  23740140.540   124755346.348       -3213.019          41.000  
G12  20727400.216   108923213.968         407.031          51.000  
R12  22204464.188   118612323.2282       3806.242          34.000  
G24  21665953.389   113855324.038       -2747.010          46.000  
G25  22038638.370   115813821.047        2175.011          45.000  
G29  21767697.425   114390026.517        1241.625          48.000  
G20  24990597.386                1       2683.039          18.000  
R10  20897387.848   111394797.675       -2976.910          42.000  
R22  20770476.764   110874202.066        1597.436          47.000  
R11  19370521.088   103510179.703         865.362          47.000  
R20  23637226.992   126398890.8632      -3684.493          36.000  
R21  19992774.538   106985382.188       -1967.739          48.000  
S20  37909909.646   199217906.530          -7.113          42.000  
> 2017 11 15 18 30 20.0000000  0 15                     
G 2  20665230.325   108596502.523       -1621.557          49.000  
G 5  24103572.839   126665144.592        2185.140          45.000  
G 6  23740263.005   124755988.997       -3213.483          41.000  
G12  20727384.842   108923132.553         406.879          51.000  
R12  22204326.750   118611562.0922       3805.862          34.000  
G24  21666057.916   113855873.285       -2746.705          46.000  
G25  22038555.586   115813385.996        2175.165          45.000  
G29  21767650.152   114389778.073        1241.978          48.000  
G20  24990495.355                1       2683.039          18.000  
R10  20897499.494   111395393.018       -2977.240          42.000  
R22  20770416.963   110873882.657        1596.789          47.000  
R11  19370488.805   103510006.628         865.202          49.000  
R20  23637365.163   126399627.9042      -3685.539          36.000  
R21  19992847.968   106985775.678       -1967.929          48.000  
S20  37909909.960   199217908.093          -7.983          42.000  
> 2017 11 15 18 30 20.2000000  0 15                     
G 2  20665292.151   108596826.831       -1621.052          50.000  
G 5  24103489.427   126664707.268        2185.736          44.000  
G 6  23740385.401   124756631.690       -3213.165          41.000  
G12  20727369.224   108923051.115         407.587          51.000  
R12  22204183.745   118610800.9432       3806.768          31.000  
G24  21666162.495   113856422.542       -2746.390          46.000  
G25  22038472.837   115812950.935        2175.744          45.000  
G29  21767602.879   114389529.684        1242.582          48.000  
G20  24990392.992                1       2683.039          18.000  
R10  20897611.053   111395988.329       -2976.373          42.000  
R22  20770357.108   110873563.238        1597.473          47.000  
R11  19370456.400   103509833.548         866.043          47.000  
R20  23637502.531   126400364.882       -3684.387          38.000  
R21  19992921.434   106986169.206       -1967.283          48.000  
S20  37909910.187   199217909.599          -7.192          41.000  
> 2017 11 15 18 30 20.4000000  0 15                     
G 2  20665353.663   108597151.102       -1621.282          49.000  
G 5  24103406.085   126664269.986        2185.747          45.000  
G 6  23740507.867   124757274.290       -3212.573          41.000  
G12  20727353.851   108922969.683         407.458          51.000  
R12  22204039.816   118610039.6882       3807.426          30.000  
G24  21666267.196   113856971.798       -2747.451          47.000  
G25  22038389.949   115812515.769        2176.581          44.000  
G29  21767555.589   114389281.279        1242.014          48.000  
G20  24990290.367                1       2683.039          18.000  
R10  20897722.752   111396583.743       -2977.802          42.000  
R22  20770297.080   110873243.806        1596.466          47.000  
R11  19370423.995   103509660.464         865.287          48.000  
R20  23637640.109   126401101.850       -3684.461          38.000  
R21  19992995.021   106986562.686       -1967.164          48.000  
S20  37909910.536   199217911.101          -8.433          43.000  
> 2017 11 15 18 30 20.6000000  0 15                     
G 2  20665415.228   108597475.337       -1621.351          49.000  
G 5  24103322.882   126663832.588        2187.334          47.000  
G 6  23740630.245   124757916.892       -3212.683          41.000  
G12  20727338.425   108922888.207         407.025          51.000  
R12  22203891.960   118609278.4402       3805.752          31.000  
G24  21666371.915   113857521.001       -2745.562          47.000  
G25  22038307.025   115812080.603        2176.130          43.000  
G29  21767508.404   114389032.777        1242.334          48.000  
G20  24990188.074                1       2683.039          18.000  
R10  20897834.434   111397179.073       -2976.251          43.000  
R22  20770237.260   110872924.349        1598.199          47.000  
R11  19370391.747   103509487.400         865.149          48.000  
R20  23637781.071   126401838.730       -3684.835          36.000  
R21  19993068.644   106986956.121       -1967.036          48.000  
S20  37909910.780   199217912.474          -5.961          42.000  
> 2017 11 15 18 30 20.8000000  0 15                     
G 2  20665477.002   108597799.610       -1621.919          50.000  
G 5  24103239.627   126663395.233        2187.884          45.000  
G 6  23740752.659   124758559.482       -3213.159          39.000  
G12  20727322.702   108922806.707         406.860          51.000  
R12  22203749.653   118608517.1462       3806.174          34.000  
G24  21666476.529   113858070.258       -2746.156          46.000  
G25  22038224.294   115811645.388        2175.639          45.000  
G29  21767460.869   114388784.270        1242.663          48.000  
G20  24990087.701                1       2683.039          18.000  
R10  20897946.080   111397774.453       -2976.587          42.000  
R22  20770177.511   110872604.882        1596.704          48.000  
R11  19370359.533   103509314.262         865.291          48.000  
R20  23637919.295   126402575.586       -3684.502          36.000  
R21  19993142.092   106987349.550       -1967.373          47.000  
S20  37909911.094   199217913.992          -7.476          42.000  
> 2017 11 15 18 30 21.0000000  0 15                     
G 2  20665538.758   108598123.887       -1621.196          50.000  
G 5  24103156.547   126662957.967        2186.228          45.000  
G 6  23740874.897   124759202.033       -3212.280          39.000  
G12  20727307.329   108922725.202         407.965          51.000  
R12  22203609.092   118607755.8992       3806.954          35.000  
G24  21666581.091   113858619.495       -2746.931          46.000  
G25  22038141.492   115811210.216        2175.841          45.000  
G29  21767413.562   114388535.790        1241.902          48.000  
G20  24989985.146                1       2683.039          18.000  
R10  20898057.762   111398369.800       -2976.520          42.000  
R22  20770117.395   110872285.397        1597.235          47.000  
R11  19370327.059   103509141.237         865.260          47.000  
R20  23638057.378   126403312.484       -3684.243          33.000  
R21  19993215.278   106987743.025       -1967.244          46.000  
S20  37909911.338   199217915.390          -7.593          40.000  
> 2017 11 15 18 30 21.2000000  0 15                     
G 2  20665600.410   108598448.202       -1621.619          49.000  
G 5  24103073.327   126662520.614        2185.924          45.000  
G 6  23740997.293   124759844.685       -3212.774          39.000  
G12  20727291.588   108922643.754         407.349          51.000  
R12  22203465.494   118606994.7432       3806.418          35.000  
G24  21666685.618   113859168.652       -2745.880          46.000  
G25  22038058.674   115810775.046        2176.135          45.000  
G29  21767366.237   114388287.253        1243.090          48.000  
G20  24989882.085                1       2683.039          18.000  
R10  20898169.443   111398965.196       -2977.002          43.000  
R22  20770057.732   110871965.957        1597.674          48.000  
R11  19370294.601   103508968.158         865.145          47.000  
R20  23638194.572   126404049.356       -3684.424          33.000  
R21  19993288.673   106988136.509       -1967.646          47.000  
S20  37909911.408   199217916.760          -6.712          41.000  
> 2017 11 15 18 30 21.4000000  0 15                     
G 2  20665662.079   108598772.538       -1621.828          49.000  
G 5  24102990.037   126662083.179        2186.662          45.000  
G 6  23741119.497   124760487.291       -3212.646          39.000  
G12  20727276.145   108922562.313         407.019          51.000  
R12  22203319.907   118606233.5392       3805.848          35.000  
G24  21666790.110   113859717.900       -2746.341          46.000  
G25  22037975.768   115810339.874        2175.891          43.000  
G29  21767318.807   114388038.805        1242.262          48.000  
G20  24989780.455                1       2683.039          17.000  
R10  20898281.037   111399560.577       -2977.508          42.000  
R22  20769997.843   110871646.533        1596.527          47.000  
R11  19370262.179   103508795.178         865.150          48.000  
R20  23638330.910   126404786.186       -3683.055          32.000  
R21  19993362.209   106988530.008       -1967.458          48.000  
S20  37909911.740   199217918.185          -7.227          41.000  
> 2017 11 15 18 30 21.6000000  0 15                     
G 2  20665723.835   108599096.876       -1621.680          49.000  
G 5  24102906.852   126661645.864        2187.271          45.000  
G 6  23741241.753   124761129.877       -3213.055          39.000  
G12  20727260.667   108922480.832         407.355          50.000  
R12  22203174.721   118605472.2862       3806.089          35.000  
G24  21666894.689   113860267.202       -2746.589          46.000  
G25  22037892.809   115809904.628        2175.674          43.000  
G29  21767271.412   114387790.335        1241.890          48.000  
G20  24989676.940                1       2683.039          17.000  
R10  20898392.823   111400156.021       -2977.057          42.000  
R22  20769938.006   110871327.119        1597.101          47.000  
R11  19370229.704   103508622.163         865.030          47.000  
R20  23638468.697   126405522.975       -3682.408          33.000  
R21  19993435.866   106988923.508       -1967.663          48.000  
S20  37909911.984   199217919.560          -7.179          41.000  
