     3.01           OBSERVATION DATA    M: Mixed            RINEX VERSION / TYPE
CONVBIN 2.4.3 Emlid                     20171115 194741 UTC PGM / RUN BY / DATE 
log: /home/reach/logs/rov_201711151846.ubx                  COMMENT             
format: u-blox                                              COMMENT             
                                                            MARKER NAME         
                                                            MARKER NUMBER       
                                                            MARKER TYPE         
                                                            OBSERVER / AGENCY   
                                                            REC # / TYPE / VERS 
                                                            ANT # / TYPE        
  3463696.1675 -4304268.2224 -3176318.6893                  APPROX POSITION XYZ 
        0.0000        0.0000        0.0000                  ANTENNA: DELTA H/E/N
G    4 C1C L1C D1C S1C                                      SYS / # / OBS TYPES 
R    4 C1C L1C D1C S1C                                      SYS / # / OBS TYPES 
E    4 C1C L1C D1C S1C                                      SYS / # / OBS TYPES 
J    4 C1C L1C D1C S1C                                      SYS / # / OBS TYPES 
S    4 C1C L1C D1C S1C                                      SYS / # / OBS TYPES 
C    4 C1I L1I D1I S1I                                      SYS / # / OBS TYPES 
  2017    11    15    18    46   40.0000000     GPS         TIME OF FIRST OBS   
  2017    11    15    18    49    6.2000000     GPS         TIME OF LAST OBS    
                                                            END OF HEADER       
> 2017 11 15 18 46 40.0000000  0 17                     
G20  24458661.143   128531032.128        2970.386          38.000  
G 2  21009095.870   110403500.472       -2084.519          49.000  
G 5  23695867.261   124522653.620        2139.404          48.000  
G 6  24345896.963   127938629.939       -3299.803          37.000  
G12  20666416.190   108602740.042         205.248          51.000  
R12  21518440.148   114947649.642        3613.118          45.000  
G24  22199354.509   116658303.855       -2985.316          46.000  
G25  21632007.079   113676938.292        2140.121          46.000  
G29  21545232.853   113220955.705        1115.764          49.000  
G21  26036367.838   136822046.902        3939.337          34.000  
R23  24529651.198   131217332.174        3240.879          34.000  
R10  21481151.954   114506624.497       -3386.646          40.000  
R22  20511610.201   109492336.491        1194.645          48.000  
R11  19269221.090   102968830.569         195.777          48.000  
R21  20371434.857   109011636.410       -2181.457          49.000  
S20  37897959.178   199155116.364         105.890          41.000  
S38  39593501.628   208065267.919          89.734          41.000  
> 2017 11 15 18 46 41.0000000  0 17                     
G20  24458095.948   128528061.662        2970.349          38.000  
G 2  21009492.601   110405585.223       -2085.170          48.000  
G 5  23695460.077   124520514.393        2138.971          48.000  
G 6  24346524.805   127941929.671       -3299.696          37.000  
G12  20666377.276   108602535.093         204.644          51.000  
R12  21517764.545   114944036.948        3612.504          45.000  
G24  22199922.636   116661289.368       -2985.941          46.000  
G25  21631599.809   113674798.180        2139.943          46.000  
G29  21545020.989   113219840.111        1115.305          49.000  
G21  26035618.386   136818107.906        3939.002          35.000  
R23  24529045.396   131214091.556        3240.572          35.000  
R10  21481787.264   114510011.720       -3387.770          40.000  
R22  20511386.245   109491142.260        1193.759          48.000  
R11  19269185.003   102968635.322         194.666          48.000  
R21  20371842.232   109013817.995       -2181.853          48.000  
S20  37897938.919   199155010.658         105.578          41.000  
S38  39593484.684   208065178.315          89.555          41.000  
> 2017 11 15 18 46 41.2000000  0 17                     
G20  24457982.940   128527467.614        2970.228          38.000  
G 2  21009571.703   110406002.289       -2085.576          49.000  
G 5  23695378.602   124520086.618        2138.580          49.000  
G 6  24346650.341   127942589.698       -3300.136          37.000  
G12  20666369.563   108602494.202         204.110          51.000  
R12  21517629.498   114943314.507        3612.118          45.000  
G24  22200036.306   116661886.557       -2986.287          47.000  
G25  21631518.403   113674370.241        2139.808          47.000  
G29  21544978.463   113219617.072        1114.863          50.000  
G21  26035468.664   136817320.151        3938.208          35.000  
R23  24528924.379   131213443.551        3239.691          35.000  
R10  21481914.336   114510689.254       -3387.924          40.000  
R22  20511341.345   109490903.517        1193.503          48.000  
R11  19269178.041   102968596.418         194.154          48.000  
R21  20371923.707   109014254.401       -2182.157          48.000  
S20  37897935.027   199154989.572         105.325          41.000  
S38  39593481.263   208065160.450          89.353          42.000  
> 2017 11 15 18 46 41.4000000  0 17                     
G20  24457869.915   128526873.559        2970.741          38.000  
G 2  21009650.962   110406419.400       -2085.275          49.000  
G 5  23695297.232   124519658.887        2138.788          49.000  
G 6  24346775.878   127943249.764       -3300.217          37.000  
G12  20666361.728   108602453.337         204.438          51.000  
R12  21517494.364   114942592.112        3612.211          45.000  
G24  22200149.942   116662483.783       -2986.047          46.000  
G25  21631436.858   113673942.345        2139.585          46.000  
G29  21544936.199   113219394.058        1115.269          49.000  
G21  26035318.749   136816532.394        3939.110          35.000  
R23  24528803.362   131212795.522        3240.468          35.000  
R10  21482041.286   114511366.838       -3387.644          40.000  
R22  20511296.568   109490664.834        1193.550          48.000  
R11  19269170.903   102968557.584         194.337          48.000  
R21  20372005.182   109014690.845       -2182.147          48.000  
S20  37897930.909   199154968.499         105.938          41.000  
S38  39593478.070   208065142.602          89.609          42.000  
> 2017 11 15 18 46 41.6000000  0 17                     
G20  24457756.855   128526279.499        2970.060          38.000  
G 2  21009730.255   110406836.495       -2085.574          48.000  
G 5  23695215.897   124519231.104        2138.861          49.000  
G 6  24346901.415   127943909.766       -3300.098          37.000  
G12  20666353.945   108602412.449         204.412          51.000  
R12  21517359.351   114941869.682        3612.187          45.000  
G24  22200263.526   116663080.968       -2985.921          46.000  
G25  21631355.418   113673514.392        2139.613          46.000  
G29  21544893.708   113219171.019        1115.233          49.000  
G21  26035168.764   136815744.607        3939.025          35.000  
R23  24528682.275   131212147.473        3240.650          36.000  
R10  21482168.307   114512044.405       -3387.882          40.000  
R22  20511251.843   109490426.112        1193.634          48.000  
R11  19269163.662   102968518.732         194.112          48.000  
R21  20372086.867   109015127.248       -2182.039          48.000  
S20  37897926.913   199154947.401         105.493          41.000  
S38  39593474.772   208065124.686          89.788          41.000  
> 2017 11 15 18 46 41.8000000  0 17                     
G20  24457643.847   128525685.311        2970.946          38.000  
G 2  21009809.724   110407253.514       -2084.835          48.000  
G 5  23695134.596   124518803.255        2139.429          49.000  
G 6  24347026.935   127944569.695       -3299.452          37.000  
G12  20666346.232   108602371.486         205.080          51.000  
R12  21517224.182   114941147.200        3612.427          45.000  
G24  22200377.161   116663678.090       -2985.357          46.000  
G25  21631274.048   113673086.359        2140.427          46.000  
G29  21544851.286   113218947.894        1115.930          49.000  
G21  26035019.006   136814956.751        3939.763          35.000  
R23  24528561.275   131211499.366        3241.174          36.000  
R10  21482295.239   114512721.908       -3387.411          39.000  
R22  20511206.926   109490187.332        1194.117          48.000  
R11  19269156.542   102968479.823         194.713          48.000  
R21  20372168.255   109015563.572       -2181.382          48.000  
S20  37897923.004   199154926.181         106.347          41.000  
S38  39593471.317   208065106.709          89.960          41.000  
> 2017 11 15 18 46 42.0000000  0 17                     
G20  24457530.822   128525091.104        2971.019          38.000  
G 2  21009889.140   110407670.556       -2085.207          49.000  
G 5  23695053.191   124518375.406        2139.221          49.000  
G 6  24347152.541   127945229.622       -3299.509          37.000  
G12  20666338.658   108602330.524         204.784          51.000  
R12  21517088.995   114940424.694        3612.469          45.000  
G24  22200490.745   116664275.207       -2985.512          46.000  
G25  21631192.695   113672658.317        2140.311          46.000  
G29  21544808.812   113218724.776        1115.671          49.000  
G21  26034869.144   136814168.861        3939.709          35.000  
R23  24528440.188   131210851.264        3240.406          36.000  
R10  21482422.295   114513399.416       -3387.648          39.000  
R22  20511162.097   109489948.558        1193.767          48.000  
R11  19269149.230   102968440.933         194.379          48.000  
R21  20372249.712   109015999.901       -2181.679          48.000  
S20  37897918.921   199154904.970         106.115          41.000  
S38  39593467.914   208065088.701          89.779          41.000  
> 2017 11 15 18 46 42.2000000  0 17                     
G20  24457417.850   128524496.852        2970.893          38.000  
G 2  21009968.399   110408087.529       -2084.861          49.000  
G 5  23694971.785   124517947.483        2139.606          49.000  
G 6  24347278.165   127945889.486       -3299.197          37.000  
G12  20666330.858   108602289.502         205.157          51.000  
R12  21516953.826   114939702.137        3612.627          45.000  
G24  22200604.206   116664872.260       -2985.225          46.000  
G25  21631111.272   113672230.206        2140.454          46.000  
G29  21544766.373   113218501.585        1115.984          49.000  
G21  26034719.334   136813380.925        3940.077          35.000  
R23  24528319.101   131210203.078        3240.749          36.000  
R10  21482549.280   114514076.856       -3387.202          39.000  
R22  20511117.372   109489709.724        1194.090          48.000  
R11  19269142.023   102968402.003         194.618          48.000  
R21  20372331.170   109016436.150       -2181.147          48.000  
S20  37897914.994   199154883.689         106.489          41.000  
S38  39593464.494   208065070.621          90.093          41.000  
> 2017 11 15 18 46 42.4000000  0 17                     
G20  24457304.842   128523902.559        2971.146          38.000  
G 2  21010047.884   110408504.511       -2084.824          48.000  
G 5  23694890.398   124517519.540        2139.972          49.000  
G 6  24347403.720   127946549.336       -3299.296          37.000  
G12  20666322.988   108602248.467         205.292          51.000  
R12  21516818.586   114938979.559        3613.048          45.000  
G24  22200717.772   116665469.301       -2984.912          45.000  
G25  21631029.797   113671802.094        2140.781          46.000  
G29  21544723.934   113218278.379        1116.238          49.000  
G21  26034569.489   136812592.946        3940.116          35.000  
R23  24528197.874   131209554.858        3241.225          36.000  
R10  21482676.213   114514754.273       -3386.879          39.000  
R22  20511072.647   109489470.879        1194.435          48.000  
R11  19269134.694   102968363.074         194.812          48.000  
R21  20372412.575   109016872.399       -2180.978          48.000  
S20  37897910.963   199154862.401         106.664          41.000  
S38  39593461.056   208065052.490          90.988          41.000  
> 2017 11 15 18 46 42.6000000  0 17                     
G20  24457191.642   128523308.124        2972.264          38.000  
G 2  21010127.300   110408921.403       -2084.333          48.000  
G 5  23694808.923   124517091.511        2140.356          49.000  
G 6  24347529.152   127947209.040       -3298.289          37.000  
G12  20666315.136   108602207.347         205.849          51.000  
R12  21516683.504   114938256.900        3613.355          45.000  
G24  22200831.338   116666066.262       -2984.615          45.000  
G25  21630948.270   113671373.883        2141.342          47.000  
G29  21544681.443   113218055.085        1116.779          49.000  
G21  26034419.574   136811804.866        3940.528          35.000  
R23  24528076.804   131208906.592        3241.121          36.000  
R10  21482803.180   114515431.659       -3386.610          39.000  
R22  20511027.852   109489231.961        1194.795          48.000  
R11  19269127.522   102968324.082         195.115          48.000  
R21  20372494.033   109017308.548       -2180.458          48.000  
S20  37897906.950   199154840.999         107.075          41.000  
S38  39593457.601   208065034.284          91.396          41.000  
> 2017 11 15 18 46 42.8000000  0 17                     
G20  24457078.338   128522713.579        2972.769          38.000  
G 2  21010206.646   110409338.205       -2083.850          48.000  
G 5  23694727.517   124516663.369        2140.784          49.000  
G 6  24347654.584   127947868.676       -3297.861          37.000  
G12  20666307.370   108602166.126         206.220          51.000  
R12  21516548.178   114937534.134        3613.856          45.000  
G24  22200944.869   116666663.116       -2984.100          45.000  
G25  21630866.847   113670945.569        2141.717          47.000  
G29  21544638.899   113217831.682        1117.297          49.000  
G21  26034269.624   136811016.661        3940.963          35.000  
R23  24527955.560   131208258.192        3241.520          36.000  
R10  21482930.305   114516108.908       -3386.302          39.000  
R22  20510983.075   109488992.943        1195.197          48.000  
R11  19269120.193   102968285.004         195.434          48.000  
R21  20372575.421   109017744.606       -2180.151          48.000  
S20  37897902.849   199154819.486         107.773          41.000  
S38  39593454.285   208065015.980          91.667          41.000  
> 2017 11 15 18 46 43.0000000  0 17                     
G20  24456965.156   128522119.040        2973.258          38.000  
G 2  21010285.923   110409755.020       -2083.751          48.000  
G 5  23694646.007   124516235.232        2140.979          49.000  
G 6  24347780.086   127948528.314       -3297.587          37.000  
G12  20666299.553   108602124.903         206.423          51.000  
R12  21516412.939   114936811.378        3614.126          45.000  
G24  22201058.366   116667259.973       -2983.965          45.000  
G25  21630785.355   113670517.234        2141.979          46.000  
G29  21544596.216   113217608.287        1117.263          49.000  
G21  26034119.570   136810228.436        3941.471          35.000  
R23  24527834.438   131207609.758        3242.805          36.000  
R10  21483057.238   114516786.171       -3385.873          39.000  
R22  20510938.245   109488753.943        1195.290          48.000  
R11  19269113.004   102968245.950         195.435          48.000  
R21  20372656.948   109018180.649       -2179.863          48.000  
S20  37897898.853   199154797.978         107.679          41.000  
S38  39593450.690   208064997.639          92.059          41.000  
> 2017 11 15 18 46 43.2000000  0 17                     
G20  24456852.026   128521524.455        2973.429          38.000  
G 2  21010365.164   110410171.846       -2083.927          48.000  
G 5  23694564.410   124515807.085        2141.089          48.000  
G 6  24347905.518   127949187.937       -3297.973          37.000  
G12  20666291.595   108602083.682         206.320          51.000  
R12  21516277.734   114936088.639        3613.938          45.000  
G24  22201172.054   116667856.835       -2984.100          45.000  
G25  21630703.879   113670088.903        2141.998          46.000  
G29  21544553.638   113217384.867        1117.339          49.000  
G21  26033969.498   136809440.208        3941.878          35.000  
R23  24527713.316   131206961.350        3242.968          36.000  
R10  21483184.241   114517463.460       -3386.393          40.000  
R22  20510893.538   109488514.940        1195.205          48.000  
R11  19269105.640   102968206.912         195.374          48.000  
R21  20372738.458   109018616.695       -2180.030          48.000  
S20  37897894.909   199154776.473         107.704          41.000  
S38  39593447.183   208064979.312          92.052          41.000  
> 2017 11 15 18 46 43.4000000  0 17                     
G20  24456738.914   128520929.783        2973.708          38.000  
G 2  21010444.632   110410588.594       -2083.907          48.000  
G 5  23694482.830   124515378.845        2141.003          48.000  
G 6  24348030.846   127949847.477       -3297.896          37.000  
G12  20666283.708   108602042.390         206.284          51.000  
R12  21516142.408   114935365.807        3614.006          45.000  
G24  22201285.515   116668453.613       -2984.080          45.000  
G25  21630622.352   113669660.513        2141.729          46.000  
G29  21544511.216   113217161.379        1117.260          49.000  
G21  26033819.688   136808651.917        3941.468          35.000  
R23  24527592.177   131206312.879        3242.426          37.000  
R10  21483311.313   114518140.645       -3386.351          40.000  
R22  20510848.725   109488275.864        1195.206          48.000  
R11  19269098.241   102968167.814         195.209          48.000  
R21  20372820.055   109019052.657       -2180.054          48.000  
S20  37897890.739   199154754.882         107.876          41.000  
S38  39593443.780   208064960.896          91.628          41.000  
> 2017 11 15 18 46 43.6000000  0 17                     
G20  24456625.714   128520335.186        2972.902          38.000  
G 2  21010523.944   110411005.412       -2084.141          48.000  
G 5  23694401.303   124514950.668        2140.845          48.000  
G 6  24348156.260   127950507.037       -3297.506          37.000  
G12  20666275.838   108602001.148         206.108          51.000  
R12  21516007.221   114934643.027        3613.814          45.000  
G24  22201399.029   116669050.441       -2984.282          45.000  
G25  21630540.807   113669232.133        2141.551          46.000  
G29  21544468.777   113216937.932        1117.126          49.000  
G21  26033669.738   136807863.646        3941.466          35.000  
R23  24527470.950   131205664.463        3241.681          37.000  
R10  21483438.246   114518817.896       -3386.099          40.000  
R22  20510803.791   109488036.849        1195.055          48.000  
R11  19269090.824   102968128.783         195.115          48.000  
R21  20372901.687   109019488.672       -2180.204          48.000  
S20  37897886.655   199154733.348         107.670          41.000  
S38  39593440.343   208064942.496          91.657          41.000  
> 2017 11 15 18 46 43.8000000  0 17                     
G20  24456512.532   128519740.470        2973.546          38.000  
G 2  21010603.360   110411422.187       -2083.710          49.000  
G 5  23694319.776   124514522.435        2141.351          48.000  
G 6  24348281.727   127951166.600       -3297.564          37.000  
G12  20666268.020   108601959.856         206.747          51.000  
R12  21515871.930   114933920.202        3614.436          45.000  
G24  22201512.595   116669647.212       -2983.753          45.000  
G25  21630459.280   113668803.713        2142.222          46.000  
G29  21544426.269   113216714.439        1117.815          49.000  
G21  26033519.753   136807075.292        3942.108          35.000  
R23  24527349.776   131205015.941        3242.726          36.000  
R10  21483565.266   114519495.109       -3385.688          40.000  
R22  20510759.049   109487797.796        1195.516          48.000  
R11  19269083.565   102968089.736         195.350          48.000  
R21  20372983.058   109019924.630       -2179.579          48.000  
S20  37897882.589   199154711.735         108.636          41.000  
S38  39593436.800   208064924.033          92.644          41.000  
> 2017 11 15 18 46 44.0000000  0 17                     
G20  24456399.280   128519145.725        2973.804          38.000  
G 2  21010682.688   110411838.955       -2084.019          49.000  
G 5  23694238.248   124514094.177        2141.418          48.000  
G 6  24348407.229   127951826.088       -3297.374          37.000  
G12  20666260.255   108601918.556         206.419          51.000  
R12  21515736.516   114933197.375        3613.911          45.000  
G24  22201626.126   116670243.970       -2984.064          45.000  
G25  21630377.595   113668375.280        2141.729          46.000  
G29  21544383.638   113216490.929        1117.397          49.000  
G21  26033369.682   136806286.930        3941.662          35.000  
R23  24527228.619   131204367.421        3242.979          36.000  
R10  21483692.199   114520172.320       -3386.276          40.000  
R22  20510714.184   109487558.725        1195.336          48.000  
R11  19269076.323   102968050.674         195.122          48.000  
R21  20373064.568   109020360.574       -2179.838          48.000  
S20  37897878.506   199154690.115         108.439          41.000  
S38  39593433.310   208064905.562          92.330          41.000  
> 2017 11 15 18 46 44.2000000  0 17                     
G20  24456286.046   128518550.950        2974.314          38.000  
G 2  21010762.069   110412255.700       -2083.456          49.000  
G 5  23694156.738   124513665.900        2141.632          48.000  
G 6  24348532.662   127952485.540       -3296.689          37.000  
G12  20666252.297   108601877.221         206.935          51.000  
R12  21515601.259   114932474.504        3614.564          45.000  
G24  22201739.570   116670840.694       -2983.337          45.000  
G25  21630296.050   113667946.803        2142.404          46.000  
G29  21544341.094   113216267.376        1118.066          49.000  
G21  26033219.732   136805498.505        3942.775          35.000  
R23  24527107.515   131203718.913        3242.973          36.000  
R10  21483819.237   114520849.504       -3385.893          40.000  
R22  20510669.302   109487319.643        1195.724          48.000  
R11  19269069.186   102968011.610         195.637          48.000  
R21  20373145.886   109020796.492       -2179.386          48.000  
S20  37897874.405   199154668.416         108.555          41.000  
S38  39593429.803   208064887.065          92.517          41.000  
> 2017 11 15 18 46 44.4000000  0 17                     
G20  24456172.864   128517956.186        2974.138          38.000  
G 2  21010841.468   110412672.483       -2083.813          49.000  
G 5  23694075.158   124513237.625        2141.614          48.000  
G 6  24348658.059   127953145.058       -3297.423          37.000  
G12  20666244.445   108601835.916         206.752          51.000  
R12  21515465.933   114931751.672        3614.438          45.000  
G24  22201853.083   116671437.443       -2983.546          45.000  
G25  21630214.663   113667518.331        2142.447          46.000  
G29  21544298.568   113216043.853        1117.731          49.000  
G21  26033069.765   136804710.106        3942.346          35.000  
R23  24526986.393   131203070.391        3242.531          36.000  
R10  21483946.257   114521526.700       -3385.630          40.000  
R22  20510624.455   109487080.589        1195.331          48.000  
R11  19269061.927   102967972.594         195.286          48.000  
R21  20373227.343   109021232.416       -2179.421          48.000  
S20  37897870.392   199154646.729         108.491          41.000  
S38  39593426.173   208064868.533          93.176          41.000  
> 2017 11 15 18 46 44.6000000  0 17                     
G20  24456059.682   128517361.385        2973.815          38.000  
G 2  21010920.727   110413089.266       -2084.258          49.000  
G 5  23693993.666   124512809.359        2141.144          48.000  
G 6  24348783.456   127953804.512       -3297.732          37.000  
G12  20666236.679   108601794.605         206.240          51.000  
R12  21515330.502   114931028.837        3613.932          45.000  
G24  22201966.562   116672034.197       -2983.968          45.000  
G25  21630133.205   113667089.868        2141.901          46.000  
G29  21544255.920   113215820.315        1117.507          49.000  
G21  26032919.797   136803921.672        3942.246          35.000  
R23  24526865.306   131202421.863        3242.519          36.000  
R10  21484073.172   114522203.919       -3386.322          40.000  
R22  20510579.521   109486841.526        1195.010          48.000  
R11  19269054.615   102967933.588         194.655          48.000  
R21  20373308.714   109021668.338       -2179.715          48.000  
S20  37897866.221   199154624.981         108.569          41.000  
S38  39593422.578   208064850.037          92.263          41.000  
> 2017 11 15 18 46 44.8000000  0 17                     
G20  24455946.517   128516766.580        2974.185          38.000  
G 2  21010999.986   110413506.053       -2083.883          48.000  
G 5  23693912.051   124512381.079        2141.382          48.000  
G 6  24348908.941   127954463.990       -3297.355          37.000  
G12  20666228.966   108601753.293         206.591          51.000  
R12  21515195.088   114930306.002        3614.335          45.000  
G24  22202080.006   116672630.937       -2983.627          45.000  
G25  21630051.643   113666661.381        2142.414          46.000  
G29  21544213.358   113215596.779        1117.756          49.000  
G21  26032769.656   136803133.224        3942.508          35.000  
R23  24526743.992   131201773.353        3242.130          36.000  
R10  21484200.158   114522881.136       -3386.196          40.000  
R22  20510534.534   109486602.482        1195.307          48.000  
R11  19269047.391   102967894.605         194.900          48.000  
R21  20373389.979   109022104.269       -2179.591          48.000  
S20  37897861.998   199154603.263         108.749          41.000  
S38  39593419.123   208064831.492          92.580          41.000  
> 2017 11 15 18 46 45.0000000  0 17                     
G20  24455833.195   128516171.772        2974.351          38.000  
G 2  21011079.314   110413922.880       -2084.083          48.000  
G 5  23693830.663   124511952.821        2141.235          48.000  
G 6  24349034.390   127955123.479       -3297.397          37.000  
G12  20666220.992   108601712.013         206.489          51.000  
R12  21515059.866   114929583.202        3613.969          45.000  
G24  22202193.642   116673227.704       -2983.713          45.000  
G25  21629970.168   113666232.924        2142.538          46.000  
G29  21544170.815   113215373.262        1117.650          49.000  
G21  26032619.532   136802344.826        3942.095          35.000  
R23  24526622.817   131201124.818        3242.465          36.000  
R10  21484327.143   114523558.381       -3386.095          40.000  
R22  20510489.652   109486363.467        1195.161          48.000  
R11  19269040.149   102967855.670         194.691          48.000  
R21  20373471.385   109022540.211       -2179.612          48.000  
S20  37897857.932   199154581.539         108.473          41.000  
S38  39593415.546   208064812.963          92.677          41.000  
> 2017 11 15 18 46 45.2000000  0 17                     
G20  24455720.013   128515576.967        2973.801          38.000  
G 2  21011158.835   110414339.721       -2084.229          48.000  
G 5  23693749.206   124511524.557        2141.321          48.000  
G 6  24349159.892   127955782.957       -3297.420          37.000  
G12  20666213.087   108601670.744         206.299          51.000  
R12  21514924.645   114928860.401        3613.994          45.000  
G24  22202307.260   116673824.479       -2983.994          45.000  
G25  21629888.623   113665804.489        2142.177          46.000  
G29  21544128.271   113215149.753        1117.477          49.000  
G21  26032469.529   136801556.390        3942.160          35.000  
R23  24526501.713   131200476.341        3242.020          37.000  
R10  21484454.198   114524235.644       -3386.300          40.000  
R22  20510444.823   109486124.477        1194.903          48.000  
R11  19269033.012   102967816.763         194.533          48.000  
R21  20373552.755   109022976.170       -2179.790          48.000  
S20  37897853.744   199154559.812         108.503          41.000  
S38  39593412.038   208064794.442          92.641          41.000  
> 2017 11 15 18 46 45.4000000  0 17                     
G20  24455606.849   128514982.141        2973.980          38.000  
G 2  21011238.233   110414756.599       -2084.517          48.000  
G 5  23693667.696   124511096.316        2141.132          48.000  
G 6  24349285.359   127956442.483       -3297.737          37.000  
G12  20666205.286   108601629.496         206.089          51.000  
R12  21514789.336   114928137.617        3613.979          45.000  
G24  22202420.669   116674421.278       -2984.294          45.000  
G25  21629807.060   113665376.060        2141.919          46.000  
G29  21544085.745   113214926.260        1117.311          49.000  
G21  26032319.388   136800767.967        3942.262          35.000  
R23  24526380.451   131199827.827        3242.541          37.000  
R10  21484581.183   114524912.956       -3386.814          40.000  
R22  20510399.993   109485885.513        1194.664          48.000  
R11  19269025.735   102967777.905         194.229          48.000  
R21  20373634.125   109023412.154       -2180.043          48.000  
S20  37897849.451   199154538.078         108.912          41.000  
S38  39593408.670   208064775.938          92.243          41.000  
> 2017 11 15 18 46 45.6000000  0 17                     
G20  24455493.632   128514387.247        2974.520          38.000  
G 2  21011317.475   110415173.434       -2084.333          49.000  
G 5  23693586.186   124510668.035        2141.412          48.000  
G 6  24349410.861   127957101.938       -3297.463          37.000  
G12  20666197.416   108601588.202         206.271          51.000  
R12  21514654.079   114927414.817        3613.933          45.000  
G24  22202533.991   116675018.016       -2983.862          45.000  
G25  21629725.533   113664947.568        2142.203          46.000  
G29  21544043.219   113214702.715        1117.511          49.000  
G21  26032169.333   136799979.473        3942.395          35.000  
R23  24526259.312   131199179.296        3243.030          37.000  
R10  21484708.221   114525590.209       -3386.611          40.000  
R22  20510355.268   109485646.505        1194.870          48.000  
R11  19269018.581   102967739.025         194.212          48.000  
R21  20373715.600   109023848.074       -2179.822          48.000  
S20  37897845.351   199154516.285         108.798          41.000  
S38  39593405.111   208064757.336          93.011          41.000  
> 2017 11 15 18 46 45.8000000  0 17                     
G20  24455380.415   128513792.387        2974.733          38.000  
G 2  21011396.961   110415590.304       -2084.079          49.000  
G 5  23693504.589   124510239.761        2141.589          48.000  
G 6  24349536.311   127957761.413       -3297.224          37.000  
G12  20666189.651   108601546.921         206.630          51.000  
R12  21514518.630   114926692.021        3614.130          45.000  
G24  22202647.400   116675614.781       -2983.556          45.000  
G25  21629643.971   113664519.101        2142.501          46.000  
G29  21544000.797   113214479.195        1117.734          49.000  
G21  26032019.314   136799191.020        3942.463          35.000  
R23  24526138.347   131198530.803        3242.714          37.000  
R10  21484835.258   114526267.477       -3386.083          39.000  
R22  20510310.491   109485407.523        1195.150          48.000  
R11  19269011.339   102967700.174         194.456          48.000  
R21  20373797.006   109024284.014       -2179.427          48.000  
S20  37897841.250   199154494.477         109.449          41.000  
S38  39593401.708   208064738.771          92.944          41.000  
> 2017 11 15 18 46 46.0000000  0 17                     
G20  24455267.180   128513197.492        2974.652          38.000  
G 2  21011476.237   110416007.190       -2084.448          49.000  
G 5  23693422.974   124509811.487        2141.437          48.000  
G 6  24349661.673   127958420.862       -3297.207          37.000  
G12  20666181.764   108601505.660         206.403          51.000  
R12  21514383.461   114925969.242        3613.990          45.000  
G24  22202760.966   116676211.555       -2983.806          45.000  
G25  21629562.321   113664090.631        2142.195          46.000  
G29  21543958.184   113214255.659        1117.808          49.000  
G21  26031869.277   136798402.536        3942.124          35.000  
R23  24526017.225   131197882.290        3242.730          37.000  
R10  21484962.226   114526944.771       -3386.134          39.000  
R22  20510265.714   109485168.563        1194.917          48.000  
R11  19269004.149   102967661.360         194.176          48.000  
R21  20373878.638   109024719.972       -2179.736          48.000  
S20  37897837.149   199154472.700         109.164          41.000  
S38  39593398.200   208064720.187          93.118          41.000  
> 2017 11 15 18 46 46.2000000  0 17                     
G20  24455153.998   128512602.583        2974.851          38.000  
G 2  21011555.566   110416424.060       -2084.182          49.000  
G 5  23693341.586   124509383.199        2141.577          48.000  
G 6  24349787.350   127959080.303       -3296.965          37.000  
G12  20666173.736   108601464.379         206.557          51.000  
R12  21514248.117   114925246.450        3614.062          45.000  
G24  22202874.375   116676808.307       -2983.598          45.000  
G25  21629480.881   113663662.128        2142.725          46.000  
G29  21543915.571   113214032.112        1118.040          49.000  
G21  26031719.135   136797614.000        3942.606          35.000  
R23  24525895.981   131197233.778        3242.763          37.000  
R10  21485089.229   114527622.056       -3386.091          39.000  
R22  20510220.936   109484929.593        1194.940          48.000  
R11  19268997.152   102967622.547         194.142          48.000  
R21  20373960.095   109025155.884       -2179.348          48.000  
S20  37897833.118   199154450.913         108.946          41.000  
S38  39593394.728   208064701.584          93.469          41.000  
> 2017 11 15 18 46 46.4000000  0 17                     
G20  24455040.798   128512007.664        2974.873          38.000  
G 2  21011635.051   110416840.986       -2084.790          49.000  
G 5  23693259.937   124508954.944        2141.010          48.000  
G 6  24349912.869   127959739.795       -3297.567          37.000  
G12  20666166.041   108601423.139         205.954          51.000  
R12  21514112.738   114924523.691        3613.523          45.000  
G24  22202987.871   116677405.110       -2984.250          45.000  
G25  21629399.423   113663233.694        2141.675          46.000  
G29  21543872.992   113213808.609        1117.567          49.000  
G21  26031569.116   136796825.519        3942.112          35.000  
R23  24525774.754   131196585.263        3241.938          37.000  
R10  21485216.197   114528299.387       -3386.805          39.000  
R22  20510176.281   109484690.669        1194.382          48.000  
R11  19268989.840   102967583.794         193.562          48.000  
R21  20374041.693   109025591.860       -2179.977          48.000  
S20  37897828.947   199154429.126         108.794          41.000  
S38  39593391.220   208064683.005          92.663          41.000  
> 2017 11 15 18 46 46.6000000  0 17                     
G20  24454927.634   128511412.766        2974.885          38.000  
G 2  21011714.415   110417257.921       -2084.541          49.000  
G 5  23693178.270   124508526.690        2141.547          48.000  
G 6  24350038.354   127960399.268       -3297.456          37.000  
G12  20666158.328   108601381.909         206.250          51.000  
R12  21513977.534   114923800.946        3613.810          45.000  
G24  22203101.454   116678001.926       -2984.030          45.000  
G25  21629317.774   113662805.233        2142.177          46.000  
G29  21543830.466   113213585.109        1117.666          49.000  
G21  26031419.236   136796037.038        3942.366          36.000  
R23  24525653.528   131195936.752        3242.643          37.000  
R10  21485343.217   114528976.744       -3387.072          39.000  
R22  20510131.452   109484451.761        1194.653          48.000  
R11  19268982.493   102967545.068         193.835          48.000  
R21  20374123.063   109026027.837       -2179.722          48.000  
S20  37897824.829   199154407.352         108.901          41.000  
S38  39593387.625   208064664.416          93.181          41.000  
> 2017 11 15 18 46 46.8000000  0 17                     
G20  24454814.417   128510817.818        2974.844          38.000  
G 2  21011793.796   110417674.850       -2084.699          49.000  
G 5  23693096.882   124508098.412        2141.473          48.000  
G 6  24350163.960   127961058.719       -3297.417          37.000  
G12  20666150.493   108601340.656         206.298          51.000  
R12  21513842.242   114923078.175        3613.762          45.000  
G24  22203215.021   116678598.709       -2984.053          45.000  
G25  21629236.229   113662376.747        2142.177          46.000  
G29  21543787.957   113213361.570        1117.875          49.000  
G21  26031269.181   136795248.497        3942.372          35.000  
R23  24525532.283   131195288.240        3242.412          37.000  
R10  21485470.237   114529654.056       -3386.588          39.000  
R22  20510086.692   109484212.842        1194.443          48.000  
R11  19268975.304   102967506.350         193.545          48.000  
R21  20374204.555   109026463.786       -2179.706          48.000  
S20  37897820.798   199154385.546         109.073          41.000  
S38  39593384.170   208064645.806          93.063          41.000  
> 2017 11 15 18 46 47.0000000  0 17                     
G20  24454701.287   128510222.903        2974.435          38.000  
G 2  21011873.142   110418091.805       -2084.773          49.000  
G 5  23693015.267   124507670.160        2141.345          48.000  
G 6  24350289.515   127961718.184       -3297.507          37.000  
G12  20666142.640   108601299.432         206.208          51.000  
R12  21513706.829   114922355.442        3613.819          45.000  
G24  22203328.534   116679195.523       -2984.182          45.000  
G25  21629154.824   113661948.277        2142.349          46.000  
G29  21543745.431   113213138.073        1117.635          49.000  
G21  26031119.127   136794459.962        3942.854          36.000  
R23  24525410.952   131194639.732        3242.653          37.000  
R10  21485597.170   114530331.407       -3386.666          39.000  
R22  20510041.915   109483973.952        1194.446          48.000  
R11  19268968.080   102967467.673         193.337          48.000  
R21  20374285.908   109026899.763       -2179.815          48.000  
S20  37897816.715   199154363.741         109.278          41.000  
S38  39593380.715   208064627.194          93.275          41.000  
> 2017 11 15 18 46 47.2000000  0 17                     
G20  24454587.965   128509627.923        2974.637          38.000  
G 2  21011952.523   110418508.782       -2084.994          49.000  
G 5  23692933.652   124507241.900        2141.150          48.000  
G 6  24350415.017   127962377.644       -3297.526          38.000  
G12  20666134.700   108601258.211         206.127          51.000  
R12  21513571.642   114921632.722        3613.539          45.000  
G24  22203441.961   116679792.329       -2983.978          45.000  
G25  21629073.366   113661519.806        2142.490          47.000  
G29  21543702.835   113212914.564        1117.588          49.000  
G21  26030969.195   136793671.453        3942.569          36.000  
R23  24525289.917   131193991.219        3242.615          37.000  
R10  21485724.295   114531008.786       -3386.805          39.000  
R22  20509997.172   109483735.075        1194.260          48.000  
R11  19268961.030   102967429.014         193.180          48.000  
R21  20374367.174   109027335.749       -2179.952          48.000  
S20  37897812.562   199154341.953         108.641          41.000  
S38  39593377.365   208064608.581          93.281          41.000  
> 2017 11 15 18 46 47.4000000  0 17                     
G20  24454474.923   128509032.984        2974.824          38.000  
G 2  21012031.800   110418925.808       -2085.299          49.000  
G 5  23692851.985   124506813.681        2140.924          48.000  
G 6  24350540.763   127963037.146       -3297.752          37.000  
G12  20666126.795   108601217.043         205.704          51.000  
R12  21513436.298   114920910.043        3613.216          45.000  
G24  22203555.527   116680389.192       -2984.453          45.000  
G25  21628991.961   113661091.392        2142.101          46.000  
G29  21543660.396   113212691.107        1117.162          49.000  
G21  26030819.123   136792882.953        3942.387          35.000  
R23  24525168.883   131193342.783        3242.182          37.000  
R10  21485851.315   114531686.210       -3387.270          39.000  
R22  20509952.447   109483496.254        1193.875          48.000  
R11  19268953.805   102967390.428         192.670          48.000  
R21  20374448.684   109027771.774       -2180.347          48.000  
S20  37897808.391   199154320.165         108.660          41.000  
S38  39593373.840   208064590.004          92.962          41.000  
> 2017 11 15 18 46 47.6000000  0 17                     
G20  24454361.741   128508438.075        2974.435          38.000  
G 2  21012111.303   110419342.874       -2085.407          49.000  
G 5  23692770.371   124506385.494        2140.686          48.000  
G 6  24350666.265   127963696.670       -3297.500          38.000  
G12  20666119.222   108601175.900         205.682          51.000  
R12  21513300.954   114920187.391        3613.111          45.000  
G24  22203669.058   116680986.075       -2984.533          45.000  
G25  21628910.433   113660662.979        2142.371          46.000  
G29  21543617.783   113212467.663        1117.157          49.000  
G21  26030669.068   136792094.501        3942.387          35.000  
R23  24525047.726   131192694.350        3242.218          37.000  
R10  21485978.335   114532363.678       -3387.384          39.000  
R22  20509907.723   109483257.461        1193.963          48.000  
R11  19268946.651   102967351.880         192.651          48.000  
R21  20374530.142   109028207.828       -2180.342          48.000  
S20  37897804.203   199154298.408         108.729          40.000  
S38  39593370.402   208064571.440          92.681          41.000  
> 2017 11 15 18 46 47.8000000  0 17                     
G20  24454248.471   128507843.093        2974.890          38.000  
G 2  21012190.666   110419759.908       -2085.213          49.000  
G 5  23692688.896   124505957.255        2141.046          48.000  
G 6  24350791.802   127964356.144       -3297.393          38.000  
G12  20666111.300   108601134.719         205.821          51.000  
R12  21513165.628   114919464.695        3613.383          45.000  
G24  22203782.414   116681582.919       -2984.323          45.000  
G25  21628828.888   113660234.547        2142.273          46.000  
G29  21543575.152   113212244.177        1117.471          49.000  
G21  26030518.892   136791305.935        3942.545          36.000  
R23  24524926.534   131192045.881        3242.261          37.000  
R10  21486105.442   114533041.104       -3387.125          39.000  
R22  20509863.120   109483018.652        1194.055          48.000  
R11  19268939.566   102967313.318         192.782          48.000  
R21  20374611.582   109028643.834       -2180.086          48.000  
S20  37897799.893   199154276.587         109.054          41.000  
S38  39593366.807   208064552.812          93.104          41.000  
> 2017 11 15 18 46 48.0000000  0 17                     
G20  24454135.307   128507248.165        2974.742          38.000  
G 2  21012270.100   110420177.019       -2085.746          49.000  
G 5  23692607.403   124505529.072        2140.802          48.000  
G 6  24350917.426   127965015.669       -3297.598          38.000  
G12  20666103.325   108601093.598         205.454          51.000  
R12  21513030.284   114918742.072        3613.068          45.000  
G24  22203895.945   116682179.829       -2984.720          45.000  
G25  21628747.361   113659806.159        2141.915          46.000  
G29  21543532.573   113212020.762        1117.056          49.000  
G21  26030368.907   136790517.464        3942.301          36.000  
R23  24524805.395   131191397.494        3241.845          37.000  
R10  21486232.532   114533718.601       -3387.799          39.000  
R22  20509818.587   109482779.906        1193.571          48.000  
R11  19268932.394   102967274.837         192.232          48.000  
R21  20374692.935   109029079.903       -2180.372          48.000  
S20  37897795.722   199154254.852         108.648          41.000  
S38  39593363.370   208064534.232          92.899          42.000  
> 2017 11 15 18 46 48.2000000  0 17                     
G20  24454022.090   128506653.274        2974.447          38.000  
G 2  21012349.551   110420594.173       -2086.026          49.000  
G 5  23692525.858   124505100.939        2140.454          48.000  
G 6  24351043.067   127965675.252       -3297.889          38.000  
G12  20666095.420   108601052.533         205.025          51.000  
R12  21512894.975   114918019.510        3612.413          45.000  
G24  22204009.477   116682776.784       -2985.000          45.000  
G25  21628665.886   113659377.814        2141.568          46.000  
G29  21543489.977   113211797.388        1116.558          49.000  
G21  26030218.923   136789728.996        3942.304          36.000  
R23  24524684.325   131190749.132        3241.376          37.000  
R10  21486359.587   114534396.133       -3387.826          39.000  
R22  20509773.897   109482541.217        1193.173          48.000  
R11  19268925.204   102967236.425         191.759          48.000  
R21  20374774.375   109029516.019       -2180.711          48.000  
S20  37897791.691   199154233.130         108.421          41.000  
S38  39593359.897   208064515.700          92.296          42.000  
> 2017 11 15 18 46 48.4000000  0 17                     
G20  24453908.925   128506058.358        2974.127          38.000  
G 2  21012428.879   110421011.335       -2085.991          49.000  
G 5  23692444.470   124504672.785        2140.839          48.000  
G 6  24351168.622   127966334.813       -3297.894          38.000  
G12  20666087.689   108601011.448         205.346          51.000  
R12  21512759.770   114917296.920        3612.779          45.000  
G24  22204123.217   116683373.723       -2984.805          45.000  
G25  21628584.463   113658949.452        2141.606          46.000  
G29  21543447.451   113211573.988        1116.851          49.000  
G21  26030068.886   136788940.533        3941.987          36.000  
R23  24524563.186   131190100.736        3242.000          37.000  
R10  21486486.572   114535073.679       -3387.594          39.000  
R22  20509729.137   109482302.529        1193.266          48.000  
R11  19268918.259   102967198.018         191.956          48.000  
R21  20374855.902   109029952.129       -2180.630          48.000  
S20  37897787.678   199154211.385         108.629          41.000  
S38  39593356.198   208064497.120          92.815          42.000  
> 2017 11 15 18 46 48.6000000  0 17                     
G20  24453795.690   128505463.400        2973.662          38.000  
G 2  21012508.365   110421428.495       -2086.201          49.000  
G 5  23692363.065   124504244.627        2140.454          48.000  
G 6  24351294.106   127966994.354       -3297.883          38.000  
G12  20666080.116   108600970.375         205.012          51.000  
R12  21512624.549   114916574.345        3612.550          45.000  
G24  22204237.027   116683970.662       -2984.938          45.000  
G25  21628502.971   113658521.083        2141.523          46.000  
G29  21543404.907   113211350.578        1116.930          49.000  
G21  26029918.761   136788152.026        3941.996          36.000  
R23  24524442.046   131189452.357        3241.704          38.000  
R10  21486613.610   114535751.212       -3387.552          39.000  
R22  20509684.412   109482063.836        1192.974          48.000  
R11  19268911.105   102967159.626         191.666          48.000  
R21  20374937.255   109030388.230       -2180.864          48.000  
S20  37897783.524   199154189.623         108.303          41.000  
S38  39593352.568   208064478.553          92.584          42.000  
> 2017 11 15 18 46 48.8000000  0 17                     
G20  24453682.526   128504868.445        2974.794          38.000  
G 2  21012587.676   110421845.689       -2085.673          47.000  
G 5  23692281.625   124503816.489        2140.894          46.000  
G 6  24351419.783   127967653.952       -3298.060          37.000  
G12  20666072.368   108600929.316         205.457          49.000  
R12  21512489.065   114915851.794        3613.119          45.000  
G24  22204350.646   116684567.636       -2984.663          43.000  
G25  21628421.513   113658092.742        2142.011          45.000  
G29  21543362.276   113211127.211        1117.015          47.000  
G21  26029768.724   136787363.541        3942.732          35.000  
R23  24524320.994   131188804.009        3242.237          38.000  
R10  21486740.665   114536428.800       -3387.366          39.000  
R22  20509639.844   109481825.188        1193.410          48.000  
R11  19268903.758   102967121.289         191.863          48.000  
R21  20375018.678   109030824.362       -2180.441          48.000  
S20  37897779.493   199154167.843         109.254          39.000  
S38  39593349.095   208064459.988          93.096          40.000  
> 2017 11 15 18 46 49.0000000  0 17                     
G20  24453569.396   128504273.499        2974.926          36.000  
G 2  21012667.075   110422262.927       -2086.011          47.000  
G 5  23692199.993   124503388.370        2140.765          46.000  
G 6  24351545.250   127968313.525       -3297.781          37.000  
G12  20666064.393   108600888.276         205.329          49.000  
R12  21512353.756   114915129.284        3612.488          44.000  
G24  22204464.229   116685164.621       -2984.832          43.000  
G25  21628340.125   113657664.407        2141.813          45.000  
G29  21543319.750   113210903.842        1116.857          47.000  
G21  26029618.653   136786575.062        3942.999          35.000  
R23  24524199.855   131188155.659        3241.981          38.000  
R10  21486867.720   114537106.426       -3387.797          39.000  
R22  20509595.276   109481586.552        1193.207          48.000  
R11  19268896.638   102967082.992         191.544          48.000  
R21  20375100.205   109031260.509       -2180.650          48.000  
S20  37897775.428   199154146.080         108.947          39.000  
S38  39593345.535   208064441.454          92.811          40.000  
> 2017 11 15 18 46 49.2000000  0 17                     
G20  24453456.144   128503678.489        2975.082          36.000  
G 2  21012746.491   110422680.123       -2086.051          47.000  
G 5  23692118.396   124502960.202        2140.778          45.000  
G 6  24351670.682   127968973.072       -3298.167          37.000  
G12  20666056.523   108600847.205         205.260          49.000  
R12  21512218.430   114914406.712        3612.578          44.000  
G24  22204577.743   116685761.554       -2984.745          43.000  
G25  21628258.703   113657236.028        2141.717          45.000  
G29  21543277.311   113210680.431        1116.992          47.000  
G21  26029468.633   136785786.529        3943.080          35.000  
R23  24524078.803   131187507.302        3241.708          38.000  
R10  21486994.897   114537784.009       -3388.153          39.000  
R22  20509550.482   109481347.883        1193.303          48.000  
R11  19268889.431   102967044.669         191.361          48.000  
R21  20375181.890   109031696.600       -2180.482          48.000  
S20  37897771.239   199154124.228         109.198          39.000  
S38  39593342.080   208064422.845          92.884          40.000  
> 2017 11 15 18 46 49.4000000  0 17                     
G20  24453342.945   128503083.472        2974.802          36.000  
G 2  21012826.046   110423097.333       -2086.017          47.000  
G 5  23692036.781   124502532.037        2141.034          45.000  
G 6  24351796.097   127969632.575       -3297.455          36.000  
G12  20666048.758   108600806.136         205.395          49.000  
R12  21512083.086   114913684.144        3612.868          44.000  
G24  22204691.431   116686358.495       -2984.514          43.000  
G25  21628177.193   113656807.633        2141.969          45.000  
G29  21543234.768   113210457.020        1117.067          47.000  
G21  26029318.683   136784998.006        3942.535          35.000  
R23  24523957.768   131186858.911        3241.641          38.000  
R10  21487121.987   114538461.590       -3387.964          39.000  
R22  20509505.792   109481109.232        1193.397          48.000  
R11  19268882.102   102967006.366         191.536          48.000  
R21  20375263.365   109032132.706       -2180.494          48.000  
S20  37897767.156   199154102.354         109.393          39.000  
S38  39593338.468   208064404.231          92.779          40.000  
> 2017 11 15 18 46 49.6000000  0 17                     
G20  24453229.570   128502488.481        2975.165          36.000  
G 2  21012905.427   110423514.596       -2086.364          47.000  
G 5  23691955.149   124502103.904        2140.631          45.000  
G 6  24351921.651   127970292.149       -3297.312          36.000  
G12  20666040.993   108600765.119         205.096          49.000  
R12  21511947.882   114912961.631        3612.655          44.000  
G24  22204804.962   116686955.490       -2985.005          43.000  
G25  21628095.752   113656379.305        2141.648          45.000  
G29  21543192.346   113210233.656        1116.814          47.000  
G21  26029168.751   136784209.470        3942.941          35.000  
R23  24523836.873   131186210.564        3241.973          38.000  
R10  21487248.955   114539139.194       -3387.909          39.000  
R22  20509461.171   109480870.637        1192.968          48.000  
R11  19268874.861   102966968.134         191.042          48.000  
R21  20375344.892   109032568.843       -2180.628          48.000  
S20  37897763.038   199154080.525         108.867          39.000  
S38  39593334.978   208064385.625          93.103          40.000  
> 2017 11 15 18 46 49.8000000  0 17                     
G20  24453116.423   128501893.439        2975.197          36.000  
G 2  21012984.773   110423931.837       -2086.213          47.000  
G 5  23691873.534   124501675.749        2140.692          45.000  
G 6  24352047.135   127970951.692       -3297.646          36.000  
G12  20666033.000   108600724.069         205.193          49.000  
R12  21511812.642   114912239.101        3612.682          44.000  
G24  22204918.511   116687552.443       -2984.796          43.000  
G25  21628014.260   113655950.928        2141.820          45.000  
G29  21543149.872   113210010.249        1117.083          47.000  
G21  26029018.766   136783420.920        3943.080          34.000  
R23  24523715.751   131185562.200        3241.828          38.000  
R10  21487376.010   114539816.815       -3387.690          39.000  
R22  20509416.551   109480632.014        1193.059          48.000  
R11  19268867.636   102966929.886         191.282          48.000  
R21  20375426.420   109033004.958       -2180.568          48.000  
S20  37897758.902   199154058.640         109.257          39.000  
S38  39593331.436   208064366.992          93.502          40.000  
> 2017 11 15 18 46 50.0000000  0 17                     
G20  24453003.328   128501298.456        2975.422          36.000  
G 2  21013064.242   110424349.172       -2086.525          47.000  
G 5  23691792.042   124501247.670        2140.613          45.000  
G 6  24352172.742   127971611.328       -3298.374          36.000  
G12  20666025.008   108600683.101         204.969          49.000  
R12  21511677.351   114911516.642        3612.459          44.000  
G24  22205032.147   116688149.481       -2985.067          43.000  
G25  21627932.750   113655522.616        2141.768          45.000  
G29  21543107.346   113209786.937        1116.714          47.000  
G21  26028868.695   136782632.435        3942.679          34.000  
R23  24523594.629   131184913.907        3241.649          38.000  
R10  21487502.943   114540494.536       -3388.678          39.000  
R22  20509372.036   109480393.480        1192.848          48.000  
R11  19268860.551   102966891.755         190.724          48.000  
R21  20375507.982   109033441.152       -2180.864          48.000  
S20  37897754.662   199154036.826         109.215          39.000  
S38  39593328.015   208064348.446          93.044          40.000  
> 2017 11 15 18 46 50.2000000  0 17                     
G20  24452890.007   128500703.464        2975.070          36.000  
G 2  21013143.693   110424766.518       -2086.995          47.000  
G 5  23691710.601   124500819.596        2140.125          46.000  
G 6  24352298.192   127972270.887       -3297.929          36.000  
G12  20666017.208   108600642.133         204.599          49.000  
R12  21511542.129   114910794.201        3611.902          44.000  
G24  22205145.730   116688746.524       -2985.568          43.000  
G25  21627851.362   113655094.299        2141.423          45.000  
G29  21543064.768   113209563.613        1116.356          47.000  
G21  26028718.727   136781843.972        3942.441          34.000  
R23  24523473.489   131184265.625        3241.111          38.000  
R10  21487630.120   114541172.240       -3388.827          39.000  
R22  20509327.538   109480154.971        1192.257          48.000  
R11  19268853.397   102966853.636         190.185          48.000  
R21  20375589.509   109033877.338       -2181.233          48.000  
S20  37897750.456   199154015.002         108.732          39.000  
S38  39593324.543   208064329.863          92.531          40.000  
> 2017 11 15 18 46 50.4000000  0 17                     
G20  24452776.772   128500108.494        2974.642          36.000  
G 2  21013223.039   110425183.888       -2086.929          47.000  
G 5  23691629.179   124500391.519        2140.222          46.000  
G 6  24352423.589   127972930.530       -3298.199          36.000  
G12  20666009.547   108600601.194         204.631          49.000  
R12  21511406.750   114910071.781        3611.829          44.000  
G24  22205259.331   116689343.585       -2985.456          43.000  
G25  21627769.835   113654666.014        2141.488          45.000  
G29  21543022.259   113209340.306        1116.449          47.000  
G21  26028568.760   136781055.480        3942.066          34.000  
R23  24523352.367   131183617.342        3241.751          38.000  
R10  21487757.158   114541849.986       -3388.950          39.000  
R22  20509283.109   109479916.481        1192.221          48.000  
R11  19268846.277   102966815.560         190.247          48.000  
R21  20375670.932   109034313.543       -2181.139          48.000  
S20  37897746.321   199153993.178         109.129          39.000  
S38  39593321.018   208064311.275          92.990          40.000  
> 2017 11 15 18 46 50.6000000  0 17                     
G20  24452663.520   128499513.574        2974.424          36.000  
G 2  21013302.455   110425601.360       -2087.341          47.000  
G 5  23691547.774   124499963.523        2140.021          46.000  
G 6  24352549.126   127973590.226       -3298.499          36.000  
G12  20666001.730   108600560.333         204.438          49.000  
R12  21511271.616   114909349.437        3611.604          44.000  
G24  22205372.897   116689940.724       -2985.642          43.000  
G25  21627688.429   113654237.813        2141.234          45.000  
G29  21542979.890   113209117.082        1116.088          47.000  
G21  26028418.723   136780267.052        3942.346          34.000  
R23  24523231.298   131182969.187        3240.875          38.000  
R10  21487884.474   114542527.809       -3389.305          39.000  
R22  20509238.629   109479678.074        1192.121          48.000  
R11  19268839.070   102966777.593         189.908          48.000  
R21  20375752.372   109034749.828       -2181.285          48.000  
S20  37897742.132   199153971.451         108.902          39.000  
S38  39593317.493   208064292.776          92.748          40.000  
> 2017 11 15 18 46 50.8000000  0 17                     
G20  24452550.391   128498918.599        2975.166          36.000  
G 2  21013381.871   110426018.816       -2087.228          47.000  
G 5  23691466.438   124499535.507        2140.308          46.000  
G 6  24352674.698   127974249.900       -3297.976          36.000  
G12  20665993.895   108600519.466         204.432          49.000  
R12  21511136.394   114908627.092        3611.781          45.000  
G24  22205486.603   116690537.856       -2985.567          43.000  
G25  21627606.989   113653809.582        2141.265          45.000  
G29  21542937.381   113208893.839        1116.205          47.000  
G21  26028268.773   136779478.610        3942.117          34.000  
R23  24523110.298   131182320.954        3241.002          38.000  
R10  21488011.634   114543205.644       -3389.289          39.000  
R22  20509194.148   109479439.669        1192.257          48.000  
R11  19268831.950   102966739.626         190.009          48.000  
R21  20375833.830   109035186.101       -2181.110          48.000  
S20  37897738.049   199153949.702         108.697          39.000  
S38  39593313.985   208064274.231          92.771          40.000  
> 2017 11 15 18 46 51.0000000  0 17                     
G20  24452437.243   128498323.634        2974.730          36.000  
G 2  21013461.478   110426436.288       -2087.698          47.000  
G 5  23691384.980   124499107.507        2139.825          45.000  
G 6  24352800.339   127974909.572       -3298.508          36.000  
G12  20665986.042   108600478.591         204.210          49.000  
R12  21511001.260   114907904.748        3611.368          45.000  
G24  22205600.221   116691134.975       -2985.794          43.000  
G25  21627525.549   113653381.342        2140.893          45.000  
G29  21542894.925   113208670.587        1116.002          47.000  
G21  26028118.702   136778690.134        3942.285          34.000  
R23  24522989.071   131181672.755        3240.632          38.000  
R10  21488138.759   114543883.432       -3389.167          39.000  
R22  20509149.598   109479201.279        1191.734          48.000  
R11  19268824.866   102966701.691         189.487          48.000  
R21  20375915.445   109035622.374       -2181.534          48.000  
S20  37897733.913   199153927.908         108.922          39.000  
S38  39593310.478   208064255.673          92.758          40.000  
> 2017 11 15 18 46 51.2000000  0 17                     
G20  24452324.061   128497728.656        2975.007          36.000  
G 2  21013540.929   110426853.768       -2087.516          47.000  
G 5  23691303.575   124498679.507        2139.850          45.000  
G 6  24352925.893   127975569.238       -3298.556          36.000  
G12  20665978.189   108600437.739         204.148          49.000  
R12  21510866.055   114907182.409        3611.625          45.000  
G24  22205713.857   116691732.114       -2985.714          43.000  
G25  21627444.004   113652953.118        2141.081          45.000  
G29  21542852.416   113208447.345        1116.036          47.000  
G21  26027968.717   136777901.670        3942.231          34.000  
R23  24522867.897   131181024.560        3240.492          37.000  
R10  21488265.831   114544561.294       -3389.485          39.000  
R22  20509104.995   109478962.895        1191.628          48.000  
R11  19268817.990   102966663.785         189.246          48.000  
R21  20375997.077   109036058.661       -2181.572          48.000  
S20  37897729.760   199153906.174         108.489          39.000  
S38  39593306.918   208064237.128          92.780          40.000  
> 2017 11 15 18 46 51.4000000  0 17                     
G20  24452210.844   128497133.729        2974.563          36.000  
G 2  21013620.485   110427271.333       -2087.785          47.000  
G 5  23691222.240   124498251.550        2139.795          46.000  
G 6  24353051.500   127976228.988       -3298.911          36.000  
G12  20665970.564   108600396.944         203.948          49.000  
R12  21510730.816   114906460.139        3611.404          45.000  
G24  22205827.440   116692329.315       -2986.061          43.000  
G25  21627362.424   113652524.945        2140.973          45.000  
G29  21542809.890   113208224.165        1115.868          47.000  
G21  26027818.837   136777113.244        3942.072          34.000  
R23  24522746.688   131180376.411        3240.188          37.000  
R10  21488393.026   114545239.197       -3389.635          39.000  
R22  20509060.427   109478724.591        1191.478          48.000  
R11  19268810.871   102966625.957         189.069          48.000  
R21  20376078.482   109036494.998       -2181.704          48.000  
S20  37897725.694   199153884.470         108.311          39.000  
S38  39593303.428   208064218.624          92.536          40.000  
> 2017 11 15 18 46 51.6000000  0 17                     
G20  24452097.680   128496538.770        2974.796          36.000  
G 2  21013700.040   110427688.922       -2087.875          47.000  
G 5  23691140.800   124497823.625        2139.630          46.000  
G 6  24353177.072   127976888.723       -3298.821          36.000  
G12  20665962.816   108600356.175         203.875          49.000  
R12  21510595.682   114905737.894        3611.256          44.000  
G24  22205941.111   116692926.534       -2986.113          43.000  
G25  21627281.002   113652096.791        2140.924          45.000  
G29  21542767.503   113208000.999        1115.817          47.000  
G21  26027668.835   136776324.861        3942.071          34.000  
R23  24522625.566   131179728.296        3240.244          37.000  
R10  21488520.308   114545917.136       -3389.524          39.000  
R22  20509015.981   109478486.311        1191.338          48.000  
R11  19268803.768   102966588.177         188.844          48.000  
R21  20376160.097   109036931.363       -2181.825          48.000  
S20  37897721.524   199153862.758         108.669          39.000  
S38  39593300.025   208064200.140          92.557          40.000  
> 2017 11 15 18 46 51.8000000  0 17                     
G20  24451984.532   128495943.853        2974.812          36.000  
G 2  21013779.369   110428106.538       -2088.031          47.000  
G 5  23691059.394   124497395.710        2139.667          46.000  
G 6  24353302.434   127977548.455       -3298.549          36.000  
G12  20665955.068   108600315.417         203.857          49.000  
R12  21510460.512   114905015.660        3611.140          44.000  
G24  22206054.817   116693523.758       -2986.119          43.000  
G25  21627199.474   113651668.631        2140.834          45.000  
G29  21542724.977   113207777.843        1115.715          47.000  
G21  26027518.868   136775536.435        3942.537          34.000  
R23  24522504.322   131179080.166        3240.487          37.000  
R10  21488647.468   114546595.111       -3389.749          39.000  
R22  20508971.606   109478248.055        1191.221          49.000  
R11  19268796.527   102966550.420         188.706          48.000  
R21  20376241.799   109037367.735       -2181.812          48.000  
S20  37897717.440   199153841.096         108.472          39.000  
S38  39593296.500   208064181.650          92.427          40.000  
> 2017 11 15 18 46 52.0000000  0 17                     
G20  24451871.333   128495348.932        2974.192          36.000  
G 2  21013858.820   110428524.204       -2088.478          47.000  
G 5  23690977.989   124496967.824        2139.417          46.000  
G 6  24353427.831   127978208.241       -3298.884          36.000  
G12  20665947.285   108600274.698         203.472          49.000  
R12  21510325.465   114904293.471        3610.710          45.000  
G24  22206168.575   116694121.023       -2986.309          43.000  
G25  21627118.017   113651240.512        2140.630          45.000  
G29  21542682.346   113207554.718        1115.553          47.000  
G21  26027368.796   136774748.047        3941.667          34.000  
R23  24522383.147   131178432.083        3240.395          37.000  
R10  21488774.697   114547273.106       -3389.856          39.000  
R22  20508927.265   109478009.839        1190.910          49.000  
R11  19268789.442   102966512.726         188.296          48.000  
R21  20376323.396   109037804.147       -2182.224          48.000  
S20  37897713.287   199153819.472         108.057          39.000  
S38  39593292.923   208064163.185          92.218          40.000  
> 2017 11 15 18 46 52.2000000  0 17                     
G20  24451758.151   128494753.978        2974.525          36.000  
G 2  21013938.306   110428941.848       -2088.494          47.000  
G 5  23690896.514   124496539.910        2139.496          46.000  
G 6  24353553.438   127978867.988       -3298.519          36.000  
G12  20665939.624   108600233.962         203.489          49.000  
R12  21510190.278   114903571.278        3610.840          45.000  
G24  22206282.245   116694718.274       -2986.398          43.000  
G25  21627036.577   113650812.377        2140.405          45.000  
G29  21542639.855   113207331.576        1115.558          47.000  
G21  26027218.742   136773959.633        3941.733          34.000  
R23  24522261.938   131177783.984        3240.561          37.000  
R10  21488901.944   114547951.123       -3390.263          39.000  
R22  20508882.679   109477771.621        1190.922          49.000  
R11  19268782.392   102966475.038         188.203          48.000  
R21  20376405.010   109038240.536       -2182.191          48.000  
S20  37897709.082   199153797.826         108.031          39.000  
S38  39593289.398   208064144.672          92.631          40.000  
> 2017 11 15 18 46 52.4000000  0 17                     
G20  24451644.951   128494159.055        2974.869          36.000  
G 2  21014017.879   110429359.579       -2088.635          47.000  
G 5  23690815.109   124496112.061        2139.471          46.000  
G 6  24353678.975   127979527.829       -3299.215          36.000  
G12  20665932.051   108600193.295         203.450          49.000  
R12  21510055.283   114902849.147        3610.773          45.000  
G24  22206395.864   116695315.589       -2986.247          43.000  
G25  21626955.224   113650384.297        2140.627          45.000  
G29  21542597.329   113207108.491        1115.588          47.000  
G21  26027068.722   136773171.247        3942.084          34.000  
R23  24522140.572   131177135.946        3240.464          37.000  
R10  21489029.226   114548629.176       -3390.232          39.000  
R22  20508838.024   109477533.477        1190.840          48.000  
R11  19268775.290   102966437.427         188.228          48.000  
R21  20376486.468   109038676.994       -2182.112          48.000  
S20  37897704.998   199153776.248         107.998          39.000  
S38  39593285.856   208064126.234          92.188          40.000  
> 2017 11 15 18 46 52.6000000  0 17                     
G20  24451531.786   128493564.158        2974.652          37.000  
G 2  21014097.452   110429777.328       -2088.868          48.000  
G 5  23690733.791   124495684.234        2139.160          46.000  
G 6  24353804.529   127980187.661       -3299.512          37.000  
G12  20665924.338   108600152.645         203.099          50.000  
R12  21509920.254   114902127.038        3610.537          45.000  
G24  22206509.360   116695912.933       -2986.685          43.000  
G25  21626873.784   113649956.234        2140.326          46.000  
G29  21542554.872   113206885.436        1115.255          48.000  
G21  26026918.633   136772382.895        3941.578          34.000  
R23  24522019.258   131176487.951        3240.072          37.000  
R10  21489156.299   114549307.254       -3390.259          39.000  
R22  20508793.456   109477295.356        1190.508          48.000  
R11  19268768.083   102966399.873         187.614          48.000  
R21  20376568.013   109039113.475       -2182.535          48.000  
S20  37897700.880   199153754.646         107.856          40.000  
S38  39593282.226   208064107.771          92.016          40.000  
> 2017 11 15 18 46 52.8000000  0 17                     
G20  24451418.622   128492969.291        2974.060          37.000  
G 2  21014176.833   110430195.137       -2089.410          48.000  
G 5  23690652.438   124495256.449        2138.623          46.000  
G 6  24353929.996   127980847.511       -3299.435          37.000  
G12  20665916.642   108600112.044         202.781          50.000  
R12  21509785.276   114901404.982        3609.815          45.000  
G24  22206622.961   116696510.326       -2987.283          43.000  
G25  21626792.396   113649528.207        2139.845          46.000  
G29  21542512.294   113206662.418        1114.888          48.000  
G21  26026768.596   136771594.596        3940.672          34.000  
R23  24521898.258   131175839.983        3239.623          37.000  
R10  21489283.476   114549985.431       -3391.227          39.000  
R22  20508749.063   109477057.292        1190.073          48.000  
R11  19268761.033   102966362.371         187.114          48.000  
R21  20376649.645   109039549.995       -2182.848          48.000  
S20  37897697.006   199153733.104         107.616          40.000  
S38  39593278.666   208064089.336          92.027          40.000  
> 2017 11 15 18 46 53.0000000  0 17                     
G20  24451305.352   128492374.367        2974.700          37.000  
G 2  21014256.353   110430612.927       -2089.047          48.000  
G 5  23690570.858   124494828.631        2138.885          46.000  
G 6  24354055.498   127981507.364       -3299.053          37.000  
G12  20665908.964   108600071.426         202.989          50.000  
R12  21509650.177   114900682.885        3610.420          45.000  
G24  22206736.597   116697107.673       -2986.990          43.000  
G25  21626710.938   113649100.166        2139.836          46.000  
G29  21542469.855   113206439.371        1115.172          48.000  
G21  26026618.541   136770806.220        3941.666          34.000  
R23  24521777.223   131175191.984        3239.660          37.000  
R10  21489410.618   114550663.542       -3390.664          39.000  
R22  20508704.704   109476819.215        1190.213          48.000  
R11  19268754.035   102966324.877         187.270          48.000  
R21  20376731.242   109039986.494       -2182.629          48.000  
S20  37897692.818   199153711.524         107.738          40.000  
S38  39593275.071   208064070.905          92.138          40.000  
> 2017 11 15 18 46 53.2000000  0 17                     
G20  24451192.101   128491779.463        2974.586          37.000  
G 2  21014335.926   110431030.762       -2089.200          48.000  
G 5  23690489.470   124494400.836        2138.757          46.000  
G 6  24354181.140   127982167.230       -3299.377          37.000  
G12  20665901.251   108600030.834         202.885          50.000  
R12  21509515.077   114899960.848        3610.108          45.000  
G24  22206850.285   116697705.076       -2987.143          43.000  
G25  21626629.446   113648672.140        2139.865          46.000  
G29  21542427.556   113206216.350        1115.121          48.000  
G21  26026468.557   136770017.879        3941.492          34.000  
R23  24521656.067   131174544.005        3239.833          37.000  
R10  21489537.848   114551341.725       -3390.958          39.000  
R22  20508660.102   109476581.164        1190.103          48.000  
R11  19268746.916   102966287.427         187.155          48.000  
R21  20376812.927   109040423.026       -2182.706          48.000  
S20  37897688.700   199153689.948         107.957          40.000  
S38  39593271.424   208064052.479          91.915          40.000  
> 2017 11 15 18 46 53.4000000  0 17                     
G20  24451078.884   128491184.609        2974.314          37.000  
G 2  21014415.395   110431448.660       -2089.541          48.000  
G 5  23690408.152   124493973.087        2138.721          46.000  
G 6  24354306.782   127982827.135       -3299.563          37.000  
G12  20665893.695   108599990.297         202.691          50.000  
R12  21509380.082   114899238.852        3609.928          45.000  
G24  22206964.025   116698302.507       -2987.262          44.000  
G25  21626548.040   113648244.149        2139.909          46.000  
G29  21542385.029   113205993.372        1114.874          48.000  
G21  26026318.502   136769229.534        3941.848          34.000  
R23  24521534.805   131173896.083        3239.418          37.000  
R10  21489665.095   114552019.933       -3391.080          39.000  
R22  20508615.639   109476343.178        1189.947          48.000  
R11  19268739.813   102966250.048         186.823          48.000  
R21  20376894.367   109040859.597       -2182.875          48.000  
S20  37897684.669   199153668.419         107.662          40.000  
S38  39593267.899   208064034.080          92.152          40.000  
> 2017 11 15 18 46 53.6000000  0 17                     
G20  24450965.789   128490589.748        2974.073          37.000  
G 2  21014494.968   110431866.581       -2089.683          48.000  
G 5  23690326.782   124493545.369        2138.605          46.000  
G 6  24354432.510   127983487.085       -3300.060          37.000  
G12  20665886.070   108599949.789         202.434          50.000  
R12  21509245.105   114898516.907        3609.511          45.000  
G24  22207077.731   116698899.979       -2987.644          44.000  
G25  21626466.478   113647816.180        2139.906          46.000  
G29  21542342.678   113205770.425        1114.651          48.000  
G21  26026168.483   136768441.265        3941.805          34.000  
R23  24521413.666   131173248.181        3239.737          37.000  
R10  21489792.202   114552698.192       -3391.333          39.000  
R22  20508571.071   109476105.234        1189.758          48.000  
R11  19268732.816   102966212.722         186.477          48.000  
R21  20376976.017   109041296.204       -2183.045          48.000  
S20  37897680.586   199153646.926         107.196          40.000  
S38  39593264.462   208064015.714          91.750          40.000  
> 2017 11 15 18 46 53.8000000  0 17                     
G20  24450852.711   128489994.960        2973.738          37.000  
G 2  21014574.453   110432284.495       -2089.507          48.000  
G 5  23690245.411   124493117.693        2138.251          46.000  
G 6  24354558.012   127984146.945       -3299.741          37.000  
G12  20665878.287   108599909.260         202.636          50.000  
R12  21509109.988   114897794.873        3610.247          45.000  
G24  22207191.419   116699497.503       -2987.883          44.000  
G25  21626385.003   113647388.178        2140.034          46.000  
G29  21542300.309   113205547.455        1114.840          48.000  
G21  26026018.638   136767653.017        3941.191          35.000  
R23  24521292.613   131172600.362        3239.188          37.000  
R10  21489919.432   114553376.526       -3392.034          39.000  
R22  20508526.451   109475867.306        1189.512          48.000  
R11  19268725.818   102966175.408         186.395          48.000  
R21  20377057.526   109041732.754       -2182.646          48.000  
S20  37897676.520   199153625.429         107.190          40.000  
S38  39593260.884   208063997.362          91.679          40.000  
> 2017 11 15 18 46 54.0000000  0 17                     
G20  24450739.581   128489400.252        2973.352          39.000  
G 2  21014654.044   110432702.461       -2089.685          50.000  
G 5  23690163.971   124492690.087        2137.885          48.000  
G 6  24354683.549   127984806.785       -3299.198          39.000  
G12  20665870.661   108599868.789         202.375          52.000  
R12  21508974.748   114897072.885        3610.207          45.000  
G24  22207305.072   116700095.144       -2988.356          45.000  
G25  21626303.755   113646960.209        2139.920          48.000  
G29  21542257.905   113205324.545        1114.731          50.000  
G21  26025868.705   136766864.822        3941.551          37.000  
R23  24521171.701   131171952.621        3238.604          38.000  
R10  21490046.731   114554054.933       -3392.018          39.000  
R22  20508481.970   109475629.439        1189.219          48.000  
R11  19268718.699   102966138.184         186.037          48.000  
R21  20377139.002   109042169.328       -2182.606          48.000  
S20  37897672.471   199153604.001         107.469          41.000  
S38  39593257.604   208063979.090          91.492          41.000  
> 2017 11 15 18 46 54.2000000  0 17                     
G20  24450626.242   128488805.577        2973.341          39.000  
G 2  21014733.442   110433120.390       -2089.706          49.000  
G 5  23690082.566   124492262.500        2137.836          48.000  
G 6  24354808.999   127985466.616       -3299.176          39.000  
G12  20665862.948   108599828.302         202.231          52.000  
R12  21508839.562   114896350.854        3610.139          45.000  
G24  22207418.918   116700692.839       -2988.512          45.000  
G25  21626222.437   113646532.189        2139.923          47.000  
G29  21542215.605   113205101.609        1114.546          50.000  
G21  26025718.668   136766076.723        3940.111          37.000  
R23  24521050.719   131171304.864        3238.540          38.000  
R10  21490174.013   114554733.390       -3392.545          39.000  
R22  20508437.524   109475391.590        1189.128          49.000  
R11  19268711.841   102966100.963         185.829          48.000  
R21  20377220.669   109042605.858       -2182.718          48.000  
S20  37897668.301   199153582.593         107.195          41.000  
S38  39593254.201   208063960.826          91.260          42.000  
> 2017 11 15 18 46 54.4000000  0 17                     
G20  24450513.235   128488210.937        2973.445          39.000  
G 2  21014812.841   110433538.317       -2089.746          49.000  
G 5  23690001.440   124491834.933        2137.695          48.000  
G 6  24354934.832   127986126.427       -3299.346          40.000  
G12  20665855.061   108599787.816         202.312          51.000  
R12  21508704.462   114895628.806        3610.340          45.000  
G24  22207532.693   116701290.569       -2988.844          46.000  
G25  21626141.014   113646104.150        2140.154          47.000  
G29  21542173.411   113204878.667        1114.806          51.000  
G21  26025568.631   136765288.661        3939.622          37.000  
R23  24520929.440   131170657.152        3238.490          35.000  
R10  21490301.190   114555411.955       -3392.744          39.000  
R22  20508392.887   109475153.737        1189.238          49.000  
R11  19268704.930   102966063.791         185.844          48.000  
R21  20377302.196   109043042.379       -2182.494          48.000  
S20  37897664.113   199153561.186         106.836          41.000  
S38  39593250.885   208063942.538          91.419          42.000  
> 2017 11 15 18 46 54.6000000  0 17                     
G20  24450400.122   128487616.423        2972.993          39.000  
G 2  21014892.239   110433956.231       -2089.591          49.000  
G 5  23689920.035   124491407.421        2137.640          47.000  
G 6  24355060.334   127986786.146       -3298.341          40.000  
G12  20665846.981   108599747.336         202.397          51.000  
R12  21508569.380   114894906.711        3610.281          45.000  
G24  22207646.364   116701888.376       -2989.488          46.000  
G25  21626059.609   113645676.066        2140.362          47.000  
G29  21542131.251   113204655.718        1114.828          51.000  
G21  26025418.525   136764500.595        3939.945          37.000  
R23  24520808.056   131170009.533        3238.892          35.000  
R10  21490428.472   114556090.550       -3393.094          39.000  
R22  20508348.423   109474915.920        1189.117          48.000  
R11  19268698.055   102966026.648         185.963          47.000  
R21  20377383.636   109043478.833       -2182.252          48.000  
S20  37897659.994   199153539.773         107.048          40.000  
S38  39593247.291   208063924.262          91.380          40.000  
> 2017 11 15 18 46 54.8000000  0 17                     
G20  24450286.975   128487021.894        2971.786          39.000  
G 2  21014971.620   110434374.111       -2089.443          49.000  
G 5  23689838.594   124490979.900        2137.921          47.000  
G 6  24355185.749   127987445.816       -3298.526          40.000  
G12  20665839.076   108599706.811         202.666          52.000  
R12  21508434.001   114894184.560        3611.045          45.000  
G24  22207760.069   116702486.192       -2988.960          46.000  
G25  21625978.029   113645247.956        2140.733          47.000  
G29  21542088.707   113204432.715        1114.961          50.000  
G21  26025268.558   136763712.639        3940.005          37.000  
R23  24520686.864   131169361.908        3237.587          35.000  
R10  21490555.911   114556769.175       -3393.242          39.000  
R22  20508303.908   109474678.113        1188.901          48.000  
R11  19268691.180   102965989.484         185.715          48.000  
R21  20377465.233   109043915.266       -2181.949          48.000  
S20  37897655.876   199153518.350         107.087          40.000  
S38  39593243.504   208063905.992          91.589          42.000  
> 2017 11 15 18 46 55.0000000  0 17                     
G20  24450173.723   128486427.374        2972.655          39.000  
G 2  21015051.001   110434792.004       -2088.911          49.000  
G 5  23689757.434   124490552.451        2137.299          47.000  
G 6  24355311.251   127988105.460       -3297.514          42.000  
G12  20665831.346   108599666.281         202.889          52.000  
R12  21508298.902   114893462.404        3611.048          45.000  
G24  22207873.932   116703084.121       -2989.780          46.000  
G25  21625896.502   113644819.808        2141.189          47.000  
G29  21542045.972   113204209.752        1115.182          49.000  
G21  26025118.555   136762924.692        3938.230          36.000  
R23  24520565.655   131168714.273        3239.134          38.000  
R10  21490683.297   114557447.927       -3393.719          40.000  
R22  20508259.200   109474440.306        1189.272          48.000  
R11  19268684.060   102965952.399         185.396          48.000  
R21  20377546.708   109044351.650       -2181.875          48.000  
S20  37897651.758   199153496.924         106.834          40.000  
S38  39593240.154   208063887.798          91.250          44.000  
> 2017 11 15 18 46 55.2000000  0 17                     
G20  24450060.611   128485832.896        2972.990          40.000  
G 2  21015130.539   110435209.910       -2089.922          50.000  
G 5  23689676.098   124490124.984        2137.134          48.000  
G 6  24355436.735   127988765.036       -3298.286          40.000  
G12  20665823.511   108599625.761         202.477          51.000  
R12  21508163.715   114892740.184        3610.808          45.000  
G24  22207987.812   116703682.024       -2990.117          46.000  
G25  21625815.358   113644391.618        2140.935          47.000  
G29  21542003.637   113203986.730        1115.056          50.000  
G21  26024968.676   136762136.643        3940.330          36.000  
R23  24520444.655   131168066.796        3237.382          38.000  
R10  21490810.440   114558126.667       -3394.297          41.000  
R22  20508214.598   109474202.527        1188.775          48.000  
R11  19268677.080   102965915.285         185.610          48.000  
R21  20377628.341   109044787.994       -2181.584          48.000  
S20  37897647.692   199153475.548         107.459          41.000  
S38  39593236.873   208063869.591          91.095          44.000  
> 2017 11 15 18 46 55.4000000  0 17                     
G20  24449947.464   128485238.547        2971.989          40.000  
G 2  21015209.886   110435627.751       -2089.249          50.000  
G 5  23689595.042   124489697.631        2136.292          48.000  
G 6  24355562.290   127989424.587       -3298.159          41.000  
G12  20665815.920   108599585.255         202.391          51.000  
R12  21508028.563   114892017.960        3611.227          45.000  
G24  22208101.640   116704280.043       -2990.292          46.000  
G25  21625733.796   113643963.421        2141.035          47.000  
G29  21541961.094   113203763.735        1114.532          50.000  
G21  26024818.831   136761348.786        3940.531          36.000  
R23  24520323.725   131167419.304        3236.913          38.000  
R10  21490937.844   114558805.513       -3394.883          41.000  
R22  20508170.100   109473964.762        1188.497          48.000  
R11  19268670.100   102965878.258         184.435          47.000  
R21  20377709.990   109045224.336       -2181.739          48.000  
S20  37897643.661   199153454.259         105.694          42.000  
S38  39593233.435   208063851.318          91.182          41.000  
> 2017 11 15 18 46 55.6000000  0 17                     
G20  24449834.351   128484644.207        2971.647          40.000  
G 2  21015289.616   110436045.645       -2089.217          50.000  
G 5  23689513.898   124489270.277        2136.481          49.000  
G 6  24355687.862   127990084.093       -3297.726          41.000  
G12  20665808.102   108599544.746         202.378          51.000  
R12  21507893.324   114891295.729        3611.454          45.000  
G24  22208215.468   116704878.131       -2990.351          46.000  
G25  21625652.198   113643535.240        2141.277          46.000  
G29  21541918.358   113203540.775        1114.807          49.000  
G21  26024668.776   136760561.031        3939.600          37.000  
R23  24520202.690   131166771.887        3237.212          38.000  
R10  21491065.265   114559484.410       -3395.572          39.000  
R22  20508125.549   109473727.065        1188.470          48.000  
R11  19268663.207   102965841.249         185.297          49.000  
R21  20377791.675   109045660.658       -2181.368          48.000  
S20  37897639.368   199153432.902         106.337          42.000  
S38  39593230.085   208063833.108          90.862          43.000  
> 2017 11 15 18 46 55.8000000  0 17                     
G20  24449721.239   128484049.822        2971.992          40.000  
G 2  21015368.979   110436463.596       -2089.578          49.000  
G 5  23689432.650   124488842.902        2137.445          48.000  
G 6  24355813.329   127990743.603       -3297.118          41.000  
G12  20665800.058   108599504.253         202.762          51.000  
R12  21507758.241   114890573.530        3611.090          46.000  
G24  22208329.261   116705476.185       -2990.281          46.000  
G25  21625570.636   113643107.054        2140.643          48.000  
G29  21541876.164   113203317.753        1115.608          50.000  
G21  26024518.879   136759773.160        3940.902          37.000  
R23  24520081.673   131166124.433        3236.879          38.000  
R10  21491192.757   114560163.247       -3393.955          39.000  
R22  20508081.034   109473489.308        1188.892          48.000  
R11  19268656.244   102965804.286         184.706          47.000  
R21  20377873.237   109046097.000       -2181.440          48.000  
S20  37897635.110   199153411.547         107.622          41.000  
S38  39593226.630   208063814.899          91.686          42.000  
> 2017 11 15 18 46 56.0000000  0 17                     
G20  24449608.144   128483455.399        2971.569          39.000  
G 2  21015448.552   110436881.519       -2090.116          49.000  
G 5  23689351.227   124488415.493        2137.158          48.000  
G 6  24355938.865   127991403.217       -3297.932          40.000  
G12  20665792.362   108599463.752         202.459          51.000  
R12  21507623.002   114889851.326        3610.260          45.000  
G24  22208442.984   116706074.225       -2990.927          45.000  
G25  21625489.144   113642678.830        2140.369          48.000  
G29  21541833.794   113203094.791        1113.981          50.000  
G21  26024368.981   136758985.299        3939.235          36.000  
R23  24519960.778   131165476.942        3236.400          38.000  
R10  21491320.126   114560842.127       -3394.431          39.000  
R22  20508036.291   109473251.609        1188.037          47.000  
R11  19268649.142   102965767.297         184.627          48.000  
R21  20377954.939   109046533.360       -2182.467          48.000  
S20  37897631.062   199153390.221         107.244          41.000  
S38  39593222.878   208063796.623          90.713          42.000  
> 2017 11 15 18 46 56.2000000  0 17                     
G20  24449494.945   128482861.116        2970.531          35.000  
G 2  21015528.230   110437299.456       -2089.884          50.000  
G 5  23689269.840   124487988.188        2136.835          47.000  
G 6  24356064.367   127992062.798       -3298.379          38.000  
G12  20665784.841   108599423.308         202.073          51.000  
R12  21507487.623   114889129.109        3611.324          44.000  
G24  22208556.742   116706672.319       -2990.626          45.000  
G25  21625407.895   113642250.629        2141.150          47.000  
G29  21541791.129   113202871.816        1115.220          49.000  
G21  26024219.119   136758197.440        3940.565          36.000  
R23  24519840.005   131164829.487        3237.565          39.000  
R10  21491447.425   114561521.057       -3394.198          39.000  
R22  20507991.706   109473013.945        1188.230          48.000  
R11  19268642.092   102965730.421         184.333          48.000  
R21  20378036.501   109046969.712       -2181.808          48.000  
S20  37897626.856   199153368.920         106.597          39.000  
S38  39593219.370   208063778.476          91.012          43.000  
> 2017 11 15 18 46 56.4000000  0 17                     
G20  24449381.640   128482266.686        2971.483          38.000  
G 2  21015607.681   110437717.376       -2089.298          49.000  
G 5  23689188.888   124487560.819        2136.725          49.000  
G 6  24356189.887   127992722.350       -3298.267          38.000  
G12  20665776.988   108599382.801         202.815          50.000  
R12  21507352.506   114888406.924        3611.382          45.000  
G24  22208670.552   116707270.373       -2990.395          45.000  
G25  21625326.385   113641822.412        2141.765          47.000  
G29  21541748.742   113202648.846        1115.338          49.000  
G21  26024069.152   136757409.586        3940.841          36.000  
R23  24519719.075   131164182.038        3238.041          39.000  
R10  21491574.742   114562199.941       -3394.130          39.000  
R22  20507947.278   109472776.247        1189.024          48.000  
R11  19268635.304   102965693.480         184.908          48.000  
R21  20378118.151   109047406.050       -2181.559          48.000  
S20  37897622.564   199153347.488         106.849          39.000  
S38  39593216.055   208063760.178          91.702          43.000  
> 2017 11 15 18 46 56.6000000  0 17                     
G20  24449268.354   128481672.299        2971.865          39.000  
G 2  21015687.166   110438135.459       -2090.181          49.000  
G 5  23689107.518   124487133.539        2136.530          49.000  
G 6  24356315.371   127993382.012       -3298.214          36.000  
G12  20665769.171   108599342.413         202.133          51.000  
R12  21507217.512   114887684.844        3610.727          45.000  
G24  22208784.327   116707868.496       -2990.744          45.000  
G25  21625244.893   113641394.329        2140.980          46.000  
G29  21541706.338   113202425.934        1114.178          49.000  
G21  26023919.167   136756621.827        3939.452          35.000  
R23  24519598.232   131163534.675        3236.864          39.000  
R10  21491702.041   114562878.920       -3394.140          39.000  
R22  20507902.727   109472538.659        1187.717          48.000  
R11  19268628.411   102965656.699         184.021          48.000  
R21  20378199.661   109047842.483       -2182.266          48.000  
S20  37897618.498   199153326.143         107.174          41.000  
S38  39593212.722   208063742.042          90.599          43.000  
> 2017 11 15 18 46 56.8000000  0 17                     
G20  24449155.241   128481077.934        2971.166          39.000  
G 2  21015766.844   110438553.452       -2089.881          50.000  
G 5  23689026.147   124486706.198        2136.212          48.000  
G 6  24356440.856   127994041.619       -3297.748          36.000  
G12  20665761.510   108599301.982         201.895          51.000  
R12  21507082.342   114886962.715        3610.968          45.000  
G24  22208898.138   116708466.627       -2991.605          45.000  
G25  21625163.418   113640966.194        2140.353          48.000  
G29  21541663.864   113202202.994        1115.042          49.000  
G21  26023769.165   136755833.963        3939.279          35.000  
R23  24519477.250   131162887.281        3237.576          39.000  
R10  21491829.358   114563557.914       -3394.713          40.000  
R22  20507858.055   109472301.061        1188.191          48.000  
R11  19268621.588   102965619.870         184.041          48.000  
R21  20378281.240   109048278.882       -2182.109          48.000  
S20  37897614.345   199153304.807         106.861          41.000  
S38  39593209.406   208063723.886          90.740          44.000  
> 2017 11 15 18 46 57.0000000  0 17                     
G20  24449042.042   128480483.596        2971.617          40.000  
G 2  21015846.400   110438971.472       -2090.256          50.000  
G 5  23688945.126   124486278.923        2136.743          48.000  
G 6  24356566.236   127994701.201       -3297.798          39.000  
G12  20665753.675   108599261.563         202.006          51.000  
R12  21506947.295   114886240.571        3610.648          45.000  
G24  22209012.018   116709064.793       -2991.552          45.000  
G25  21625082.082   113640538.007        2140.042          48.000  
G29  21541621.478   113201980.096        1114.290          49.000  
G21  26023619.128   136755046.178        3939.820          35.000  
R23  24519356.529   131162240.033        3236.900          38.000  
R10  21491956.762   114564236.998       -3395.255          40.000  
R22  20507813.679   109472063.512        1187.491          48.000  
R11  19268614.678   102965583.115         183.677          48.000  
R21  20378362.646   109048715.269       -2182.291          48.000  
S20  37897610.314   199153283.464         107.246          41.000  
S38  39593205.881   208063705.723          91.154          43.000  
> 2017 11 15 18 46 57.2000000  0 17                     
G20  24448928.964   128479889.273        2971.881          41.000  
G 2  21015925.833   110439389.575       -2090.918          49.000  
G 5  23688863.860   124485851.694        2136.548          47.000  
G 6  24356691.755   127995360.826       -3298.119          39.000  
G12  20665746.276   108599221.194         202.164          51.000  
R12  21506812.073   114885518.472        3610.314          45.000  
G24  22209125.846   116709663.009       -2991.244          45.000  
G25  21625000.538   113640109.878        2140.198          47.000  
G29  21541579.056   113201757.199        1114.443          48.000  
G21  26023469.126   136754258.411        3939.584          32.000  
R23  24519235.512   131161592.783        3235.662          38.000  
R10  21492084.166   114564916.114       -3395.466          41.000  
R22  20507769.198   109471825.980        1187.707          48.000  
R11  19268607.802   102965546.407         183.416          48.000  
R21  20378444.191   109049151.714       -2182.695          48.000  
S20  37897606.265   199153262.205         106.251          41.000  
S38  39593202.287   208063687.589          90.233          43.000  
> 2017 11 15 18 46 57.4000000  0 17                     
G20  24448815.782   128479294.859        2972.276          39.000  
G 2  21016005.354   110439807.652       -2089.989          49.000  
G 5  23688782.298   124485424.363        2136.975          47.000  
G 6  24356817.257   127996020.405       -3297.380          39.000  
G12  20665738.685   108599180.820         201.855          51.000  
R12  21506677.008   114884796.367        3610.981          45.000  
G24  22209239.778   116710261.145       -2990.636          45.000  
G25  21624919.010   113639681.716        2141.164          47.000  
G29  21541536.827   113201534.312        1114.666          50.000  
G21  26023319.106   136753470.537        3939.398          32.000  
R23  24519114.547   131160945.358        3236.537          37.000  
R10  21492211.553   114565595.149       -3394.890          42.000  
R22  20507724.491   109471588.416        1187.854          47.000  
R11  19268600.840   102965509.670         183.791          48.000  
R21  20378525.770   109049588.119       -2181.929          48.000  
S20  37897602.234   199153240.840         106.568          41.000  
S38  39593198.640   208063669.389          91.550          43.000  
> 2017 11 15 18 46 57.6000000  0 17                     
G20  24448702.757   128478700.479        2971.786          39.000  
G 2  21016085.031   110440225.754       -2090.335          50.000  
G 5  23688701.172   124484997.130        2136.279          48.000  
G 6  24356942.759   127996679.982       -3297.542          39.000  
G12  20665730.832   108599140.450         202.053          51.000  
R12  21506541.874   114884074.281        3610.916          45.000  
G24  22209353.588   116710859.358       -2991.454          46.000  
G25  21624837.535   113639253.577        2141.277          47.000  
G29  21541494.231   113201311.372        1114.730          49.000  
G21  26023169.104   136752682.683        3939.091          32.000  
R23  24518993.669   131160298.012        3237.166          37.000  
R10  21492339.096   114566274.282       -3395.486          42.000  
R22  20507679.958   109471350.924        1187.321          49.000  
R11  19268593.790   102965473.013         183.494          48.000  
R21  20378607.455   109050024.549       -2181.832          48.000  
S20  37897598.011   199153219.457         107.536          40.000  
S38  39593195.254   208063651.162          91.339          42.000  
> 2017 11 15 18 46 57.8000000  0 17                     
G20  24448589.435   128478106.122        2971.697          39.000  
G 2  21016164.674   110440643.849       -2090.449          50.000  
G 5  23688619.959   124484569.956        2135.571          48.000  
G 6  24357068.453   127997339.580       -3298.372          39.000  
G12  20665723.207   108599100.095         201.559          51.000  
R12  21506406.809   114883352.266        3610.041          45.000  
G24  22209467.556   116711457.609       -2991.209          46.000  
G25  21624756.025   113638825.475        2140.438          46.000  
G29  21541452.088   113201088.549        1114.454          50.000  
G21  26023019.085   136751894.8741       3939.898          32.000  
R23  24518872.739   131159650.779        3236.063          37.000  
R10  21492466.588   114566953.455       -3396.036          42.000  
R22  20507635.338   109471113.450        1187.329          47.000  
R11  19268587.089   102965436.398         182.906          48.000  
R21  20378689.052   109050461.003       -2182.573          48.000  
S20  37897593.893   199153198.149         106.577          40.000  
S38  39593191.991   208063633.067          90.566          43.000  
> 2017 11 15 18 46 58.0000000  0 17                     
G20  24448476.375   128477511.696        2972.396          39.000  
G 2  21016244.404   110441062.068       -2091.056          49.000  
G 5  23688538.449   124484142.695        2135.388          45.000  
G 6  24357193.990   127997999.270       -3298.954          39.000  
G12  20665715.372   108599059.824         201.472          50.000  
R12  21506271.535   114882630.298        3610.080          44.000  
G24  22209581.488   116712055.834       -2991.162          45.000  
G25  21624674.463   113638397.442        2140.332          46.000  
G29  21541409.737   113200865.740        1113.605          49.000  
G21  26022869.135   136751107.1011       3939.210          31.000  
R23  24518751.722   131159003.478        3237.101          37.000  
R10  21492594.096   114567632.578       -3395.488          43.000  
R22  20507590.892   109470876.038        1187.178          48.000  
R11  19268580.179   102965399.835         182.667          48.000  
R21  20378770.614   109050897.538       -2182.623          48.000  
S20  37897589.775   199153176.856         106.245          40.000  
S38  39593188.536   208063614.949          90.277          42.000  
> 2017 11 15 18 46 58.2000000  0 17                     
G20  24448363.141   128476917.312        2971.924          38.000  
G 2  21016323.803   110441480.302       -2091.733          48.000  
G 5  23688457.096   124483715.416        2136.298          46.000  
G 6  24357319.300   127998658.958       -3298.596          38.000  
G12  20665708.234   108599019.541         200.959          51.000  
R12  21506136.453   114881908.345        3608.914          45.000  
G24  22209695.333   116712654.044       -2991.053          45.000  
G25  21624592.935   113637969.397        2139.912          46.000  
G29  21541367.228   113200642.912        1113.822          48.000  
G21  26022721.489   136750319.2061       3939.848          31.000  
R23  24518630.810   131158356.253        3236.490          37.000  
R10  21492721.535   114568311.734       -3395.907          42.000  
R22  20507546.272   109470638.600        1186.639          47.000  
R11  19268573.303   102965363.297         182.295          48.000  
R21  20378852.177   109051334.073       -2183.292          48.000  
S20  37897585.761   199153155.536         106.404          40.000  
S38  39593185.220   208063596.709          90.928          42.000  
> 2017 11 15 18 46 58.4000000  0 17                     
G20  24448249.854   128476322.917        2971.416          38.000  
G 2  21016403.358   110441898.569       -2090.716          48.000  
G 5  23688375.708   124483288.186        2136.554          47.000  
G 6  24357444.749   127999318.705       -3297.543          38.000  
G12  20665700.679   108598979.262         201.620          50.000  
R12  21506001.493   114881186.394        3609.833          45.000  
G24  22209809.109   116713252.270       -2991.237          45.000  
G25  21624511.687   113637541.368        2140.359          48.000  
G29  21541324.824   113200420.078        1114.409          49.000  
G21  26022569.445   136749531.3891       3939.572          30.000  
R23  24518509.967   131157708.912        3235.898          37.000  
R10  21492848.869   114568990.881       -3396.047          41.000  
R22  20507501.896   109470401.190        1187.189          48.000  
R11  19268566.498   102965326.782         182.693          48.000  
R21  20378933.826   109051770.616       -2182.195          48.000  
S20  37897581.695   199153134.234         106.815          40.000  
S38  39593181.695   208063578.590          90.645          42.000  
> 2017 11 15 18 46 58.6000000  0 16                     
G20  24448136.637   128475728.536        2971.075          38.000  
G 2  21016483.123   110442316.880       -2092.182          49.000  
G 5  23688294.355   124482861.034        2135.876          47.000  
G 6  24357570.391   127999978.497       -3299.262          38.000  
G12  20665692.459   108598939.078         200.829          50.000  
R12  21505866.359   114880464.448        3609.387          45.000  
G24  22209923.024   116713850.545       -2991.131          45.000  
G25  21624430.387   113637113.328        2139.555          47.000  
G29  21541282.560   113200197.302        1113.828          49.000  
R23  24518389.002   131157061.671        3235.463          37.000  
R10  21492976.273   114569670.094       -3395.790          41.000  
R22  20507457.450   109470163.834        1186.365          48.000  
R11  19268559.675   102965290.354         181.978          48.000  
R21  20379015.354   109052207.197       -2182.906          49.000  
S20  37897577.682   199153112.962         105.845          40.000  
S38  39593178.485   208063560.404          91.083          42.000  
> 2017 11 15 18 46 58.8000000  0 16                     
G20  24448023.577   128475134.243        2970.878          38.000  
G 2  21016562.783   110442735.133       -2091.561          49.000  
G 5  23688213.072   124482433.925        2135.376          47.000  
G 6  24357695.806   128000638.167       -3298.353          39.000  
G12  20665685.095   108598898.836         200.948          51.000  
R12  21505731.137   114879742.501        3609.805          45.000  
G24  22210036.852   116714448.904       -2991.623          45.000  
G25  21624348.702   113636685.268        2139.914          46.000  
G29  21541240.452   113199974.496        1114.141          49.000  
R23  24518268.054   131156414.487        3234.239          35.000  
R10  21493103.678   114570349.413       -3396.471          41.000  
R22  20507412.970   109469926.487        1186.976          48.000  
R11  19268552.782   102965253.925         181.948          48.000  
R21  20379097.038   109052643.750       -2182.829          48.000  
S20  37897573.633   199153091.739         106.251          40.000  
S38  39593175.029   208063542.277          90.084          41.000  
> 2017 11 15 18 46 59.0000000  0 16                     
G20  24447910.552   128474539.929        2971.350          40.000  
G 2  21016642.322   110443153.538       -2092.267          48.000  
G 5  23688131.893   124482006.865        2135.065          47.000  
G 6  24357821.517   128001297.915       -3298.586          40.000  
G12  20665677.243   108598858.671         200.725          49.000  
R12  21505595.933   114879020.642        3608.871          43.000  
G24  22210150.592   116715047.271       -2992.181          44.000  
G25  21624267.070   113636257.272        2140.111          45.000  
G29  21541198.362   113199751.744        1113.301          50.000  
R23  24518146.880   131155767.141        3237.465          35.000  
R10  21493231.204   114571028.759       -3397.434          41.000  
R22  20507368.646   109469689.218        1186.007          48.000  
R11  19268545.889   102965217.580         181.847          48.000  
R21  20379178.600   109053080.360       -2183.409          48.000  
S20  37897569.567   199153070.553         105.602          38.000  
S38  39593171.574   208063524.142          90.962          42.000  
> 2017 11 15 18 46 59.2000000  0 16                     
G20  24447797.300   128473945.578        2972.351          40.000  
G 2  21016721.877   110443571.891       -2092.075          49.000  
G 5  23688050.488   124481579.760        2135.577          46.000  
G 6  24357947.037   128001957.635       -3298.806          40.000  
G12  20665669.669   108598818.507         201.033          50.000  
R12  21505460.781   114878298.805        3608.392          43.000  
G24  22210264.350   116715645.637       -2991.510          44.000  
G25  21624185.857   113635829.316        2139.971          46.000  
G29  21541155.906   113199528.978        1113.881          48.000  
R23  24518025.636   131155119.991        3236.165          32.000  
R10  21493358.573   114571708.098       -3396.587          41.000  
R22  20507324.043   109469451.927        1186.258          48.000  
R11  19268539.101   102965181.275         181.492          48.000  
R21  20379260.215   109053516.959       -2183.186          48.000  
S20  37897565.676   199153049.300         106.585          40.000  
S38  39593167.997   208063506.088          90.759          42.000  
> 2017 11 15 18 46 59.4000000  0 16                     
G20  24447684.223   128473351.234        2971.740          40.000  
G 2  21016801.747   110443990.313       -2091.360          49.000  
G 5  23687969.327   124481152.666        2134.949          47.000  
G 6  24358072.696   128002617.422       -3298.213          40.000  
G12  20665662.236   108598778.412         200.446          50.000  
R12  21505325.699   114877577.002        3609.114          44.000  
G24  22210378.213   116716244.030       -2991.928          44.000  
G25  21624104.399   113635401.366        2140.041          46.000  
G29  21541113.327   113199306.341        1113.600          49.000  
R23  24517904.671   131154472.844        3235.673          38.000  
R10  21493486.064   114572387.454       -3397.042          41.000  
R22  20507279.842   109469214.733        1186.129          48.000  
R11  19268532.173   102965145.018         181.254          48.000  
R21  20379342.004   109053953.658       -2182.698          48.000  
S20  37897561.558   199153028.178         105.668          40.000  
S38  39593164.332   208063487.997          90.474          42.000  
> 2017 11 15 18 46 59.6000000  0 16                     
G20  24447571.128   128472756.847        2971.875          40.000  
G 2  21016881.337   110444408.739       -2092.300          49.000  
G 5  23687888.236   124480725.585        2134.930          47.000  
G 6  24358198.232   128003277.209       -3299.050          39.000  
G12  20665654.453   108598738.263         200.762          50.000  
R12  21505190.773   114876855.172        3609.047          44.000  
G24  22210492.075   116716842.396       -2991.403          44.000  
G25  21624022.994   113634973.395        2140.304          46.000  
G29  21541070.662   113199083.584        1113.333          49.000  
R23  24517783.846   131153825.753        3235.208          38.000  
R10  21493613.555   114573066.776       -3396.153          41.000  
R22  20507235.222   109468977.510        1185.836          48.000  
R11  19268525.612   102965108.772         181.058          48.000  
R21  20379423.741   109054390.310       -2183.427          48.000  
S20  37897557.404   199153006.960         105.911          38.000  
S38  39593160.755   208063469.886          90.141          41.000  
> 2017 11 15 18 46 59.8000000  0 17                     
G20  24447458.016   128472162.492        2971.533          40.000  
G 2  21016960.840   110444827.226       -2093.011          49.000  
G 5  23687807.284   124480298.474        2135.785          47.000  
G 6  24358323.612   128003937.018       -3299.529          39.000  
G12  20665646.775   108598698.192         200.200          50.000  
R12  21505055.709   114876133.421        3608.339          45.000  
G24  22210605.990   116717440.839       -2992.333          44.000  
G25  21623941.519   113634545.534        2139.243          47.000  
G29  21541028.345   113198860.955        1113.088          49.000  
G21  26021518.349   136744001.1641       3937.808          34.000  
R23  24517662.759   131153178.703        3233.622          36.000  
R10  21493740.959   114573746.217       -3397.313          40.000  
R22  20507190.933   109468740.341        1185.728          48.000  
R11  19268519.120   102965072.590         180.605          49.000  
R21  20379505.373   109054827.025       -2183.604          48.000  
S20  37897553.321   199152985.728         106.026          39.000  
S38  39593157.300   208063451.842          90.750          42.000  
> 2017 11 15 18 47  0.0000000  0 17                     
G20  24447344.886   128471568.161        2971.847          40.000  
G 2  21017040.291   110445245.708       -2092.759          48.000  
G 5  23687725.600   124479871.457        2135.590          46.000  
G 6  24358449.097   128004596.822       -3298.576          36.000  
G12  20665639.289   108598658.116         200.205          50.000  
R12  21504920.853   114875411.632        3608.620          46.000  
G24  22210719.888   116718039.307       -2992.570          44.000  
G25  21623860.131   113634117.607        2139.192          47.000  
G29  21540985.941   113198638.274        1113.474          49.000  
G21  26021365.275   136743213.446        3937.872          34.000  
R23  24517541.846   131152531.446        3236.360          38.000  
R10  21493868.416   114574425.604       -3396.703          40.000  
R22  20507146.557   109468503.218        1185.583          48.000  
R11  19268512.245   102965036.443         180.735          47.000  
R21  20379587.075   109055263.721       -2183.922          48.000  
S20  37897549.046   199152964.576         105.841          40.000  
S38  39593153.740   208063433.812          90.175          42.000  
> 2017 11 15 18 47  0.2000000  0 17                     
G20  24447231.896   128470973.909        2971.368          40.000  
G 2  21017120.231   110445664.265       -2093.208          49.000  
G 5  23687644.491   124479444.475        2135.181          48.000  
G 6  24358574.651   128005256.756       -3299.596          36.000  
G12  20665631.994   108598618.097         199.894          50.000  
R12  21504785.859   114874689.924        3608.561          45.000  
G24  22210833.751   116718637.832       -2992.486          44.000  
G25  21623778.708   113633689.739        2138.549          47.000  
G29  21540943.467   113198415.698        1112.697          48.000  
G21  26021215.064   136742425.824        3938.087          33.000  
R23  24517421.126   131151884.500        3235.916          38.000  
R10  21493995.890   114575105.151       -3397.234          40.000  
R22  20507102.024   109468266.120        1184.936          48.000  
R11  19268505.492   102965000.390         179.743          49.000  
R21  20379668.585   109055700.459       -2183.886          48.000  
S20  37897545.102   199152943.446         105.813          40.000  
S38  39593150.198   208063415.799          90.045          40.000  
> 2017 11 15 18 47  0.4000000  0 17                     
G20  24447118.888   128470379.679        2971.173          39.000  
G 2  21017199.699   110446082.821       -2092.810          49.000  
G 5  23687562.999   124479017.545        2134.424          46.000  
G 6  24358700.066   128005916.660       -3299.585          36.000  
G12  20665624.386   108598578.114         200.056          50.000  
R12  21504650.846   114873968.260        3608.448          45.000  
G24  22210947.578   116719236.415       -2992.334          44.000  
G25  21623697.111   113633261.861        2139.195          46.000  
G29  21540901.115   113198193.114        1112.921          49.000  
G21  26021065.027   136741638.121        3939.514          33.000  
R23  24517300.475   131151237.582        3234.379          38.000  
R10  21494123.311   114575784.714       -3397.616          41.000  
R22  20507057.631   109468029.118        1185.609          48.000  
R11  19268498.407   102964964.361         180.461          48.000  
R21  20379750.130   109056137.243       -2183.879          48.000  
S20  37897541.176   199152922.345         106.090          40.000  
S38  39593146.603   208063397.791          90.214          38.000  
> 2017 11 15 18 47  0.6000000  0 17                     
G20  24447005.723   128469785.319        2971.062          39.000  
G 2  21017279.342   110446501.405       -2092.890          49.000  
G 5  23687481.768   124478590.531        2134.308          47.000  
G 6  24358825.585   128006576.511       -3299.270          38.000  
G12  20665616.673   108598538.121         199.499          50.000  
R12  21504515.642   114873246.598        3608.146          44.000  
G24  22211061.406   116719834.893       -2992.581          44.000  
G25  21623615.688   113632834.004        2139.731          46.000  
G29  21540858.903   113197970.510        1112.804          49.000  
G21  26020914.083   136740850.432        3939.402          33.000  
R23  24517179.737   131150590.554        3235.062          38.000  
R10  21494250.820   114576464.204       -3397.921          41.000  
R22  20507013.133   109467792.032        1184.781          48.000  
R11  19268491.549   102964928.348         179.712          48.000  
R21  20379831.745   109056574.008       -2183.948          48.000  
S20  37897537.127   199152901.143         105.252          40.000  
S38  39593143.113   208063379.753          90.094          39.000  
> 2017 11 15 18 47  0.8000000  0 17                     
G20  24446892.437   128469190.954        2972.006          39.000  
G 2  21017359.037   110446920.079       -2092.989          49.000  
G 5  23687400.712   124478163.539        2135.107          47.000  
G 6  24358951.174   128007236.470       -3299.319          40.000  
G12  20665608.698   108598498.163         200.076          50.000  
R12  21504380.612   114872524.960        3608.821          44.000  
G24  22211175.286   116720433.410       -2992.577          44.000  
G25  21623534.405   113632406.179        2140.006          46.000  
G29  21540816.115   113197747.905        1113.418          47.000  
G21  26020765.197   136740062.714        3938.951          33.000  
R23  24517058.789   131149943.523        3234.778          38.000  
R10  21494378.329   114577143.705       -3397.158          41.000  
R22  20506968.931   109467555.010        1185.705          48.000  
R11  19268484.639   102964892.380         180.166          48.000  
R21  20379913.324   109057010.832       -2183.551          48.000  
S20  37897532.957   199152880.014         106.901          39.000  
S38  39593139.710   208063361.694          90.437          39.000  
> 2017 11 15 18 47  1.0000000  0 17                     
G20  24446779.324   128468596.600        2972.242          39.000  
G 2  21017438.575   110447338.692       -2093.447          48.000  
G 5  23687319.359   124477736.562        2134.985          47.000  
G 6  24359076.729   128007896.313       -3299.712          41.000  
G12  20665601.300   108598458.175         199.827          51.000  
R12  21504245.321   114871803.297        3608.059          45.000  
G24  22211289.289   116721031.922       -2992.542          44.000  
G25  21623453.139   113631978.353        2139.194          45.000  
G29  21540773.676   113197525.330        1112.885          48.000  
G21  26020616.364   136739275.046        3938.188          33.000  
R23  24516937.981   131149296.457        3235.574          38.000  
R10  21494505.872   114577823.264       -3397.721          41.000  
R22  20506924.451   109467317.991        1184.737          47.000  
R11  19268478.078   102964856.421         179.784          48.000  
R21  20379995.026   109057447.603       -2184.251          49.000  
S20  37897528.978   199152858.854         105.039          39.000  
S38  39593136.377   208063343.621          89.720          40.000  
> 2017 11 15 18 47  1.2000000  0 17                     
G20  24446666.282   128468002.259        2971.639          39.000  
G 2  21017518.305   110447757.317       -2093.170          49.000  
G 5  23687238.093   124477309.571        2134.521          47.000  
G 6  24359202.353   128008556.166       -3299.150          42.000  
G12  20665593.953   108598418.179         199.976          50.000  
R12  21504110.221   114871081.644        3608.563          45.000  
G24  22211403.151   116721630.439       -2992.907          44.000  
G25  21623371.560   113631550.528        2138.876          46.000  
G29  21540731.394   113197302.723        1112.972          49.000  
G21  26020466.537   136738487.3181       3938.907          33.000  
R23  24516817.226   131148649.492        3233.917          38.000  
R10  21494633.311   114578502.833       -3397.890          41.000  
R22  20506879.970   109467080.942        1185.519          48.000  
R11  19268471.359   102964820.482         179.498          48.000  
R21  20380076.606   109057884.377       -2183.508          48.000  
S20  37897524.738   199152837.638         106.042          40.000  
S38  39593132.905   208063325.530          90.989          40.000  
> 2017 11 15 18 47  1.4000000  0 17                     
G20  24446553.047   128467407.948        2971.478          39.000  
G 2  21017597.878   110448175.979       -2093.355          48.000  
G 5  23687157.246   124476882.648        2134.827          48.000  
G 6  24359327.942   128009216.009       -3299.752          42.000  
G12  20665586.223   108598378.260         199.498          50.000  
R12  21503975.226   114870359.993        3607.510          45.000  
G24  22211516.962   116722229.005       -2992.783          45.000  
G25  21623290.085   113631122.659        2138.639          47.000  
G29  21540688.938   113197080.083        1113.083          48.000  
G21  26020318.629   136737699.5871       3938.619          33.000  
R23  24516696.244   131148002.465        3234.795          38.000  
R10  21494760.942   114579182.442       -3397.536          42.000  
R22  20506835.559   109466843.982        1184.271          48.000  
R11  19268464.815   102964784.597         179.247          48.000  
R21  20380158.186   109058321.170       -2184.324          48.000  
S20  37897520.759   199152816.578         105.650          40.000  
S38  39593129.467   208063307.465          89.708          42.000  
> 2017 11 15 18 47  1.6000000  0 17                     
G20  24446439.883   128466813.603        2971.688          39.000  
G 2  21017677.643   110448594.720       -2093.636          48.000  
G 5  23687075.998   124476455.718        2135.034          48.000  
G 6  24359453.549   128009875.902       -3299.434          42.000  
G12  20665578.527   108598338.322         199.719          50.000  
R12  21503840.214   114869638.408        3607.524          45.000  
G24  22211630.842   116722827.557       -2992.861          45.000  
G25  21623208.749   113630694.826        2138.811          47.000  
G29  21540646.900   113196857.576        1112.687          49.000  
G21  26020172.134   136736911.878        3939.189          36.000  
R23  24516575.401   131147355.463        3235.357          36.000  
R10  21494888.468   114579862.056       -3397.312          43.000  
R22  20506791.288   109466606.982        1184.719          48.000  
R11  19268457.975   102964748.742         179.017          48.000  
R21  20380239.731   109058757.994       -2184.115          47.000  
S20  37897516.728   199152795.425         106.077          40.000  
S38  39593126.012   208063289.420          90.669          42.000  
> 2017 11 15 18 47  1.8000000  0 17                     
G20  24446326.718   128466219.208        2972.058          39.000  
G 2  21017757.530   110449013.413       -2093.454          49.000  
G 5  23686994.610   124476028.748        2135.168          48.000  
G 6  24359579.103   128010535.810       -3299.872          42.000  
G12  20665570.692   108598298.417         199.573          50.000  
R12  21503704.800   114868916.799        3607.178          44.000  
G24  22211744.704   116723426.118       -2992.400          45.000  
G25  21623127.326   113630266.998        2138.748          47.000  
G29  21540604.566   113196634.986        1112.413          49.000  
G21  26020024.453   136736124.1571       3939.876          33.000  
R23  24516454.453   131146708.467        3234.699          36.000  
R10  21495015.942   114580541.703       -3397.307          43.000  
R22  20506746.982   109466370.055        1184.656          48.000  
R11  19268451.414   102964712.917         179.132          48.000  
R21  20380321.276   109059194.828       -2183.969          48.000  
S20  37897512.627   199152774.277         106.079          40.000  
S38  39593122.312   208063271.371          89.908          40.000  
> 2017 11 15 18 47  2.0000000  0 17                     
G20  24446213.536   128465624.784        2972.028          39.000  
G 2  21017837.400   110449432.152       -2093.262          49.000  
G 5  23686913.572   124475601.791        2134.894          48.000  
G 6  24359704.448   128011195.706       -3299.154          41.000  
G12  20665563.345   108598258.519         199.586          50.000  
R12  21503569.613   114868195.269        3608.065          44.000  
G24  22211858.427   116724024.713       -2993.628          45.000  
G25  21623045.886   113629839.213        2139.290          46.000  
G29  21540562.145   113196412.500        1112.704          49.000  
G21  26019873.753   136735336.5601       3936.806          33.000  
R23  24516333.593   131146061.487        3234.401          36.000  
R10  21495143.468   114581221.346       -3398.533          42.000  
R22  20506702.571   109466133.168        1183.855          47.000  
R11  19268444.835   102964677.135         178.811          48.000  
R21  20380402.960   109059631.711       -2183.763          48.000  
S20  37897508.387   199152753.126         105.042          40.000  
S38  39593119.032   208063253.293          89.974          43.000  
> 2017 11 15 18 47  2.2000000  0 17                     
G20  24446100.336   128465030.419        2973.357          39.000  
G 2  21017917.112   110449850.904       -2093.583          48.000  
G 5  23686832.306   124475174.872        2134.393          47.000  
G 6  24359829.845   128011855.611       -3299.434          40.000  
G12  20665555.789   108598218.597         199.812          50.000  
R12  21503434.601   114867473.745        3607.466          45.000  
G24  22211972.220   116724623.320       -2993.205          45.000  
G25  21622964.586   113629411.434        2139.474          46.000  
G29  21540519.880   113196189.987        1112.742          49.000  
G21  26019723.140   136734548.7471       3938.947          32.000  
R23  24516212.750   131145414.594        3234.947          36.000  
R10  21495270.890   114581901.002       -3397.804          41.000  
R22  20506658.038   109465896.296        1184.812          49.000  
R11  19268438.064   102964641.387         179.012          48.000  
R21  20380484.767   109060068.556       -2183.997          49.000  
S20  37897504.234   199152731.928         106.414          40.000  
S38  39593115.594   208063235.325          90.483          43.000  
> 2017 11 15 18 47  2.4000000  0 17                     
G20  24445987.119   128464436.081        2972.290          39.000  
G 2  21017996.790   110450269.700       -2094.201          48.000  
G 5  23686751.093   124474747.897        2134.595          47.000  
G 6  24359955.504   128012515.515       -3299.930          39.000  
G12  20665548.146   108598178.740         199.422          50.000  
R12  21503299.606   114866752.207        3607.333          45.000  
G24  22212086.153   116725221.993       -2993.557          44.000  
G25  21622883.250   113628983.640        2139.279          46.000  
G29  21540477.633   113195967.543        1112.296          49.000  
G21  26019573.853   136733761.002        3940.620          32.000  
R23  24516091.925   131144767.727        3234.452          37.000  
R10  21495398.451   114582580.706       -3398.362          41.000  
R22  20506613.593   109465659.478        1184.057          48.000  
R11  19268431.363   102964605.696         178.439          47.000  
R21  20380566.399   109060505.412       -2184.345          49.000  
S20  37897500.290   199152710.794         106.187          40.000  
S38  39593112.296   208063217.328          90.186          41.000  
> 2017 11 15 18 47  2.6000000  0 17                     
G20  24445874.059   128463841.696        2972.515          41.000  
G 2  21018076.503   110450688.475       -2094.295          49.000  
G 5  23686670.019   124474321.016        2134.003          47.000  
G 6  24360080.884   128013175.446       -3299.717          37.000  
G12  20665540.538   108598138.894         198.848          50.000  
R12  21503164.629   114866030.709        3607.283          45.000  
G24  22212200.190   116725820.634       -2993.947          44.000  
G25  21622801.985   113628555.895        2138.702          46.000  
G29  21540435.334   113195745.016        1112.598          49.000  
G21  26019422.700   136732973.3481       3939.910          32.000  
R23  24515971.135   131144120.851        3234.304          37.000  
R10  21495526.082   114583260.412       -3398.463          40.000  
R22  20506569.304   109465422.659        1184.254          48.000  
R11  19268424.436   102964570.024         178.136          48.000  
R21  20380647.961   109060942.296       -2184.439          48.000  
S20  37897496.102   199152689.675         105.360          40.000  
S38  39593109.120   208063199.340          90.607          42.000  
> 2017 11 15 18 47  2.8000000  0 17                     
G20  24445760.895   128463247.300        2972.246          41.000  
G 2  21018156.163   110451107.290       -2093.904          49.000  
G 5  23686589.102   124473894.044        2135.199          48.000  
G 6  24360206.561   128013835.433       -3299.899          39.000  
G12  20665532.668   108598099.025         199.475          50.000  
R12  21503029.564   114865309.233        3607.155          45.000  
G24  22212314.210   116726419.230       -2993.188          45.000  
G25  21622720.405   113628128.154        2138.834          45.000  
G29  21540393.104   113195522.550        1112.760          49.000  
G21  26019275.559   136732185.6391       3939.492          31.000  
R23  24515850.257   131143473.978        3233.626          37.000  
R10  21495653.556   114583940.125       -3398.585          40.000  
R22  20506524.945   109465185.848        1183.946          47.000  
R11  19268417.857   102964534.383         178.236          47.000  
R21  20380729.646   109061379.226       -2184.799          48.000  
S20  37897491.984   199152668.481         105.944          40.000  
S38  39593105.717   208063181.354          89.739          42.000  
> 2017 11 15 18 47  3.0000000  0 17                     
G20  24445647.782   128462652.998        2970.618          40.000  
G 2  21018235.753   110451526.152       -2093.796          48.000  
G 5  23686507.540   124473467.173        2134.937          46.000  
G 6  24360332.167   128014495.349       -3299.075          41.000  
G12  20665525.094   108598059.222         199.535          50.000  
R12  21502894.482   114864587.739        3608.120          45.000  
G24  22212428.212   116727017.910       -2993.914          44.000  
G25  21622638.912   113627700.421        2139.109          45.000  
G29  21540350.945   113195300.093        1112.412          49.000  
G21  26019124.982   136731397.9681       3938.955          31.000  
R23  24515729.205   131142827.076        3233.173          37.000  
R10  21495780.960   114584619.923       -3399.408          41.000  
R22  20506480.570   109464949.057        1184.095          48.000  
R11  19268411.243   102964498.763         178.464          48.000  
R21  20380811.313   109061816.100       -2183.908          48.000  
S20  37897487.970   199152647.362         105.865          40.000  
S38  39593102.524   208063163.293          90.396          42.000  
> 2017 11 15 18 47  3.2000000  0 17                     
G20  24445534.810   128462058.607        2970.917          41.000  
G 2  21018315.518   110451945.053       -2094.956          48.000  
G 5  23686426.239   124473040.313        2133.838          47.000  
G 6  24360457.896   128015155.275       -3299.883          41.000  
G12  20665517.748   108598019.420         198.493          50.000  
R12  21502759.452   114863866.323        3606.719          45.000  
G24  22212542.092   116727616.580       -2993.297          44.000  
G25  21622557.385   113627272.692        2137.751          47.000  
G29  21540308.855   113195077.641        1111.654          49.000  
G21  26018979.220   136730610.273        3938.738          32.000  
R23  24515608.083   131142180.262        3232.737          34.000  
R10  21495908.503   114585299.717       -3399.973          41.000  
R22  20506436.246   109464712.315        1183.562          48.000  
R11  19268404.734   102964463.228         177.230          48.000  
R21  20380893.102   109062253.044       -2185.176          48.000  
S20  37897483.852   199152626.198         104.954          40.000  
S38  39593099.121   208063145.350          89.528          43.000  
> 2017 11 15 18 47  3.4000000  0 17                     
G20  24445421.732   128461464.204        2971.932          41.000  
G 2  21018395.336   110452363.932       -2094.543          49.000  
G 5  23686345.148   124472613.471        2133.228          47.000  
G 6  24360583.450   128015815.210       -3299.270          42.000  
G12  20665510.174   108597979.622         198.665          50.000  
R12  21502624.335   114863144.891        3607.072          45.000  
G24  22212655.920   116728215.308       -2993.346          44.000  
G25  21622475.840   113626844.904        2138.858          47.000  
G29  21540266.137   113194855.220        1112.408          48.000  
G21  26018828.624   136729822.628        3938.413          32.000  
R23  24515487.153   131141533.331        3233.922          34.000  
R10  21496036.099   114585979.522       -3399.825          41.000  
R22  20506391.870   109464475.569        1183.511          48.000  
R11  19268398.103   102964427.671         177.587          48.000  
R21  20380974.769   109062689.976       -2184.836          48.000  
S20  37897479.821   199152604.997         106.656          40.000  
S38  39593095.893   208063127.347          90.207          43.000  
> 2017 11 15 18 47  3.6000000  0 17                     
G20  24445308.533   128460869.776        2972.988          41.000  
G 2  21018475.153   110452782.841       -2094.818          49.000  
G 5  23686264.005   124472186.509        2134.839          47.000  
G 6  24360708.813   128016475.162       -3299.957          42.000  
G12  20665502.339   108597939.819         198.960          50.000  
R12  21502489.323   114862423.507        3606.901          44.000  
G24  22212769.783   116728813.995       -2993.144          44.000  
G25  21622394.522   113626417.211        2138.713          47.000  
G29  21540223.872   113194632.800        1111.613          49.000  
G21  26018681.414   136729034.930        3939.621          33.000  
R23  24515366.223   131140886.501        3234.801          37.000  
R10  21496163.608   114586659.282       -3398.501          40.000  
R22  20506347.599   109464238.881        1183.515          48.000  
R11  19268391.542   102964392.190         177.320          48.000  
R21  20381056.453   109063126.958       -2185.405          48.000  
S20  37897475.720   199152583.874         105.303          40.000  
S38  39593092.507   208063109.344          90.298          43.000  
> 2017 11 15 18 47  3.8000000  0 17                     
G20  24445195.455   128460275.348        2973.502          42.000  
G 2  21018554.900   110453201.777       -2094.349          48.000  
G 5  23686182.861   124471759.658        2135.284          48.000  
G 6  24360834.297   128017135.092       -3299.320          42.000  
G12  20665494.958   108597900.095         198.886          50.000  
R12  21502354.293   114861702.156        3606.299          44.000  
G24  22212883.802   116729412.726       -2993.374          44.000  
G25  21622313.117   113625989.515        2138.621          46.000  
G29  21540181.119   113194410.379        1111.912          48.000  
G21  26018533.175   136728247.316        3938.640          33.000  
R23  24515245.398   131140239.718        3234.363          37.000  
R10  21496291.152   114587339.131       -3398.754          40.000  
R22  20506303.467   109464002.197        1183.157          49.000  
R11  19268384.946   102964356.716         177.371          48.000  
R21  20381138.277   109063563.929       -2185.107          49.000  
S20  37897471.497   199152562.637         105.743          40.000  
S38  39593089.035   208063091.376          89.583          41.000  
> 2017 11 15 18 47  4.0000000  0 17                     
G20  24445082.238   128459680.871        2973.916          42.000  
G 2  21018634.648   110453620.838       -2095.387          48.000  
G 5  23686101.613   124471332.817        2134.406          48.000  
G 6  24360959.852   128017795.173       -3300.692          43.000  
G12  20665487.210   108597860.360         198.378          50.000  
R12  21502219.228   114860980.845        3606.415          43.000  
G24  22212997.595   116730011.409       -2993.746          44.000  
G25  21622231.711   113625561.912        2137.723          46.000  
G29  21540138.994   113194188.025        1112.092          49.000  
G21  26018378.828   136727459.616        3937.903          33.000  
R23  24515124.694   131139592.841        3235.783          39.000  
R10  21496418.765   114588018.894       -3398.607          40.000  
R22  20506259.091   109463765.560        1183.265          48.000  
R11  19268378.280   102964321.314         176.909          47.000  
R21  20381220.049   109064000.963       -2185.208          49.000  
S20  37897467.396   199152541.396         106.857          40.000  
S38  39593085.667   208063073.355          90.653          41.000  
> 2017 11 15 18 47  4.2000000  0 17                     
G20  24444969.370   128459086.347        2974.038          42.000  
G 2  21018714.308   110454039.868       -2095.722          48.000  
G 5  23686020.469   124470905.868        2134.515          47.000  
G 6  24361085.214   128018455.243       -3300.892          43.000  
G12  20665480.055   108597820.668         198.345          50.000  
R12  21502084.094   114860259.603        3606.005          42.000  
G24  22213111.597   116730609.985       -2993.155          45.000  
G25  21622150.132   113625134.284        2137.671          46.000  
G29  21540096.538   113193965.642        1111.342          49.000  
G21  26018227.150   136726671.793        3938.882          33.000  
R23  24515003.799   131138946.041        3234.334          35.000  
R10  21496546.396   114588698.652       -3398.809          40.000  
R22  20506214.907   109463528.879        1183.274          48.000  
R11  19268371.701   102964285.917         176.960          48.000  
R21  20381301.768   109064438.055       -2185.842          49.000  
S20  37897463.400   199152520.168         106.001          40.000  
S38  39593082.369   208063055.308          90.258          42.000  
> 2017 11 15 18 47  4.4000000  0 17                     
G20  24444856.310   128458491.872        2971.317          39.000  
G 2  21018793.968   110454458.948       -2095.228          49.000  
G 5  23685938.837   124470478.947        2135.016          47.000  
G 6  24361210.873   128019115.351       -3300.211          41.000  
G12  20665472.360   108597780.988         198.419          50.000  
R12  21501949.256   114859538.425        3606.068          42.000  
G24  22213225.547   116731208.617       -2992.896          45.000  
G25  21622068.866   113624706.706        2137.881          47.000  
G29  21540054.466   113193743.322        1111.772          49.000  
G21  26018076.642   136725883.928        3938.928          33.000  
R23  24514882.782   131138299.053        3234.615          37.000  
R10  21496673.905   114589378.404       -3398.901          40.000  
R22  20506170.566   109463292.275        1183.045          48.000  
R11  19268365.140   102964250.550         176.803          48.000  
R21  20381383.401   109064875.158       -2185.549          48.000  
S20  37897459.456   199152498.866         106.510          40.000  
S38  39593078.896   208063037.264          90.220          43.000  
> 2017 11 15 18 47  4.6000000  0 17                     
G20  24444743.250   128457897.165        2971.754          41.000  
G 2  21018873.873   110454878.085       -2095.949          49.000  
G 5  23685857.484   124470052.049        2133.795          46.000  
G 6  24361336.497   128019775.555       -3301.457          42.000  
G12  20665464.786   108597741.369         198.084          50.000  
R12  21501814.348   114858817.306        3604.889          43.000  
G24  22213339.584   116731807.229       -2993.271          45.000  
G25  21621987.583   113624279.169        2138.026          47.000  
G29  21540012.271   113193521.008        1111.437          49.000  
G21  26017924.319   136725096.138        3939.955          33.000  
R23  24514761.817   131137652.221        3233.987          36.000  
R10  21496801.431   114590058.174       -3399.170          40.000  
R22  20506126.260   109463055.660        1183.155          48.000  
R11  19268358.701   102964215.249         176.203          48.000  
R21  20381465.190   109065312.356       -2185.985          48.000  
S20  37897455.303   199152477.623         106.234          40.000  
S38  39593075.563   208063019.237          90.130          43.000  
> 2017 11 15 18 47  4.8000000  0 16                     
G20  24444630.138   128457302.559        2974.310          43.000  
G 2  21018953.795   110455297.142       -2095.159          48.000  
G 5  23685776.341   124469625.149        2135.016          48.000  
G 6  24361462.069   128020435.578       -3299.821          42.000  
G12  20665457.004   108597701.669         198.639          50.000  
R12  21501679.161   114858096.026        3606.724          42.000  
G24  22213453.587   116732405.929       -2992.848          46.000  
G25  21621906.317   113623851.565        2137.874          47.000  
G29  21539970.094   113193298.659        1111.799          49.000  
R23  24514641.097   131137005.322        3234.656          37.000  
R10  21496929.062   114590738.021       -3398.557          42.000  
R22  20506082.024   109462819.059        1182.945          48.000  
R11  19268352.069   102964179.948         176.685          48.000  
R21  20381546.909   109065749.435       -2185.665          47.000  
S20  37897451.325   199152456.373         106.631          40.000  
S38  39593072.370   208063001.156          90.386          43.000  
> 2017 11 15 18 47  5.0000000  0 16                     
G20  24444517.026   128456708.101        2974.059          43.000  
G 2  21019033.473   110455716.297       -2095.574          48.000  
G 5  23685695.180   124469198.377        2133.618          47.000  
G 6  24361587.606   128021095.704       -3299.832          40.000  
G12  20665449.465   108597662.023         198.575          50.000  
R12  21501544.324   114857374.833        3606.625          42.000  
G24  22213567.554   116733004.669       -2994.393          45.000  
G25  21621825.087   113623423.901        2138.941          47.000  
G29  21539927.690   113193076.296        1111.964          49.000  
R23  24514520.167   131136358.549        3233.637          37.000  
R10  21497056.658   114591417.962       -3399.858          41.000  
R22  20506037.631   109462582.495        1182.918          48.000  
R11  19268345.369   102964144.671         176.460          47.000  
R21  20381628.506   109066186.518       -2184.615          47.000  
S20  37897447.381   199152435.176         106.128          40.000  
S38  39593068.880   208062983.124          90.279          42.000  
> 2017 11 15 18 47  5.2000000  0 16                     
G20  24444403.948   128456113.599        2973.135          41.000  
G 2  21019113.168   110456135.431       -2095.809          48.000  
G 5  23685613.897   124468771.453        2134.662          47.000  
G 6  24361713.125   128021755.833       -3300.483          40.000  
G12  20665441.874   108597622.401         198.138          50.000  
R12  21501409.364   114856653.629        3606.104          43.000  
G24  22213681.609   116733603.355       -2993.991          45.000  
G25  21621743.908   113622996.338        2137.830          47.000  
G29  21539885.617   113192853.963        1111.837          49.000  
R23  24514399.428   131135711.708        3233.970          38.000  
R10  21497184.219   114592097.864       -3400.302          41.000  
R22  20505993.482   109462345.927        1182.892          49.000  
R11  19268338.580   102964109.455         176.041          47.000  
R21  20381710.330   109066623.647       -2185.300          48.000  
S20  37897443.350   199152413.902         105.967          40.000  
S38  39593065.355   208062965.053          90.309          42.000  
> 2017 11 15 18 47  5.4000000  0 16                     
G20  24444290.662   128455519.118        2972.990          41.000  
G 2  21019192.863   110456554.538       -2095.304          48.000  
G 5  23685532.509   124468344.677        2134.851          46.000  
G 6  24361838.679   128022415.883       -3301.079          42.000  
G12  20665434.266   108597582.719         198.289          51.000  
R12  21501274.351   114855932.331        3605.892          42.000  
G24  22213795.506   116734202.109       -2993.179          45.000  
G25  21621662.485   113622568.645        2138.151          46.000  
G29  21539843.248   113192631.567        1111.744          49.000  
R23  24514278.708   131135064.920        3234.679          36.000  
R10  21497311.693   114592777.747       -3399.059          41.000  
R22  20505949.193   109462109.342        1182.852          49.000  
R11  19268332.054   102964074.202         176.368          48.000  
R21  20381792.154   109067060.694       -2185.935          49.000  
S20  37897439.336   199152392.667         106.755          40.000  
S38  39593061.865   208062946.924          90.902          42.000  
> 2017 11 15 18 47  5.6000000  0 16                     
G20  24444177.479   128454924.459        2973.016          41.000  
G 2  21019272.610   110456973.723       -2096.033          49.000  
G 5  23685451.365   124467917.737        2133.990          47.000  
G 6  24361964.356   128023075.957       -3300.212          42.000  
G12  20665426.623   108597543.085         198.162          50.000  
R12  21501139.339   114855211.188        3606.081          42.000  
G24  22213909.543   116734800.797       -2993.355          46.000  
G25  21621581.167   113622141.117        2137.933          46.000  
G29  21539801.019   113192409.275        1111.630          48.000  
R23  24514157.830   131134418.028        3234.388          36.000  
R10  21497439.219   114593457.604       -3398.800          42.000  
R22  20505905.026   109461872.843        1182.568          48.000  
R11  19268325.650   102964039.033         175.762          48.000  
R21  20381873.856   109067497.809       -2185.685          48.000  
S20  37897435.253   199152371.331         106.338          40.000  
S38  39593058.427   208062928.867          90.550          42.000  
> 2017 11 15 18 47  5.8000000  0 18                     
G20  24444064.245   128454329.797        2973.772          41.000  
G 2  21019352.079   110457392.899       -2095.751          48.000  
G 5  23685370.327   124467490.794        2135.034          47.000  
G 6  24362089.997   128023736.128       -3300.663          42.000  
G12  20665419.189   108597503.474         198.170          50.000  
R12  21501004.414   114854490.141        3605.383          42.000  
G24  22214023.650   116735399.499       -2993.349          45.000  
G25  21621499.710   113621713.591        2137.797          46.000  
G29  21539758.772   113192187.044        1111.182          48.000  
G21  26017018.199   136720352.4101       3940.374          32.000  
R23  24514036.691   131133771.270        3234.429          33.000  
G31  25498661.366                1       3482.000          20.000  
R10  21497566.640   114594137.464       -3399.381          40.000  
R22  20505860.651   109461636.360        1182.686          48.000  
R11  19268319.106   102964003.873         176.098          48.000  
R21  20381955.471   109067934.982       -2185.348          47.000  
S20  37897431.379   199152349.988         107.012          41.000  
S38  39593054.885   208062910.814          90.349          42.000  
> 2017 11 15 18 47  6.0000000  0 18                     
G20  24443950.976   128453735.036        2973.374          40.000  
G 2  21019431.896   110457812.196       -2096.985          48.000  
G 5  23685289.044   124467063.852        2135.034          47.000  
G 6  24362215.726   128024396.350       -3301.876          43.000  
G12  20665412.087   108597463.918         197.476          51.000  
R12  21500869.471   114853769.135        3604.141          42.000  
G24  22214137.792   116735998.085       -2992.834          46.000  
G25  21621418.444   113621286.152        2136.824          47.000  
G29  21539716.350   113191964.807        1111.022          48.000  
G21  26016865.527   136719564.5531       3939.081          31.000  
R23  24513915.796   131133124.296        3234.912          34.000  
G31  25498531.501                1       3482.000          20.000  
R10  21497694.341   114594817.242       -3398.492          42.000  
R22  20505816.135   109461399.905        1182.065          48.000  
R11  19268312.300   102963968.769         175.252          47.000  
R21  20382037.365   109068372.280       -2186.997          48.000  
S20  37897427.243   199152328.661         107.052          40.000  
S38  39593051.430   208062892.720          90.730          43.000  
> 2017 11 15 18 47  6.2000000  0 18                     
G20  24443837.811   128453140.250        2974.295          41.000  
G 2  21019511.713   110458231.540       -2096.709          48.000  
G 5  23685207.708   124466636.888        2134.845          46.000  
G 6  24362341.368   128025056.637       -3301.310          42.000  
G12  20665404.932   108597424.435         197.369          50.000  
R12  21500734.476   114853048.287        3604.217          42.000  
G24  22214251.742   116736596.744       -2993.329          46.000  
G25  21621337.074   113620858.793        2136.775          46.000  
G29  21539673.964   113191742.675        1110.570          48.000  
G21  26016712.890   136718776.7581       3938.582          31.000  
R23  24513794.796   131132477.620        3234.777          30.000  
G31  25498399.927                1       3482.000          21.000  
R10  21497821.902   114595497.070       -3399.189          42.000  
R22  20505771.602   109461163.576        1181.610          48.000  
R11  19268305.704   102963933.778         174.838          48.000  
R21  20382118.857   109068809.639       -2186.661          46.000  
S20  37897423.282   199152307.332         106.808          40.000  
S38  39593047.957   208062874.729          89.784          43.000  
> 2017 11 15 18 47  6.4000000  0 18                     
G20  24443724.629   128452545.392        2974.098          41.000  
G 2  21019591.426   110458650.930       -2096.837          48.000  
G 5  23685126.320   124466209.902        2135.364          46.000  
G 6  24362466.870   128025716.950       -3301.332          40.000  
G12  20665397.062   108597384.952         197.343          50.000  
R12  21500599.412   114852327.490        3603.391          42.000  
G24  22214365.518   116737195.365       -2993.456          46.000  
G25  21621255.599   113620431.472        2136.032          47.000  
G29  21539631.647   113191520.557        1109.733          48.000  
G21  26016564.651   136717988.7121       3939.734          31.000  
R23  24513673.936   131131830.798        3233.063          34.000  
G31  25498264.286                1       3482.000          21.000  
R10  21497949.498   114596176.869       -3399.175          41.000  
R22  20505727.174   109460927.234        1180.875          49.000  
R11  19268299.405   102963898.808         174.498          48.000  
R21  20382200.315   109069247.056       -2187.342          47.000  
S20  37897419.077   199152285.958         107.028          40.000  
S38  39593044.415   208062856.730          89.055          43.000  
> 2017 11 15 18 47  6.6000000  0 18                     
G20  24443611.202   128451950.463        2974.926          40.000  
G 2  21019671.383   110459070.395       -2097.122          48.000  
G 5  23685045.089   124465782.917        2134.979          46.000  
G 6  24362592.424   128026377.366       -3302.066          40.000  
G12  20665389.122   108597345.512         197.192          50.000  
R12  21500464.417   114851606.721        3603.751          42.000  
G24  22214479.520   116737793.890       -2992.654          46.000  
G25  21621174.507   113620004.180        2136.494          47.000  
G29  21539589.470   113191298.428        1110.504          48.000  
G21  26016418.976   136717200.7051       3940.077          30.000  
R23  24513553.006   131131183.856        3234.016          34.000  
G31  25498130.792                1       3482.000          21.000  
R10  21498077.182   114596856.581       -3398.273          41.000  
R22  20505682.972   109460690.854        1181.711          50.000  
R11  19268292.861   102963863.834         174.967          48.000  
R21  20382282.000   109069684.531       -2187.404          47.000  
S20  37897414.906   199152264.590         107.175          41.000  
S38  39593040.872   208062838.592          90.591          44.000  
> 2017 11 15 18 47  6.8000000  0 17                     
G20  24443497.759   128451355.522        2975.261          40.000  
G 2  21019751.375   110459489.945       -2097.239          48.000  
G 5  23684963.737   124465355.957        2135.150          45.000  
G 6  24362718.135   128027037.865       -3301.866          39.000  
G12  20665381.409   108597306.143         197.209          50.000  
R12  21500329.579   114850886.057        3603.615          42.000  
G24  22214593.540   116738392.432       -2992.510          45.000  
G25  21621093.312   113619576.968        2136.243          47.000  
G29  21539547.467   113191076.372        1110.363          48.000  
G21  26016272.202   136716412.6271       3940.438          30.000  
R23  24513432.041   131130536.997        3233.955          34.000  
R10  21498204.900   114597536.346       -3398.368          41.000  
R22  20505638.876   109460454.558        1181.494          50.000  
R11  19268286.369   102963828.954         174.808          48.000  
R21  20382363.893   109070122.083       -2187.418          47.000  
S20  37897410.962   199152243.252         107.069          41.000  
S38  39593037.522   208062820.513          90.592          45.000  
> 2017 11 15 18 47  7.0000000  0 17                     
G20  24443384.245   128450760.614        2974.740          40.000  
G 2  21019831.297   110459909.587       -2098.307          48.000  
G 5  23684882.576   124464929.094        2134.204          45.000  
G 6  24362843.899   128027698.446       -3302.908          39.000  
G12  20665374.010   108597266.828         196.465          50.000  
R12  21500194.689   114850165.434        3602.979          41.000  
G24  22214707.455   116738990.982       -2992.649          45.000  
G25  21621011.889   113619149.761        2135.815          47.000  
G29  21539505.255   113190854.299        1110.267          48.000  
G21  26016125.900   136715624.5961       3940.035          30.000  
R23  24513311.163   131129890.065        3234.725          33.000  
R10  21498332.583   114598216.181       -3399.291          41.000  
R22  20505594.709   109460218.259        1181.296          50.000  
R11  19268279.878   102963794.136         173.941          48.000  
R21  20382445.822   109070559.695       -2188.237          47.000  
S20  37897406.861   199152221.963         106.560          41.000  
S38  39593034.084   208062802.398          90.611          45.000  
> 2017 11 15 18 47  7.2000000  0 17                     
G20  24443270.766   128450165.663        2974.597          40.000  
G 2  21019911.219   110460329.290       -2098.554          48.000  
G 5  23684801.083   124464502.216        2134.229          45.000  
G 6  24362969.454   128028359.111       -3303.145          38.000  
G12  20665366.646   108597227.575         196.043          50.000  
R12  21500059.799   114849444.872        3602.531          41.000  
G24  22214821.282   116739589.558       -2993.040          45.000  
G25  21620930.641   113618722.637        2135.419          47.000  
G29  21539463.095   113190632.280        1109.789          48.000  
G21  26015980.313   136714836.429        3940.758          30.000  
R23  24513190.111   131129243.169        3234.567          33.000  
R10  21498460.266   114598896.010       -3399.271          41.000  
R22  20505550.473   109459982.009        1180.842          50.000  
R11  19268273.491   102963759.366         173.643          48.000  
R21  20382527.542   109070997.364       -2188.561          47.000  
S20  37897402.778   199152200.699         106.474          41.000  
S38  39593030.716   208062784.310          90.224          46.000  
> 2017 11 15 18 47  7.4000000  0 17                     
G20  24443157.444   128449570.727        2974.808          40.000  
G 2  21019991.228   110460749.053       -2098.774          47.000  
G 5  23684719.678   124464075.393        2133.966          45.000  
G 6  24363095.095   128029019.824       -3303.417          36.000  
G12  20665358.899   108597188.359         196.181          50.000  
R12  21499924.908   114848724.348        3602.929          41.000  
G24  22214935.267   116740188.157       -2992.915          44.000  
G25  21620849.497   113618295.531        2135.662          47.000  
G29  21539420.918   113190410.295        1109.969          48.000  
G21  26015833.103   136714048.402        3940.288          30.000  
R23  24513069.233   131128596.319        3234.075          32.000  
R10  21498587.914   114599575.881       -3398.838          41.000  
R22  20505506.167   109459745.803        1180.956          50.000  
R11  19268267.087   102963724.659         173.659          48.000  
R21  20382609.575   109071435.082       -2188.504          47.000  
S20  37897398.747   199152179.448         106.717          41.000  
S38  39593027.401   208062766.255          90.160          46.000  
> 2017 11 15 18 47  7.6000000  0 17                     
G20  24443044.105   128448975.758        2974.760          40.000  
G 2  21020071.097   110461168.782       -2098.981          47.000  
G 5  23684638.273   124463648.532        2134.143          44.000  
G 6  24363220.806   128029680.491       -3303.906          36.000  
G12  20665351.290   108597149.115         195.956          50.000  
R12  21499790.140   114848003.801        3602.171          41.000  
G24  22215049.147   116740786.733       -2993.004          44.000  
G25  21620768.406   113617868.376        2135.432          47.000  
G29  21539378.654   113190188.264        1109.850          48.000  
G21  26015683.746   136713260.261        3941.328          30.000  
R23  24512948.251   131127949.464        3233.164          32.000  
R10  21498715.493   114600255.778       -3399.603          40.000  
R22  20505461.896   109459509.561        1180.873          50.000  
R11  19268260.578   102963689.949         173.253          48.000  
R21  20382691.451   109071872.744       -2188.594          47.000  
S20  37897394.611   199152158.172         106.504          41.000  
S38  39593024.102   208062748.145          90.298          46.000  
> 2017 11 15 18 47  7.8000000  0 17                     
G20  24442930.888   128448380.764        2975.186          40.000  
G 2  21020151.089   110461588.529       -2098.570          47.000  
G 5  23684556.989   124463221.688        2134.430          45.000  
G 6  24363346.396   128030341.098       -3302.385          35.000  
G12  20665344.048   108597109.872         196.400          50.000  
R12  21499655.250   114847283.261        3602.493          40.000  
G24  22215163.132   116741385.326       -2993.060          44.000  
G25  21620686.966   113617441.235        2135.828          47.000  
G29  21539336.459   113189966.252        1110.154          48.000  
G21  26015532.610   136712472.235        3940.208          30.000  
R23  24512827.338   131127302.510        3234.405          32.000  
R10  21498843.159   114600935.662       -3399.656          40.000  
R22  20505417.694   109459273.345        1181.147          50.000  
R11  19268254.069   102963655.253         173.511          48.000  
R21  20382773.136   109072310.415       -2188.198          47.000  
S20  37897390.737   199152136.895         106.485          41.000  
S38  39593020.682   208062730.047          90.566          46.000  
> 2017 11 15 18 47  8.0000000  0 17                     
G20  24442817.584   128447785.776        2975.132          40.000  
G 2  21020231.081   110462008.313       -2099.201          47.000  
G 5  23684475.689   124462794.846        2134.491          45.000  
G 6  24363472.159   128031001.823       -3303.708          35.000  
G12  20665336.702   108597070.660         195.792          50.000  
R12  21499520.343   114846562.725        3602.325          40.000  
G24  22215277.047   116741983.907       -2992.928          44.000  
G25  21620605.735   113617014.098        2135.393          47.000  
G29  21539294.247   113189744.236        1109.763          49.000  
G21  26015383.707   136711684.087        3940.389          31.000  
R23  24512706.321   131126655.640        3234.677          32.000  
R10  21498970.790   114601615.563       -3399.475          40.000  
R22  20505373.423   109459037.141        1180.721          50.000  
R11  19268247.612   102963620.598         173.031          48.000  
R21  20382855.100   109072748.102       -2188.716          47.000  
S20  37897386.689   199152115.613         106.228          41.000  
S38  39593017.175   208062711.931          90.281          46.000  
> 2017 11 15 18 47  8.2000000  0 17                     
G20  24442704.454   128447190.876        2974.620          40.000  
G 2  21020310.881   110462428.147       -2099.391          47.000  
G 5  23684394.353   124462368.093        2133.844          44.000  
G 6  24363597.731   128031662.512       -3303.402          35.000  
G12  20665329.268   108597031.496         195.646          50.000  
R12  21499385.522   114845842.252        3602.407          40.000  
G24  22215391.050   116742582.598       -2993.403          44.000  
G25  21620524.522   113616587.008        2135.473          47.000  
G29  21539251.878   113189522.285        1109.769          49.000  
G21  26015235.834   136710896.049        3941.076          31.000  
R23  24512585.304   131126008.823        3234.082          32.000  
R10  21499098.403   114602295.575       -3400.104          40.000  
R22  20505329.204   109458801.021        1180.609          50.000  
R11  19268241.034   102963586.036         172.719          48.000  
R21  20382936.819   109073185.839       -2188.797          47.000  
S20  37897382.606   199152094.387         105.902          41.000  
S38  39593013.789   208062693.872          90.509          46.000  
> 2017 11 15 18 47  8.4000000  0 17                     
G20  24442591.499   128446595.946        2974.447          40.000  
G 2  21020390.960   110462848.030       -2099.619          47.000  
G 5  23684313.070   124461941.348        2133.392          44.000  
G 6  24363723.338   128032323.292       -3303.790          35.000  
G12  20665321.712   108596992.366         195.463          50.000  
R12  21499250.667   114845121.812        3602.267          40.000  
G24  22215505.087   116743181.274       -2993.845          44.000  
G25  21620443.239   113616159.957        2135.073          47.000  
G29  21539209.613   113189300.350        1109.590          49.000  
G21  26015085.012   136710108.029        3940.445          31.000  
R23  24512464.391   131125362.007        3234.188          32.000  
R10  21499225.964   114602975.586       -3400.393          40.000  
R22  20505284.985   109458564.928        1180.265          50.000  
R11  19268234.507   102963551.511         172.334          48.000  
R21  20383018.713   109073623.602       -2188.931          47.000  
S20  37897378.662   199152073.180         105.677          41.000  
S38  39593010.421   208062675.825          90.287          45.000  
> 2017 11 15 18 47  8.6000000  0 17                     
G20  24442478.491   128446001.000        2974.768          40.000  
G 2  21020470.917   110463267.904       -2099.507          47.000  
G 5  23684231.822   124461514.580        2133.881          44.000  
G 6  24363848.962   128032984.006       -3304.142          35.000  
G12  20665314.017   108596953.227         195.530          50.000  
R12  21499115.829   114844401.362        3602.230          40.000  
G24  22215618.984   116743779.946       -2993.369          44.000  
G25  21620361.903   113615732.881        2135.046          47.000  
G29  21539167.349   113189078.386        1109.733          49.000  
G21  26014933.701   136709320.015        3939.711          31.000  
R23  24512343.461   131124715.178        3234.208          32.000  
R10  21499353.595   114603655.605       -3400.334          40.000  
R22  20505240.732   109458328.820        1180.325          50.000  
R11  19268227.946   102963516.993         172.495          48.000  
R21  20383100.502   109074061.349       -2188.871          48.000  
S20  37897374.631   199152051.969         105.947          41.000  
S38  39593007.054   208062657.765          90.218          45.000  
> 2017 11 15 18 47  8.8000000  0 17                     
G20  24442365.362   128445406.097        2974.680          40.000  
G 2  21020550.821   110463687.859       -2099.714          47.000  
G 5  23684150.644   124461087.872        2133.856          44.000  
G 6  24363974.708   128033644.826       -3303.851          34.000  
G12  20665306.461   108596914.149         195.497          50.000  
R12  21498980.939   114843680.986        3601.676          40.000  
G24  22215732.847   116744378.714       -2993.887          43.000  
G25  21620280.568   113615305.866        2134.813          48.000  
G29  21539125.276   113188856.531        1109.329          49.000  
G21  26014785.933   136708531.994        3939.686          31.000  
R23  24512222.514   131124068.467        3233.833          32.000  
R10  21499481.331   114604335.700       -3400.663          40.000  
R22  20505196.495   109458092.802        1180.072          49.000  
R11  19268221.524   102963482.581         171.991          48.000  
R21  20383182.186   109074499.159       -2189.058          48.000  
S20  37897370.460   199152030.762         106.075          41.000  
S38  39593003.756   208062639.753          90.110          45.000  
> 2017 11 15 18 47  9.0000000  0 17                     
G20  24442252.459   128444811.138        2974.945          40.000  
G 2  21020630.761   110464107.776       -2099.585          47.000  
G 5  23684069.326   124460661.109        2134.021          44.000  
G 6  24364100.263   128034305.583       -3304.144          34.000  
G12  20665298.957   108596875.042         195.618          50.000  
R12  21498846.258   114842960.566        3602.329          40.000  
G24  22215846.797   116744977.409       -2993.358          43.000  
G25  21620199.215   113614878.812        2135.153          48.000  
G29  21539082.994   113188634.619        1109.587          49.000  
G21  26014633.697   136707743.928        3940.530          31.000  
R23  24512101.566   131123421.699        3233.494          32.000  
R10  21499609.119   114605015.732       -3400.132          40.000  
R22  20505152.224   109457856.767        1180.305          49.000  
R11  19268215.103   102963448.147         172.174          48.000  
R21  20383264.098   109074936.938       -2188.849          48.000  
S20  37897366.429   199152009.506         106.651          41.000  
S38  39593000.405   208062621.701          90.226          44.000  
> 2017 11 15 18 47  9.2000000  0 17                     
G20  24442139.381   128444216.234        2974.678          41.000  
G 2  21020710.700   110464527.736       -2099.985          47.000  
G 5  23683988.165   124460234.425        2133.167          45.000  
G 6  24364225.956   128034966.329       -3303.912          34.000  
G12  20665291.611   108596835.977         195.182          50.000  
R12  21498711.403   114842240.193        3601.757          40.000  
G24  22215960.729   116745576.158       -2993.658          43.000  
G25  21620117.984   113614451.786        2134.896          48.000  
G29  21539040.713   113188412.725        1109.341          49.000  
G21  26014485.405   136706955.948        3939.281          31.000  
R23  24511980.741   131122774.985        3233.302          33.000  
R10  21499736.767   114605695.885       -3401.104          41.000  
R22  20505108.092   109457620.768        1179.869          49.000  
R11  19268208.716   102963413.770         171.725          48.000  
R21  20383345.992   109075374.739       -2189.096          48.000  
S20  37897362.346   199151988.313         106.160          41.000  
S38  39592997.124   208062603.671          89.882          44.000  
> 2017 11 15 18 47  9.4000000  0 17                     
G20  24442026.409   128443621.319        2974.477          41.000  
G 2  21020790.622   110464947.726       -2099.976          47.000  
G 5  23683906.882   124459807.699        2133.710          45.000  
G 6  24364351.563   128035627.102       -3303.720          33.000  
G12  20665284.124   108596796.935         195.153          50.000  
R12  21498576.687   114841519.872        3601.511          40.000  
G24  22216074.801   116746174.952       -2993.908          43.000  
G25  21620036.788   113614024.798        2134.880          48.000  
G29  21538998.553   113188190.891        1108.982          49.000  
G21  26014339.277   136706167.972        3938.098          31.000  
R23  24511859.968   131122128.281        3233.187          33.000  
R10  21499864.328   114606375.988       -3400.820          41.000  
R22  20505063.891   109457384.841        1179.256          49.000  
R11  19268202.207   102963379.451         171.434          48.000  
R21  20383427.833   109075812.588       -2189.352          48.000  
S20  37897358.175   199151967.085         106.008          41.000  
S38  39592993.634   208062585.689          89.286          43.000  
> 2017 11 15 18 47  9.6000000  0 17                     
G20  24441913.244   128443026.424        2974.652          41.000  
G 2  21020870.631   110465367.740       -2099.952          47.000  
G 5  23683825.494   124459380.979        2133.740          44.000  
G 6  24364477.362   128036287.893       -3304.358          33.000  
G12  20665276.638   108596757.908         195.314          50.000  
R12  21498441.867   114840799.611        3601.453          41.000  
G24  22216188.699   116746773.783       -2993.998          43.000  
G25  21619955.610   113613597.876        2134.577          48.000  
G29  21538956.288   113187969.139        1108.900          49.000  
G21  26014189.502   136705379.952        3940.426          31.000  
R23  24511738.968   131121481.674        3233.058          33.000  
R10  21499992.029   114607056.125       -3400.311          41.000  
R22  20505019.725   109457148.977        1179.284          49.000  
R11  19268195.698   102963345.190         171.425          48.000  
R21  20383509.745   109076250.457       -2189.188          48.000  
S20  37897354.092   199151945.831         106.511          41.000  
S38  39592990.249   208062567.755          89.778          43.000  
> 2017 11 15 18 47  9.8000000  0 17                     
G20  24441800.236   128442431.515        2974.004          41.000  
G 2  21020950.519   110465787.748       -2100.310          47.000  
G 5  23683744.280   124458954.201        2133.679          45.000  
G 6  24364603.195   128036948.594       -3304.259          33.000  
G12  20665269.553   108596718.897         194.704          51.000  
R12  21498307.151   114840079.425        3600.459          40.000  
G24  22216302.544   116747372.632       -2994.720          42.000  
G25  21619874.362   113613170.981        2134.095          48.000  
G29  21538914.041   113187747.446        1107.966          49.000  
G21  26014036.707   136704592.077        3939.345          31.000  
R23  24511618.213   131120835.120        3232.192          33.000  
R10  21500119.607   114607736.284       -3400.920          41.000  
R22  20504975.488   109456913.207        1178.333          48.000  
R11  19268189.172   102963310.970         170.586          48.000  
R21  20383591.848   109076688.351       -2189.816          48.000  
S20  37897350.061   199151924.561         106.525          40.000  
S38  39592986.881   208062549.939          88.585          43.000  
> 2017 11 15 18 47 10.0000000  0 17                     
G20  24441687.229   128441836.616        2974.524          40.000  
G 2  21021030.144   110466207.768       -2100.156          47.000  
G 5  23683663.329   124458527.455        2133.765          46.000  
G 6  24364728.976   128037609.339       -3303.534          33.000  
G12  20665262.556   108596679.911         194.927          51.000  
R12  21498172.366   114839359.331        3599.746          39.000  
G24  22216416.407   116747971.551       -2994.595          42.000  
G25  21619793.044   113612744.183        2133.947          47.000  
G29  21538871.829   113187525.856        1107.910          49.000  
G21  26013881.017   136703804.294        3938.652          31.000  
R23  24511497.265   131120188.768        3231.723          33.000  
R10  21500247.081   114608416.496       -3401.033          41.000  
R22  20504931.374   109456677.568        1177.958          48.000  
R11  19268182.628   102963276.848         170.577          48.000  
R21  20383673.550   109077126.291       -2189.780          47.000  
S20  37897345.890   199151903.317         106.385          40.000  
S38  39592983.374   208062532.198          88.480          43.000  
> 2017 11 15 18 47 10.2000000  0 17                     
G20  24441573.890   128441241.722        2974.495          40.000  
G 2  21021110.101   110466627.834       -2100.458          48.000  
G 5  23683582.360   124458100.700        2133.943          46.000  
G 6  24364854.705   128038270.052       -3303.342          32.000  
G12  20665255.436   108596640.938         194.799          51.000  
R12  21498037.406   114838639.268        3599.859          39.000  
G24  22216530.200   116748570.478       -2994.845          42.000  
G25  21619711.621   113612317.385        2133.898          47.000  
G29  21538829.635   113187304.309        1107.584          49.000  
G21  26013731.625   136703016.481        3937.998          31.000  
R23  24511376.597   131119542.310        3232.309          36.000  
R10  21500374.555   114609096.688       -3400.962          41.000  
R22  20504887.208   109456441.954        1177.718          48.000  
R11  19268176.328   102963242.778         170.178          48.000  
R21  20383755.391   109077564.276       -2190.018          48.000  
S20  37897341.755   199151882.042         106.059          40.000  
S38  39592979.901   208062514.513          88.291          43.000  
> 2017 11 15 18 47 10.4000000  0 17                     
G20  24441460.603   128440646.839        2974.253          40.000  
G 2  21021189.936   110467047.890       -2100.120          47.000  
G 5  23683501.042   124457673.874        2134.142          46.000  
G 6  24364980.434   128038930.787       -3304.126          35.000  
G12  20665248.264   108596601.998         194.714          51.000  
R12  21497902.655   114837919.201        3600.342          40.000  
G24  22216644.115   116749169.468       -2994.909          42.000  
G25  21619630.373   113611890.646        2134.194          47.000  
G29  21538787.388   113187082.862        1107.384          49.000  
G21  26013584.136   136702228.676        3939.857          31.000  
R23  24511255.702   131118896.199        3229.626          29.000  
R10  21500502.099   114609776.895       -3401.158          40.000  
R22  20504843.093   109456206.450        1177.670          48.000  
R11  19268170.029   102963208.749         170.303          48.000  
R21  20383837.076   109078002.286       -2189.884          48.000  
S20  37897337.793   199151860.772         106.356          42.000  
S38  39592976.498   208062496.935          87.883          43.000  
> 2017 11 15 18 47 10.6000000  0 17                     
G20  24441347.368   128440051.946        2974.314          39.000  
G 2  21021269.840   110467467.997       -2100.794          47.000  
G 5  23683420.125   124457247.111        2134.067          46.000  
G 6  24365106.198   128039591.572       -3303.724          35.000  
G12  20665240.342   108596563.055         194.850          50.000  
R12  21497768.027   114837199.300        3599.629          40.000  
G24  22216758.187   116749768.472       -2994.937          42.000  
G25  21619549.247   113611463.948        2133.109          48.000  
G29  21538745.455   113186861.414        1106.969          49.000  
G21  26013436.455   136701440.996        3939.124          31.000  
R23  24511135.086   131118249.778        3232.564          38.000  
R10  21500629.764   114610457.137       -3401.080          42.000  
R22  20504799.014   109455970.981        1176.979          48.000  
R11  19268163.625   102963174.773         169.642          48.000  
R21  20383918.970   109078440.296       -2190.101          48.000  
S20  37897333.797   199151839.448         106.559          41.000  
S38  39592973.218   208062479.321          87.601          43.000  
> 2017 11 15 18 47 10.8000000  0 17                     
G20  24441234.064   128439457.016        2974.115          39.000  
G 2  21021349.553   110467888.049       -2100.327          47.000  
G 5  23683338.755   124456820.228        2134.218          45.000  
G 6  24365231.857   128040252.174       -3303.203          35.000  
G12  20665232.908   108596524.082         194.373          51.000  
R12  21497633.451   114836479.353        3599.103          42.000  
G24  22216872.189   116750367.442       -2994.956          42.000  
G25  21619468.225   113611037.235        2133.322          49.000  
G29  21538703.557   113186640.011        1107.007          49.000  
G21  26013285.423   136700653.471        3936.685          31.000  
R23  24511014.261   131117603.748        3228.316          32.000  
R10  21500757.483   114611137.341       -3400.898          40.000  
R22  20504755.057   109455735.540        1177.116          48.000  
R11  19268157.255   102963140.797         169.565          48.000  
R21  20384000.741   109078878.294       -2190.404          48.000  
S20  37897329.749   199151818.115         106.107          42.000  
S38  39592969.920   208062461.760          87.966          43.000  
> 2017 11 15 18 47 11.0000000  0 17                     
G20  24441120.864   128438862.193        2973.942          39.000  
G 2  21021429.353   110468308.197       -2100.926          47.000  
G 5  23683257.507   124456393.437        2134.399          46.000  
G 6  24365357.638   128040912.983       -3304.953          35.000  
G12  20665225.561   108596485.190         194.525          50.000  
R12  21497498.805   114835759.577        3598.970          40.000  
G24  22216986.244   116750966.574       -2996.094          42.000  
G25  21619387.291   113610610.661        2132.705          48.000  
G29  21538661.642   113186418.753        1105.787          49.000  
G21  26013139.923   136699865.739        3938.068          34.000  
R23  24510893.505   131116957.603        3228.905          35.000  
R10  21500885.009   114611817.638       -3401.687          40.000  
R22  20504710.978   109455500.267        1176.021          48.000  
R11  19268150.851   102963106.945         169.132          48.000  
R21  20384082.687   109079316.388       -2190.262          47.000  
S20  37897325.753   199151796.740         106.429          42.000  
S38  39592966.621   208062444.363          86.448          42.000  
> 2017 11 15 18 47 11.2000000  0 17                     
G20  24441007.560   128438267.322        2974.354          39.000  
G 2  21021509.257   110468728.331       -2100.743          46.000  
G 5  23683176.293   124455966.652        2133.887          45.000  
G 6  24365483.437   128041573.788       -3302.745          32.000  
G12  20665218.389   108596446.337         194.120          50.000  
R12  21497363.897   114835039.897        3598.521          39.000  
G24  22217100.211   116751565.705       -2995.263          41.000  
G25  21619305.903   113610184.100        2133.034          47.000  
G29  21538619.429   113186197.553        1105.848          49.000  
G21  26012991.876   136699078.303        3938.398          31.000  
R23  24510772.680   131116311.599        3230.034          35.000  
R10  21501012.500   114612497.976       -3401.773          40.000  
R22  20504666.829   109455265.048        1175.517          47.000  
R11  19268144.447   102963073.140         169.114          48.000  
R21  20384164.494   109079754.534       -2191.036          48.000  
S20  37897321.739   199151775.361         107.489          41.000  
S38  39592963.480   208062427.023          86.323          42.000  
> 2017 11 15 18 47 11.4000000  0 17                     
G20  24440894.413   128437672.509        2974.172          39.000  
G 2  21021589.231   110469148.537       -2100.564          47.000  
G 5  23683094.940   124455539.804        2133.981          45.000  
G 6  24365609.061   128042234.488       -3302.875          32.000  
G12  20665211.008   108596407.479         194.502          51.000  
R12  21497229.234   114834320.142        3598.257          39.000  
G24  22217213.777   116752164.940       -2996.303          41.000  
G25  21619224.515   113609757.639        2132.369          47.000  
G29  21538577.060   113185976.471        1105.856          49.000  
G21  26012841.455   136698291.0031       3934.010          31.000  
R23  24510651.994   131115665.668        3230.301          35.000  
R10  21501140.061   114613178.322       -3401.722          42.000  
R22  20504622.732   109455029.945        1175.776          48.000  
R11  19268138.339   102963039.451         168.432          48.000  
R21  20384246.318   109080192.721       -2190.389          48.000  
S20  37897317.743   199151753.993         107.873          41.000  
S38  39592960.182   208062409.828          86.171          41.000  
> 2017 11 15 18 47 11.6000000  0 17                     
G20  24440781.109   128437077.597        2974.430          39.000  
G 2  21021669.188   110469568.785       -2101.130          47.000  
G 5  23683013.657   124455112.986        2133.890          44.000  
G 6  24365734.999   128042895.347       -3304.530          32.000  
G12  20665203.522   108596368.706         193.890          51.000  
R12  21497094.501   114833600.505        3598.831          40.000  
G24  22217327.640   116752764.113       -2996.079          41.000  
G25  21619143.354   113609331.217        2131.929          48.000  
G29  21538534.831   113185755.396        1105.205          48.000  
G21  26012687.788   136697503.3711       3938.478          30.000  
R23  24510531.448   131115019.854        3231.111          36.000  
R10  21501267.640   114613858.666       -3401.825          42.000  
R22  20504578.653   109454794.898        1175.861          48.000  
R11  19268131.918   102963005.769         168.571          48.000  
R21  20384328.125   109080630.976       -2191.582          47.000  
S20  37897313.834   199151732.676         107.256          42.000  
S38  39592956.640   208062392.642          86.041          41.000  
> 2017 11 15 18 47 11.8000000  0 17                     
G20  24440667.752   128436482.689        2975.043          39.000  
G 2  21021749.250   110469989.024       -2100.863          48.000  
G 5  23682932.304   124454686.197        2134.063          45.000  
G 6  24365860.536   128043555.955       -3304.868          31.000  
G12  20665196.175   108596329.921         194.099          51.000  
R12  21496959.802   114832880.959        3597.587          40.000  
G24  22217441.607   116753363.388       -2995.462          41.000  
G25  21619062.316   113608904.765        2132.295          48.000  
G29  21538492.409   113185534.336        1105.098          49.000  
G21  26012533.319                1       3936.532          30.000  
R23  24510410.780   131114374.042        3230.271          36.000  
R10  21501395.201   114614539.061       -3401.458          41.000  
R22  20504534.678   109454559.924        1174.872          48.000  
R11  19268125.496   102962972.158         167.938          49.000  
R21  20384410.019   109081069.158       -2190.652          48.000  
S20  37897309.646   199151711.314         106.989          41.000  
S38  39592953.098   208062375.427          85.751          42.000  
> 2017 11 15 18 47 12.0000000  0 17                     
G20  24440554.500   128435887.906        2974.432          39.000  
G 2  21021829.120   110470409.358       -2101.731          48.000  
G 5  23682851.074   124454259.429        2134.528          45.000  
G 6  24365986.090   128044216.778       -3301.836          31.000  
G12  20665189.282   108596291.188         193.621          51.000  
R12  21496825.139   114832161.434        3597.217          40.000  
G24  22217555.557   116753962.601       -2996.568          41.000  
G25  21618981.312   113608478.383        2131.665          48.000  
G29  21538450.633   113185313.285        1105.314          50.000  
G21  26012379.687   136695928.4791       3938.084          30.000  
R23  24510290.112   131113728.1531       3231.338          36.000  
R10  21501522.902   114615219.534       -3401.940          41.000  
R22  20504490.686   109454324.924        1174.766          48.000  
R11  19268119.266   102962938.589         168.008          48.000  
R21  20384491.947   109081507.471       -2191.633          48.000  
S20  37897305.423   199151689.977         107.148          41.000  
S38  39592949.607   208062358.168          86.152          42.000  
> 2017 11 15 18 47 12.2000000  0 17                     
G20  24440441.562   128435293.160        2973.406          40.000  
G 2  21021909.007   110470829.739       -2102.105          48.000  
G 5  23682769.825   124453832.732        2133.805          45.000  
G 6  24366111.871   128044877.843       -3304.918          32.000  
G12  20665181.988   108596252.481         193.394          51.000  
R12  21496690.388   114831441.895        3597.583          42.000  
G24  22217669.716   116754561.907       -2996.480          43.000  
G25  21618900.098   113608051.968        2132.045          48.000  
G29  21538408.701   113185092.231        1105.282          50.000  
G21  26012227.626   136695141.1321       3936.566          30.000  
R23  24510169.496   131113082.3831       3231.531          36.000  
R10  21501650.445   114615899.987       -3402.747          41.000  
R22  20504446.677   109454089.887        1175.058          48.000  
R11  19268112.914   102962905.047         167.213          49.000  
R21  20384573.806   109081945.751       -2191.732          46.000  
S20  37897301.462   199151668.720         106.035          41.000  
S38  39592946.170   208062340.900          86.282          41.000  
> 2017 11 15 18 47 12.4000000  0 17                     
G20  24440328.258   128434698.210        2975.237          37.000  
G 2  21021989.068   110471250.042       -2101.816          48.000  
G 5  23682688.909   124453406.053        2132.832          46.000  
G 6  24366237.583   128045538.774       -3306.378          35.000  
G12  20665174.520   108596213.755         193.701          51.000  
R12  21496555.690   114830722.363        3597.903          42.000  
G24  22217783.928   116755161.131       -2995.934          41.000  
G25  21618818.868   113607625.545        2132.360          48.000  
G29  21538366.576   113184871.182        1105.504          49.000  
G21  26012074.361   136694353.6601       3936.277          30.000  
R23  24510048.635                1       3230.611          33.000  
R10  21501778.093   114616580.501       -3401.958          40.000  
R22  20504402.720   109453854.913        1175.248          48.000  
R11  19268106.772   102962871.526         167.766          49.000  
R21  20384655.753   109082384.063       -2191.417          47.000  
S20  37897297.414   199151647.399         106.406          41.000  
S38  39592942.627   208062323.662          86.686          41.000  
> 2017 11 15 18 47 12.6000000  0 17                     
G20  24440215.006   128434103.419        2974.364          39.000  
G 2  21022069.147   110471670.400       -2101.336          48.000  
G 5  23682607.661   124452979.289        2133.258          46.000  
G 6  24366363.364   128046199.508       -3304.353          35.000  
G12  20665167.190   108596175.050         193.263          51.000  
R12  21496421.009   114830002.850        3597.349          41.000  
G24  22217898.018   116755760.447       -2996.610          43.000  
G25  21618737.759   113607199.156        2131.578          48.000  
G29  21538324.486   113184650.127        1104.999          50.000  
G21  26011927.465   136693566.1281       3938.671          30.000  
R23  24509926.013                1       3229.659          33.000  
R10  21501905.759   114617260.919       -3402.323          41.000  
R22  20504358.641   109453619.943        1174.187          48.000  
R11  19268100.455   102962838.050         167.139          48.000  
R21  20384737.629   109082822.332       -2191.442          47.000  
S20  37897293.557   199151626.114         106.421          41.000  
S38  39592939.085   208062306.424          86.110          41.000  
> 2017 11 15 18 47 12.8000000  0 17                     
G20  24440101.737   128433508.526        2973.730          39.000  
G 2  21022149.209   110472090.830       -2102.106          47.000  
G 5  23682526.552   124452552.542        2133.394          46.000  
G 6  24366489.232   128046860.390       -3303.334          31.000  
G12  20665159.722   108596136.347         193.931          51.000  
R12  21496286.172   114829283.320        3597.748          39.000  
G24  22218012.002   116756359.729       -2996.569          42.000  
G25  21618656.668   113606772.747        2132.363          48.000  
G29  21538282.466   113184429.094        1105.696          50.000  
G21  26011771.530   136692778.8601       3936.347          30.000  
R23  24509806.985                1       3228.842          36.000  
R10  21502033.408   114617941.433       -3401.765          40.000  
R22  20504314.474   109453384.994        1174.896          48.000  
R11  19268094.382   102962804.567         167.676          48.000  
R21  20384819.628   109083260.643       -2191.260          48.000  
S20  37897289.509   199151604.783         106.486          41.000  
S38  39592935.769   208062289.184          86.034          41.000  
> 2017 11 15 18 47 13.0000000  0 17                     
G20  24439988.450   128432913.632        2974.513          39.000  
G 2  21022229.096   110472511.262       -2102.419          47.000  
G 5  23682445.705   124452125.911        2132.957          46.000  
G 6  24366614.333   128047521.230       -3304.166          31.000  
G12  20665152.428   108596097.715         193.066          51.000  
R12  21496151.404   114828563.793        3597.274          41.000  
G24  22218125.935   116756959.049       -2996.373          43.000  
G25  21618575.577   113606346.340        2132.158          48.000  
G29  21538240.603   113184208.045        1105.372          50.000  
G21  26011620.201                1       3938.320          30.000  
R23  24509686.317                1       3225.735          32.000  
R10  21502160.986   114618622.012       -3403.263          40.000  
R22  20504270.377   109453150.029        1174.872          48.000  
R11  19268088.030   102962771.178         166.945          49.000  
R21  20384901.591   109083698.970       -2191.763          48.000  
S20  37897285.408   199151583.524         106.603          41.000  
S38  39592932.489   208062271.820          86.974          42.000  
> 2017 11 15 18 47 13.2000000  0 17                     
G20  24439875.477   128432318.896        2973.911          40.000  
G 2  21022309.227   110472931.764       -2102.730          47.000  
G 5  23682364.701   124451699.301        2132.692          46.000  
G 6  24366741.510   128048182.211       -3304.285          25.000  
G12  20665145.046   108596059.068         192.842          50.000  
R12  21496016.758   114827844.220        3597.708          42.000  
G24  22218240.269   116757558.359       -2996.676          43.000  
G25  21618494.311   113605919.916        2132.222          48.000  
G29  21538198.879   113183986.916        1105.582          50.000  
G21  26011468.576                1       3936.969          29.000  
R23  24509569.767   131109687.1173       3231.305          38.000  
R10  21502288.617   114619302.617       -3403.513          40.000  
R22  20504226.263   109452915.027        1175.190          48.000  
R11  19268081.591   102962737.787         166.689          48.000  
R21  20384983.415   109084137.298       -2191.690          48.000  
S20  37897281.499   199151562.305         105.806          41.000  
S38  39592929.138   208062254.470          87.412          41.000  
> 2017 11 15 18 47 13.4000000  0 17                     
G20  24439762.051   128431724.023        2974.702          37.000  
G 2  21022389.289   110473352.299       -2102.648          47.000  
G 5  23682283.610   124451272.750        2132.731          46.000  
G 6  24366867.954   128048843.1231      -3305.469          26.000  
G12  20665137.804   108596020.497         192.982          51.000  
R12  21495882.182   114827124.712        3597.864          42.000  
G24  22218354.149   116758157.682       -2996.791          41.000  
G25  21618413.202   113605493.488        2132.257          48.000  
G29  21538156.911   113183765.802        1105.721          49.000  
G21  26011321.227                1       3938.041          29.000  
R23  24509450.110   131109041.3543       3230.858          35.000  
R10  21502416.300   114619983.264       -3403.368          41.000  
R22  20504182.097   109452680.067        1175.243          47.000  
R11  19268075.274   102962704.450         166.709          48.000  
R21  20385065.205   109084575.618       -2191.459          48.000  
S20  37897277.608   199151541.103         105.976          41.000  
S38  39592925.805   208062237.108          87.315          41.000  
> 2017 11 15 18 47 13.6000000  0 17                     
G20  24439648.834   128431129.267        2973.483          39.000  
G 2  21022469.141   110473772.890       -2102.705          46.000  
G 5  23682202.658   124450846.294        2132.751          47.000  
G 6  24366998.377   128049504.1581      -3303.916          31.000  
G12  20665130.388   108595981.923         193.074          51.000  
R12  21495747.536   114826405.151        3597.803          42.000  
G24  22218468.151   116758757.048       -2996.728          41.000  
G25  21618331.902   113605067.042        2132.008          48.000  
G29  21538114.909   113183544.640        1105.635          48.000  
G21  26011165.833                1       3936.447          29.000  
R23  24509326.825   131108395.4623       3228.076          35.000  
R10  21502544.071   114620663.982       -3403.711          41.000  
R22  20504138.087   109452445.024        1174.805          48.000  
R11  19268068.905   102962671.108         166.781          48.000  
R21  20385146.994   109085013.986       -2191.772          47.000  
S20  37897273.594   199151519.949         106.024          41.000  
S38  39592922.298   208062219.684          86.443          41.000  
> 2017 11 15 18 47 13.8000000  0 17                     
G20  24439535.530   128430534.399        2974.695          39.000  
G 2  21022548.976   110474193.436       -2103.220          45.000  
G 5  23682121.410   124450419.657        2132.881          45.000  
G 6  24367126.340   128050165.1451      -3305.150          31.000  
G12  20665123.059   108595943.340         192.913          50.000  
R12  21495612.803   114825685.647        3597.637          41.000  
G24  22218582.328   116759356.377       -2996.449          42.000  
G25  21618250.811   113604640.644        2132.073          48.000  
G29  21538072.470   113183323.587        1105.452          47.000  
G21  26011026.684   136688841.1221       3939.007          33.000  
R23  24509208.285   131107749.4732       3230.978          37.000  
R10  21502671.806   114621344.566       -3402.676          41.000  
R22  20504094.095   109452210.088        1175.174          48.000  
R11  19268062.815   102962637.820         166.245          48.000  
R21  20385228.940   109085452.350       -2191.872          47.000  
S20  37897269.458   199151498.717         106.011          41.000  
S38  39592919.227   208062202.268          87.486          43.000  
> 2017 11 15 18 47 14.0000000  0 17                     
G20  24439422.138   128429939.585        2973.777          37.000  
G 2  21022628.985   110474614.027       -2102.562          47.000  
G 5  23682040.249   124449993.099        2133.628          47.000  
G 6  24367253.098   128050826.1121      -3306.510          31.000  
G12  20665115.730   108595904.775         192.779          51.000  
R12  21495478.192   114824966.202        3597.582          40.000  
G24  22218696.383   116759955.792       -2996.960          41.000  
G25  21618169.650   113604214.301        2131.712          48.000  
G29  21538030.118   113183102.578        1105.176          48.000  
G21  26010877.625                1       3935.587          28.000  
R23  24509087.233   131107103.7993       3229.564          36.000  
R10  21502799.594   114622025.301       -3403.483          41.000  
R22  20504050.190   109451975.266        1174.120          48.000  
R11  19268056.637   102962604.629         166.220          48.000  
R21  20385310.991   109085890.695       -2191.849          47.000  
S20  37897265.288   199151477.532         106.253          40.000  
S38  39592916.155   208062185.009          86.715          43.000  
> 2017 11 15 18 47 14.2000000  0 17                     
G20  24439308.973   128429344.689        2974.479          39.000  
G 2  21022709.099   110475034.574       -2103.426          47.000  
G 5  23681959.298   124449566.508        2133.077          46.000  
G 6  24367377.588   128051486.7951      -3301.517          30.000  
G12  20665108.436   108595866.203         192.827          50.000  
R12  21495343.546   114824246.764        3596.504          40.000  
G24  22218810.367   116760555.226       -2997.571          41.000  
G25  21618088.332   113603787.943        2131.342          48.000  
G29  21537987.976   113182881.629        1104.058          48.000  
G21  26010728.931                1       3938.458          28.000  
R23  24508963.023   131106458.1292       3229.345          38.000  
R10  21502927.278   114622705.948       -3403.439          41.000  
R22  20504006.356   109451740.480        1173.420          48.000  
R11  19268050.233   102962571.436         165.526          48.000  
R21  20385392.972   109086329.117       -2192.033          47.000  
S20  37897261.204   199151456.282         106.250          40.000  
S38  39592913.067   208062167.774          86.026          43.000  
> 2017 11 15 18 47 14.4000000  0 17                     
G20  24439196.193   128428749.901        2974.623          40.000  
G 2  21022789.161   110475455.164       -2102.541          46.000  
G 5  23681878.189   124449139.865        2133.289          46.000  
G 6  24367502.846                1      -3305.654          25.000  
G12  20665101.037   108595827.657         193.040          50.000  
R12  21495208.725   114823527.409        3596.517          40.000  
G24  22218924.370   116761154.624       -2996.722          42.000  
G25  21618007.293   113603361.639        2132.098          49.000  
G29  21537945.886   113182660.651        1105.315          49.000  
G21  26010572.281                1       3937.096          28.000  
R23  24508839.894   131105812.4802       3227.609          36.000  
R10  21503054.908   114623386.688       -3403.069          42.000  
R22  20503962.276   109451505.713        1173.853          48.000  
R11  19268044.178   102962538.281         166.135          48.000  
R21  20385474.814   109086767.517       -2191.974          48.000  
S20  37897257.261   199151435.086         106.583          40.000  
S38  39592909.751   208062150.540          86.409          43.000  
> 2017 11 15 18 47 14.6000000  0 17                     
G20  24439083.080   128428154.953        2974.043          40.000  
G 2  21022869.222   110475875.703       -2102.967          46.000  
G 5  23681797.203   124448713.162        2133.594          47.000  
G 6  24367631.646                1      -3303.387          26.000  
G12  20665093.498   108595789.059         192.611          51.000  
R12  21495073.940   114822808.007        3596.840          42.000  
G24  22219038.616   116761754.017       -2997.238          42.000  
G25  21617926.359   113602935.318        2131.404          48.000  
G29  21537903.761   113182439.718        1104.945          49.000  
G21  26010426.502                1       3936.553          29.000  
R23  24508718.702   131105166.8542       3226.994          33.000  
R10  21503182.557   114624067.326       -3403.510          42.000  
R22  20503918.075   109451270.936        1173.691          48.000  
R11  19268037.948   102962505.133         165.293          48.000  
R21  20385556.725   109087205.885       -2191.704          48.000  
S20  37897253.247   199151413.761         106.655          40.000  
S38  39592906.453   208062133.331          86.409          43.000  
> 2017 11 15 18 47 14.8000000  0 17                     
G20  24438970.055   128427559.991        2975.824          39.000  
G 2  21022949.406   110476296.272       -2102.716          46.000  
G 5  23681716.129   124448286.505        2133.511          47.000  
G 6  24367758.421                1      -3303.125          31.000  
G12  20665086.082   108595750.454         192.769          50.000  
R12  21494939.242   114822088.662        3596.529          42.000  
G24  22219152.898   116762353.475       -2997.714          42.000  
G25  21617845.337   113602508.980        2131.327          49.000  
G29  21537861.427   113182218.800        1104.434          48.000  
G21  26010283.567   136684903.9691       3937.427          30.000  
R23  24508597.371   131104521.1012       3226.590          35.000  
R10  21503310.100   114624748.027       -3403.525          40.000  
R22  20503873.996   109451036.221        1173.255          48.000  
R11  19268031.841   102962471.984         165.723          48.000  
R21  20385638.758   109087644.279       -2192.413          48.000  
S20  37897249.094   199151392.462         106.476          40.000  
S38  39592903.120   208062116.158          85.519          43.000  
> 2017 11 15 18 47 15.0000000  0 17                     
G20  24438856.995   128426965.102        2974.245          39.000  
G 2  21023029.415   110476716.930       -2102.837          46.000  
G 5  23681634.950   124447859.822        2133.676          47.000  
G 6  24367879.718                1      -3306.367          31.000  
G12  20665078.980   108595711.931         192.861          51.000  
R12  21494804.404   114821369.369        3596.991          42.000  
G24  22219266.795   116762952.862       -2996.934          41.000  
G25  21617764.159   113602082.712        2131.568          49.000  
G29  21537819.197   113181997.865        1105.242          49.000  
G21  26010132.780   136684116.5641       3938.191          30.000  
R23  24508480.070   131103875.4412       3228.179          37.000  
R10  21503437.784   114625428.723       -3404.103          42.000  
R22  20503830.143   109450801.528        1173.615          48.000  
R11  19268025.663   102962438.947         165.089          48.000  
R21  20385720.670   109088082.685       -2191.663          48.000  
S20  37897245.168   199151371.180         105.783          41.000  
S38  39592899.909   208062098.955          85.783          43.000  
> 2017 11 15 18 47 15.2000000  0 17                     
G20  24438743.935   128426370.225        2973.508          39.000  
G 2  21023109.390   110477137.623       -2104.026          47.000  
G 5  23681553.772   124447433.261        2133.059          47.000  
G 6  24368001.346   128054791.5761      -3306.089          32.000  
G12  20665071.720   108595673.445         192.185          51.000  
R12  21494669.723   114820650.130        3595.834          42.000  
G24  22219380.798   116763552.366       -2998.085          41.000  
G25  21617683.190   113601656.438        2131.351          49.000  
G29  21537777.317   113181777.012        1104.396          49.000  
G21  26009982.306   136683329.2491       3935.647          30.000  
R23  24508357.849   131103229.7582       3228.054          35.000  
R10  21503565.624   114626109.466       -3403.657          42.000  
R22  20503786.273   109450566.888        1173.057          49.000  
R11  19268019.538   102962405.913         165.046          48.000  
R21  20385802.773   109088521.172       -2192.669          47.000  
S20  37897241.224   199151349.930         105.738          41.000  
S38  39592896.855   208062081.757          85.542          44.000  
> 2017 11 15 18 47 15.4000000  0 17                     
G20  24438630.858   128425775.328        2974.983          39.000  
G 2  21023189.399   110477558.274       -2103.026          47.000  
G 5  23681472.506   124447006.653        2133.391          46.000  
G 6  24368125.260   128055452.4711      -3303.827          31.000  
G12  20665064.409   108595634.977         192.340          51.000  
R12  21494535.182   114819930.860        3595.934          43.000  
G24  22219494.870   116764151.852       -2996.847          42.000  
G25  21617602.204   113601230.150        2131.506          49.000  
G29  21537735.314   113181556.161        1104.470          49.000  
G21  26009835.969   136682541.7671       3937.509          30.000  
R23  24508232.574   131102584.1742       3229.105          35.000  
R10  21503693.307   114626790.272       -3403.512          41.000  
R22  20503742.508   109450332.272        1173.293          49.000  
R11  19268013.256   102962372.968         164.614          48.000  
R21  20385884.719   109088959.662       -2192.381          48.000  
S20  37897237.210   199151328.669         106.628          40.000  
S38  39592893.837   208062064.580          86.015          44.000  
> 2017 11 15 18 47 15.6000000  0 17                     
G20  24438517.711   128425180.380        2975.516          38.000  
G 2  21023269.583   110477979.045       -2103.679          48.000  
G 5  23681391.520   124446580.116        2132.797          47.000  
G 6  24368251.914                1      -3306.527          25.000  
G12  20665056.888   108595596.537         192.348          51.000  
R12  21494400.553   114819211.634        3596.381          43.000  
G24  22219609.064   116764751.403       -2997.593          42.000  
G25  21617521.025   113600803.945        2131.205          48.000  
G29  21537693.329   113181335.349        1104.761          49.000  
G21  26009679.510   136681754.4561       3936.582          30.000  
R23  24508106.636   131101938.7412       3226.547          32.000  
R10  21503821.043   114627471.132       -3404.243          41.000  
R22  20503698.534   109450097.711        1173.308          48.000  
R11  19268007.079   102962340.043         164.681          48.000  
R21  20385966.665   109089398.200       -2192.509          46.000  
S20  37897233.214   199151307.447         106.591          40.000  
S38  39592890.922   208062047.426          85.893          44.000  
> 2017 11 15 18 47 15.8000000  0 17                     
G20  24438404.633   128424585.602        2973.588          38.000  
G 2  21023349.540   110478399.800       -2104.045          47.000  
G 5  23681309.975   124446153.552        2132.244          44.000  
G 6  24368377.293                1      -3300.645          25.000  
G12  20665049.698   108595558.082         191.846          51.000  
R12  21494265.942   114818492.397        3596.106          43.000  
G24  22219723.310   116765350.904       -2997.435          42.000  
G25  21617439.882   113600377.724        2131.169          49.000  
G29  21537651.396   113181114.486        1104.216          49.000  
G21  26009528.060   136680967.0081       3938.151          30.000  
R23  24507987.747   131101293.0222       3228.378          38.000  
R10  21503948.744   114628151.952       -3404.521          41.000  
R22  20503654.611   109449863.096        1173.065          48.000  
R11  19268001.006   102962307.138         164.596          48.000  
R21  20386048.559   109089836.659       -2192.447          47.000  
S20  37897229.183   199151286.227         105.386          40.000  
S38  39592887.694   208062030.184          86.788          43.000  
> 2017 11 15 18 47 16.0000000  0 17                     
G20  24438291.504   128423990.622        2974.986          39.000  
G 2  21023429.531   110478820.541       -2103.325          47.000  
G 5  23681228.587   124445727.006        2132.603          44.000  
G 6  24368503.057                1      -3304.416          24.000  
G12  20665042.526   108595519.609         192.833          51.000  
R12  21494131.436   114817773.120        3596.555          41.000  
G24  22219837.295   116765950.389       -2997.302          42.000  
G25  21617358.756   113599951.416        2131.924          48.000  
G29  21537609.498   113180893.591        1104.773          49.000  
G21  26009380.989   136680179.579        3938.036          34.000  
R23  24507867.812   131100647.4272       3229.102          36.000  
R10  21504076.549   114628832.859       -3404.264          41.000  
R22  20503610.672   109449628.506        1173.091          48.000  
R11  19267994.811   102962274.214         164.763          48.000  
R21  20386130.471   109090275.150       -2192.087          47.000  
S20  37897225.257   199151264.932         106.833          40.000  
S38  39592884.588   208062012.943          87.126          43.000  
> 2017 11 15 18 47 16.2000000  0 17                     
G20  24438178.321   128423395.790        2974.824          40.000  
G 2  21023509.558   110479241.315       -2103.826          47.000  
G 5  23681147.234   124445300.430        2132.723          45.000  
G 6  24368626.587                1      -3307.192          25.000  
G12  20665035.232   108595481.183         192.497          51.000  
R12  21493996.825   114817053.900        3596.463          42.000  
G24  22219951.472   116766549.920       -2997.680          42.000  
G25  21617277.560   113599525.163        2131.503          48.000  
G29  21537567.565   113180672.727        1104.316          50.000  
G21  26009228.841   136679392.231        3936.373          33.000  
R23  24507749.238   131100001.9322       3226.944          36.000  
R10  21504204.180   114629513.675       -3404.333          40.000  
R22  20503566.907   109449393.919        1172.875          48.000  
R11  19267988.634   102962241.351         164.628          48.000  
R21  20386212.539   109090713.650       -2192.079          47.000  
S20  37897221.052   199151243.670         107.371          40.000  
S38  39592881.307   208061995.744          86.264          42.000  
> 2017 11 15 18 47 16.4000000  0 17                     
G20  24438064.982   128422800.814        2974.164          40.000  
G 2  21023589.410   110479662.057       -2103.733          47.000  
G 5  23681066.108   124444873.855        2133.260          45.000  
G 6  24368757.656                1      -3305.889          31.000  
G12  20665027.938   108595442.718         191.921          51.000  
R12  21493862.144   114816334.683        3595.830          42.000  
G24  22220065.527   116767149.436       -2997.562          42.000  
G25  21617196.399   113599098.928        2131.007          49.000  
G29  21537525.667   113180451.854        1104.343          50.000  
G21  26009079.642   136678604.773        3936.461          33.000  
R23  24507629.599   131099356.2542       3227.204          38.000  
R10  21504331.828   114630194.509       -3404.140          40.000  
R22  20503523.002   109449159.357        1172.289          48.000  
R11  19267982.544   102962208.494         163.707          48.000  
R21  20386294.398   109091152.134       -2192.456          47.000  
S20  37897217.055   199151222.346         106.682          40.000  
S38  39592878.027   208061978.504          86.167          43.000  
> 2017 11 15 18 47 16.6000000  0 17                     
G20  24437951.783   128422205.827        2975.522          40.000  
G 2  21023669.489   110480082.783       -2103.674          47.000  
G 5  23680984.878   124444447.225        2133.436          45.000  
G 6  24368881.011                1      -3305.164          34.000  
G12  20665020.556   108595404.223         192.226          51.000  
R12  21493727.289   114815615.463        3596.181          42.000  
G24  22220179.354   116767748.930       -2997.006          41.000  
G25  21617115.063   113598672.604        2131.548          48.000  
G29  21537483.577   113180230.987        1104.613          49.000  
G21  26008927.929   136677817.361        3937.571          28.000  
R23  24507511.287   131098710.7102       3227.617          38.000  
R10  21504459.511   114630875.401       -3404.086          40.000  
R22  20503479.097   109448924.793        1172.868          47.000  
R11  19267976.436   102962175.629         164.598          49.000  
R21  20386376.449   109091590.587       -2192.749          48.000  
S20  37897212.885   199151200.983         106.615          42.000  
S38  39592874.606   208061961.280          86.594          43.000  
> 2017 11 15 18 47 16.8000000  0 17                     
G20  24437838.496   128421610.934        2974.525          40.000  
G 2  21023749.725   110480503.625       -2104.440          47.000  
G 5  23680903.751   124444020.730        2132.537          46.000  
G 6  24369005.798                1      -3305.046          34.000  
G12  20665013.122   108595365.818         192.071          51.000  
R12  21493592.626   114814896.195        3596.654          43.000  
G24  22220293.706   116768348.517       -2998.396          42.000  
G25  21617033.955   113598246.334        2131.437          48.000  
G29  21537441.470   113180010.100        1104.745          49.000  
G21  26008777.631   136677029.897        3936.235          29.000  
R23  24507395.138   131098065.0282       3228.377          40.000  
R10  21504587.177   114631556.293       -3405.242          41.000  
R22  20503435.227   109448690.227        1172.739          48.000  
R11  19267970.259   102962142.863         163.517          49.000  
R21  20386458.343   109092029.085       -2192.401          48.000  
S20  37897208.801   199151179.699         105.693          42.000  
S38  39592871.151   208061944.076          85.630          42.000  
> 2017 11 15 18 47 17.0000000  0 18                     
G20  24437725.471   128421015.982        2974.895          41.000  
G 2  21023829.595   110480924.439       -2104.363          46.000  
G 5  23680822.992   124443594.201        2132.674          47.000  
G 6  24369132.364                1      -3304.802          34.000  
G12  20665005.619   108595327.436         191.901          51.000  
R12  21493457.980   114814177.019        3596.412          43.000  
G24  22220407.673   116768948.003       -2996.537          41.000  
G25  21616952.846   113597820.095        2131.584          49.000  
G29  21537399.118   113179789.257        1104.498          49.000  
G21  26008631.049   136676242.336        3938.542          29.000  
R23  24507274.068   131097419.4272       3230.016          39.000  
G31  25491248.269                1       3484.000          19.000  
R10  21504714.826   114632237.207       -3404.322          41.000  
R22  20503391.340   109448455.665        1173.178          49.000  
R11  19267964.203   102962110.101         164.097          48.000  
R21  20386540.254   109092467.617       -2192.658          47.000  
S20  37897204.840   199151158.387         106.645          40.000  
S38  39592867.696   208061926.772          85.881          41.000  
> 2017 11 15 18 47 17.2000000  0 18                     
G20  24437612.167   128420420.991        2974.314          38.000  
G 2  21023909.569   110481345.350       -2104.775          47.000  
G 5  23680741.744   124443167.685        2132.333          46.000  
G 6  24369259.070   128061310.9323      -3303.546          34.000  
G12  20664998.534   108595289.061         191.580          51.000  
R12  21493323.369   114813457.880        3595.549          42.000  
G24  22220521.920   116769547.610       -2998.565          41.000  
G25  21616871.737   113597393.892        2130.409          49.000  
G29  21537357.360   113179568.423        1104.149          50.000  
G21  26008478.359   136675455.0861       3935.505          29.000  
R23  24507153.103   131096773.9962       3227.165          37.000  
G31  25491115.141                1       3484.000          19.000  
R10  21504842.613   114632918.190       -3405.173          41.000  
R22  20503347.505   109448221.203        1172.710          48.000  
R11  19267958.009   102962077.396         162.997          48.000  
R21  20386622.218   109092906.162       -2192.644          48.000  
S20  37897200.844   199151137.110         106.049          40.000  
S38  39592864.433   208061909.529          86.312          42.000  
> 2017 11 15 18 47 17.4000000  0 18                     
G20  24437498.915   128419826.081        2974.619          38.000  
G 2  21023989.649   110481766.243       -2104.792          47.000  
G 5  23680660.897   124442741.254        2131.617          47.000  
G 6  24369385.584   128061972.0762      -3305.385          36.000  
G12  20664991.345   108595250.673         191.838          51.000  
R12  21493188.636   114812738.631        3595.707          42.000  
G24  22220635.974   116770147.206       -2997.732          41.000  
G25  21616790.803   113596967.603        2131.769          49.000  
G29  21537315.741   113179347.548        1104.460          50.000  
G21  26008330.155   136674667.4121       3938.733          29.000  
R23  24507031.057   131096128.3952       3227.078          37.000  
G31  25490986.289                1       3484.000          20.000  
R10  21504970.419   114633599.217       -3405.292          42.000  
R22  20503303.496   109447986.676        1172.934          48.000  
R11  19267952.006   102962044.706         163.421          48.000  
R21  20386704.146   109093344.696       -2192.750          46.000  
S20  37897196.796   199151115.885         106.540          40.000  
S38  39592860.925   208061892.203          87.028          42.000  
> 2017 11 15 18 47 17.6000000  0 18                     
G20  24437385.959   128419231.189        2974.570          39.000  
G 2  21024069.989   110482187.248       -2104.845          47.000  
G 5  23680579.683   124442314.867        2132.081          45.000  
G 6  24369511.278   128062633.2242      -3305.908          36.000  
G12  20664983.963   108595212.381         191.499          50.000  
R12  21493054.060   114812019.388        3596.512          43.000  
G24  22220750.116   116770746.811       -2998.224          41.000  
G25  21616709.799   113596541.358        2131.348          48.000  
G29  21537273.930   113179126.621        1104.757          50.000  
G21  26008173.818   136673879.8551       3938.700          29.000  
R23  24506913.006   131095482.6412       3228.783          37.000  
G31  25490854.173                1       3484.000          20.000  
R10  21505098.137   114634280.247       -3405.050          41.000  
R22  20503259.626   109447752.124        1172.655          48.000  
R11  19267945.863   102962012.051         163.478          48.000  
R21  20386785.953   109093783.270       -2192.408          46.000  
S20  37897192.643   199151094.742         105.610          40.000  
S38  39592857.540   208061874.839          87.853          42.000  
> 2017 11 15 18 47 17.8000000  0 18                     
G20  24437273.022   128418636.273        2974.476          39.000  
G 2  21024150.225   110482608.274       -2105.143          47.000  
G 5  23680498.540   124441888.578        2131.600          46.000  
G 6  24369639.066   128063294.2882      -3304.955          34.000  
G12  20664976.512   108595174.138         191.384          51.000  
R12  21492919.466   114811300.227        3596.064          43.000  
G24  22220864.415   116771346.419       -2998.244          41.000  
G25  21616628.586   113596115.078        2131.748          48.000  
G29  21537231.928   113178905.692        1104.758          50.000  
G21  26008024.898   136673092.3111       3937.494          29.000  
R23  24506792.826   131094836.9702       3228.402          37.000  
G31  25490724.396                1       3484.000          21.000  
R10  21505225.890   114634961.374       -3406.039          41.000  
R22  20503215.564   109447517.544        1173.326          48.000  
R11  19267939.564   102961979.452         162.990          48.000  
R21  20386868.056   109094221.844       -2192.766          48.000  
S20  37897188.646   199151073.568         106.017          41.000  
S38  39592854.085   208061857.484          86.664          41.000  
> 2017 11 15 18 47 18.0000000  0 18                     
G20  24437159.839   128418041.423        2973.900          39.000  
G 2  21024230.619   110483029.412       -2106.022          47.000  
G 5  23680417.484   124441462.339        2130.931          45.000  
G 6  24369766.470   128063955.5492      -3306.155          34.000  
G12  20664969.410   108595135.933         190.867          51.000  
R12  21492784.838   114810581.011        3595.896          44.000  
G24  22220978.627   116771946.082       -2998.133          41.000  
G25  21616547.478   113595688.812        2131.095          49.000  
G29  21537189.838   113178684.756        1104.490          50.000  
G21  26007875.245   136672304.8401       3936.880          29.000  
R23  24506670.395   131094191.3142       3227.681          37.000  
G31  25490594.706                1       3484.000          22.000  
R10  21505353.695   114635642.576       -3406.159          41.000  
R22  20503171.415   109447283.027        1172.423          47.000  
R11  19267933.561   102961946.905         162.440          48.000  
R21  20386950.212   109094660.483       -2193.498          48.000  
S20  37897184.738   199151052.507         105.021          42.000  
S38  39592850.804   208061840.026          87.364          42.000  
> 2017 11 15 18 47 18.2000000  0 18                     
G20  24437046.762   128417446.604        2973.982          38.000  
G 2  21024310.593   110483450.563       -2106.017          45.000  
G 5  23680336.654   124441036.209        2130.300          46.000  
G 6  24369892.967   128064616.8552      -3306.625          34.000  
G12  20664962.220   108595097.785         190.525          51.000  
R12  21492650.279   114809861.863        3595.705          44.000  
G24  22221092.786   116772545.738       -2998.645          41.000  
G25  21616466.229   113595262.598        2131.124          49.000  
G29  21537147.643   113178463.829        1104.622          49.000  
G21  26007722.922   136671517.261        3937.875          29.000  
R23  24506549.902   131093545.5762       3229.028          39.000  
G31  25490462.189                1       3484.000          23.000  
R10  21505481.518   114636323.792       -3406.495          39.000  
R22  20503127.493   109447048.482        1172.748          48.000  
R11  19267927.750   102961914.403         162.381          49.000  
R21  20387032.123   109095099.161       -2193.588          48.000  
S20  37897180.759   199151031.487         104.755          42.000  
S38  39592847.489   208061822.592          87.168          42.000  
> 2017 11 15 18 47 18.4000000  0 18                     
G20  24436933.597   128416851.775        2973.989          36.000  
G 2  21024390.655   110483871.796       -2106.305          45.000  
G 5  23680255.458   124440610.101        2130.078          44.000  
G 6  24370016.968   128065278.1522      -3306.802          30.000  
G12  20664955.031   108595059.675         190.478          50.000  
R12  21492515.790   114809142.675        3596.111          43.000  
G24  22221206.910   116773145.419       -2998.544          41.000  
G25  21616385.033   113594836.378        2130.957          49.000  
G29  21537105.536   113178242.865        1104.795          49.000  
G21  26007573.426   136670729.727        3937.542          29.000  
R23  24506430.001   131092899.8022       3229.424          37.000  
G31  25490329.253                1       3484.000          24.000  
R10  21505609.219   114637005.083       -3406.320          38.000  
R22  20503083.605   109446813.933        1172.704          48.000  
R11  19267921.834   102961881.951         162.191          48.000  
R21  20387114.035   109095537.856       -2193.426          48.000  
S20  37897176.676   199151010.520         104.600          41.000  
S38  39592844.226   208061805.101          87.172          42.000  
> 2017 11 15 18 47 18.6000000  0 18                     
G20  24436820.206   128416256.932        2974.371          36.000  
G 2  21024470.803   110484293.117       -2106.773          46.000  
G 5  23680174.350   124440184.074        2129.770          45.000  
G 6  24370141.772   128065939.5192      -3306.278          30.000  
G12  20664947.754   108595021.616         190.413          51.000  
R12  21492381.319   114808423.490        3596.088          43.000  
G24  22221320.843   116773745.131       -2998.239          41.000  
G25  21616304.099   113594410.137        2131.337          49.000  
G29  21537063.184   113178021.894        1105.216          49.000  
G21  26007426.024   136669942.115        3938.135          29.000  
R23  24506307.850   131092254.1032       3229.049          34.000  
G31  25490193.229                1       3484.000          24.000  
R10  21505737.077   114637686.480       -3407.112          40.000  
R22  20503039.736   109446579.390        1172.989          48.000  
R11  19267915.814   102961849.525         162.192          48.000  
R21  20387196.120   109095976.574       -2193.425          49.000  
S20  37897172.610   199150989.613         104.634          41.000  
S38  39592840.997   208061787.550          87.935          42.000  
> 2017 11 15 18 47 18.8000000  0 18                     
G20  24436706.937   128415662.132        2973.661          36.000  
G 2  21024551.005   110484714.441       -2106.722          46.000  
G 5  23680093.433   124439758.091        2129.802          45.000  
G 6  24370269.019   128066600.9432      -3308.003          30.000  
G12  20664940.285   108594983.571         190.006          51.000  
R12  21492246.586   114807704.277        3596.015          43.000  
G24  22221434.915   116774344.855       -2998.579          41.000  
G25  21616223.026   113593983.888        2131.103          49.000  
G29  21537020.798   113177800.881        1105.085          49.000  
G21  26007278.692   136669154.502        3938.015          29.000  
R23  24506184.512   131091608.3582       3229.065          34.000  
G31  25490056.576                1       3484.000          25.000  
R10  21505864.830   114638367.834       -3406.897          40.000  
R22  20502995.866   109446344.831        1172.629          48.000  
R11  19267909.881   102961817.129         161.856          48.000  
R21  20387278.206   109096415.293       -2193.814          49.000  
S20  37897168.683   199150968.733         104.377          40.000  
S38  39592837.612   208061769.971          88.297          42.000  
> 2017 11 15 18 47 19.0000000  0 17                     
G20  24436593.824   128415067.319        2973.840          37.000  
G 2  21024631.328   110485135.842       -2107.285          46.000  
G 5  23680012.586   124439332.167        2129.571          46.000  
G 6  24370393.090   128067262.3172      -3306.964          30.000  
G12  20664932.991   108594945.559         189.810          50.000  
R12  21492112.027   114806985.071        3595.918          43.000  
G24  22221548.987   116774944.574       -2998.654          40.000  
G25  21616141.934   113593557.624        2131.063          49.000  
G29  21536978.708   113177579.828        1105.198          49.000  
G21  26007128.149   136668366.784        3938.647          29.000  
R23  24506062.535   131090962.5102       3229.888          34.000  
R10  21505992.618   114639049.265       -3407.164          40.000  
R22  20502951.891   109446110.213        1172.928          48.000  
R11  19267903.669   102961784.754         161.680          48.000  
R21  20387360.222   109096854.028       -2193.918          49.000  
S20  37897164.670   199150947.930         103.619          40.000  
S38  39592834.174   208061752.333          88.276          42.000  
> 2017 11 15 18 47 19.2000000  0 18                     
G20  24436480.694   128414472.512        2974.152          37.000  
G 2  21024711.372   110485557.300       -2107.337          46.000  
G 5  23679931.774   124438906.278        2129.135          46.000  
G 6  24370514.875   128067923.7912      -3307.356          29.000  
G12  20664925.906   108594907.606         189.666          50.000  
R12  21491977.434   114806265.925        3595.603          43.000  
G24  22221662.885   116775544.318       -2998.962          40.000  
G25  21616060.739   113593131.409        2131.029          49.000  
G29  21536936.687   113177358.835        1104.873          49.000  
G21  26006977.239   136667579.150        3937.606          29.000  
R23  24505940.837   131090316.7182       3229.352          34.000  
G31  25489796.969                1       3479.939          26.000  
R10  21506120.441   114639730.746       -3407.781          40.000  
R22  20502907.934   109445875.656        1172.710          48.000  
R11  19267897.491   102961752.456         161.320          48.000  
R21  20387442.256   109097292.821       -2194.118          49.000  
S20  37897160.552   199150927.128         103.820          40.000  
S38  39592830.824   208061734.702          87.966          42.000  
> 2017 11 15 18 47 19.4000000  0 18                     
G20  24436367.600   128413877.756        2973.944          37.000  
G 2  21024791.538   110485978.780       -2107.426          47.000  
G 5  23679850.980   124438480.418        2129.420          46.000  
G 6  24370639.801   128068585.3302      -3308.097          29.000  
G12  20664918.926   108594869.664         189.610          50.000  
R12  21491842.718   114805546.759        3595.938          43.000  
G24  22221777.079   116776144.068       -2998.932          40.000  
G25  21615979.735   113592705.173        2131.231          49.000  
G29  21536894.545   113177137.815        1105.026          49.000  
G21  26006829.750   136666791.4081       3937.746          28.000  
R23  24505819.017   131089670.8982       3229.409          34.000  
G31  25489663.039                1       3482.460          25.000  
R10  21506248.316   114640412.246       -3407.721          40.000  
R22  20502864.012   109445641.099        1172.666          47.000  
R11  19267891.541   102961720.170         161.316          48.000  
R21  20387524.359   109097731.607       -2193.928          49.000  
S20  37897156.521   199150906.352         103.980          40.000  
S38  39592827.334   208061717.054          88.175          42.000  
> 2017 11 15 18 47 19.6000000  0 18                     
G20  24436254.365   128413283.011        2973.693          37.000  
G 2  21024871.809   110486400.329       -2107.614          47.000  
G 5  23679770.133   124438054.581        2129.303          47.000  
G 6  24370764.134   128069246.8942      -3307.872          29.000  
G12  20664911.807   108594831.785         189.484          50.000  
R12  21491707.915   114804827.689        3595.481          43.000  
G24  22221891.081   116776743.868       -2998.813          40.000  
G25  21615898.539   113592279.022        2130.950          49.000  
G29  21536852.246   113176916.865        1104.757          48.000  
G21  26006681.580                1       3938.779          28.000  
R23  24505697.633   131089025.1302       3228.667          34.000  
G31  25489534.867                1       3482.645          25.000  
R10  21506376.086   114641093.771       -3407.635          40.000  
R22  20502819.985   109445406.607        1172.523          47.000  
R11  19267885.433   102961687.972         161.063          48.000  
R21  20387606.480   109098170.469       -2194.177          49.000  
S20  37897152.629   199150885.604         103.732          39.000  
S38  39592823.966   208061699.453          88.335          42.000  
> 2017 11 15 18 47 19.8000000  0 18                     
G20  24436141.270   128412688.320        2973.724          38.000  
G 2  21024952.080   110486821.974       -2108.232          47.000  
G 5  23679689.269   124437628.850        2128.637          47.000  
G 6  24370888.694   128069908.5112      -3308.230          29.000  
G12  20664904.408   108594794.008         188.892          50.000  
R12  21491573.322   114804108.708        3594.739          43.000  
G24  22222005.363   116777343.757       -2999.529          40.000  
G25  21615817.378   113591852.966        2130.360          49.000  
G29  21536810.069   113176696.000        1104.338          48.000  
G21  26006536.970   136665216.0901       3937.249          28.000  
R23  24505576.214   131088379.4782       3228.194          33.000  
G31  25489402.891                1       3481.602          25.000  
R10  21506503.839   114641775.425       -3408.137          40.000  
R22  20502775.958   109445172.227        1171.770          47.000  
R11  19267879.361   102961655.892         160.288          48.000  
R21  20387688.723   109098609.431       -2194.818          49.000  
S20  37897148.616   199150864.920         103.756          39.000  
S38  39592820.842   208061681.960          87.330          43.000  
> 2017 11 15 18 47 20.0000000  0 18                     
G20  24436028.228   128412093.611        2973.804          39.000  
G 2  21025032.386   110487243.589       -2108.098          47.000  
G 5  23679608.544   124437203.097        2128.784          47.000  
G 6  24371013.411   128070570.0902      -3307.766          29.000  
G12  20664897.201   108594756.184         188.975          50.000  
R12  21491438.798   114803389.664        3595.048          43.000  
G24  22222119.504   116777943.624       -2999.371          41.000  
G25  21615736.426   113591426.817        2130.739          49.000  
G29  21536767.926   113176475.069        1104.763          48.000  
G21  26006387.562                1       3938.430          28.000  
R23  24505455.145   131087733.7852       3226.844          29.000  
G31  25489271.840                1       3482.460          25.000  
R10  21506631.715   114642457.063       -3408.340          41.000  
R22  20502732.053   109444937.792        1172.222          47.000  
R11  19267873.427   102961623.778         160.548          48.000  
R21  20387770.861   109099048.333       -2194.613          49.000  
S20  37897144.445   199150844.188         103.724          39.000  
S38  39592817.527   208061664.380          87.874          43.000  
> 2017 11 15 18 47 20.2000000  0 17                     
G20  24435915.203   128411498.917        2973.352          39.000  
G 2  21025112.692   110487665.263       -2108.129          47.000  
G 5  23679527.715   124436777.355        2128.772          48.000  
G 6  24371141.652   128071231.7902      -3308.845          30.000  
G12  20664890.116   108594718.415         188.996          50.000  
R12  21491304.222   114802670.693        3595.209          42.000  
G24  22222233.577   116778543.522       -2999.556          41.000  
G25  21615655.335   113591000.760        2130.462          49.000  
G29  21536725.749   113176254.208        1104.470          47.000  
G21  26006241.050   136663640.8611       3937.311          28.000  
R23  24505333.360   131087088.016        3227.904          29.000  
R10  21506759.590   114643138.715       -3408.405          41.000  
R22  20502688.114   109444703.431        1171.974          47.000  
R11  19267867.459   102961591.745         160.187          48.000  
R21  20387853.051   109099487.290       -2194.622          50.000  
S20  37897140.344   199150823.468         103.638          39.000  
S38  39592814.316   208061646.859          87.605          43.000  
> 2017 11 15 18 47 20.4000000  0 17                     
G20  24435802.213   128410904.210        2973.371          39.000  
G 2  21025193.050   110488086.979       -2108.948          47.000  
G 5  23679446.746   124436351.654        2128.213          48.000  
G 6  24371268.323   128071893.4122      -3309.432          30.000  
G12  20664883.066   108594680.668         188.517          50.000  
R12  21491169.611   114801951.755        3594.289          42.000  
G24  22222347.666   116779143.444       -2999.957          42.000  
G25  21615574.279   113590574.697        2129.993          49.000  
G29  21536683.642   113176033.340        1104.001          47.000  
G21  26006085.847   136662853.3031       3937.804          29.000  
R23  24505212.447   131086442.284        3227.965          29.000  
R10  21506887.308   114643820.420       -3408.601          41.000  
R22  20502644.174   109444469.094        1171.358          47.000  
R11  19267861.422   102961559.748         159.708          48.000  
R21  20387935.207   109099926.275       -2195.231          50.000  
S20  37897136.453   199150802.782         103.438          39.000  
S38  39592811.157   208061629.328          87.271          43.000  
> 2017 11 15 18 47 20.6000000  0 17                     
G20  24435689.187   128410309.483        2974.166          39.000  
G 2  21025273.444   110488508.678       -2108.434          47.000  
G 5  23679365.585   124435925.950        2128.812          48.000  
G 6  24371398.711   128072555.0082      -3308.101          31.000  
G12  20664875.981   108594642.924         188.825          50.000  
R12  21491034.808   114801232.787        3594.768          42.000  
G24  22222461.756   116779743.391       -2999.596          42.000  
G25  21615493.153   113590148.608        2130.441          49.000  
G29  21536641.709   113175812.466        1104.407          47.000  
G21  26005936.334   136662065.7241       3937.837          30.000  
R23  24505091.482   131085796.558        3228.638          30.000  
R10  21507015.113   114644502.141       -3408.384          41.000  
R22  20502600.165   109444234.756        1171.771          47.000  
R11  19267855.366   102961527.769         159.826          48.000  
R21  20388017.240   109100365.243       -2194.905          50.000  
S20  37897132.317   199150782.069         103.656          38.000  
S38  39592807.894   208061611.791          87.836          43.000  
> 2017 11 15 18 47 20.8000000  0 17                     
G20  24435576.128   128409714.847        2973.324          39.000  
G 2  21025353.767   110488930.485       -2109.371          47.000  
G 5  23679284.650   124435500.308        2127.827          48.000  
G 6  24371522.154   128073216.7122      -3308.623          31.000  
G12  20664868.722   108594605.257         188.114          50.000  
R12  21490900.162   114800513.917        3594.346          42.000  
G24  22222575.932   116780343.404       -3000.379          42.000  
G25  21615412.062   113589722.626        2129.781          49.000  
G29  21536599.741   113175591.682        1103.859          47.000  
G21  26005787.257   136661278.228        3937.012          33.000  
R23  24504970.744   131085150.995        3228.284          34.000  
R10  21507142.919   114645183.950       -3409.434          41.000  
R22  20502556.330   109444000.521        1170.988          47.000  
R11  19267849.329   102961495.892         159.103          48.000  
R21  20388099.361   109100804.300       -2195.505          51.000  
S20  37897128.496   199150761.412         102.952          38.000  
S38  39592804.736   208061594.317          87.455          43.000  
> 2017 11 15 18 47 21.0000000  0 17                     
G20  24435463.015   128409120.200        2973.282          39.000  
G 2  21025434.265   110489352.307       -2109.097          47.000  
G 5  23679203.751   124435074.695        2128.045          46.000  
G 6  24371652.909   128073878.4462      -3308.368          32.000  
G12  20664861.532   108594567.615         188.176          50.000  
R12  21490765.551   114799795.070        3594.438          42.000  
G24  22222690.022   116780943.426       -3000.288          42.000  
G25  21615330.953   113589296.642        2129.932          49.000  
G29  21536557.669   113175370.904        1103.892          47.000  
G21  26005635.876   136660490.681        3937.799          33.000  
R23  24504850.477   131084505.436        3228.496          34.000  
R10  21507270.899   114645865.778       -3409.200          41.000  
R22  20502512.599   109443766.301        1171.068          47.000  
R11  19267843.361   102961464.060         159.082          48.000  
R21  20388181.395   109101243.375       -2195.386          51.000  
S20  37897124.360   199150740.747         103.625          38.000  
S38  39592801.595   208061576.851          87.622          43.000  
> 2017 11 15 18 47 21.2000000  0 17                     
G20  24435349.885   128408525.602        2972.838          39.000  
G 2  21025514.588   110489774.205       -2109.728          47.000  
G 5  23679122.835   124434649.139        2127.789          46.000  
G 6  24371782.110   128074540.2092      -3308.948          33.000  
G12  20664854.552   108594530.026         187.748          51.000  
R12  21490630.957   114799076.296        3593.650          42.000  
G24  22222804.024   116781543.512       -3000.536          42.000  
G25  21615249.862   113588870.697        2129.342          49.000  
G29  21536515.596   113175150.175        1103.469          47.000  
G21  26005484.111   136659703.247        3937.385          33.000  
R23  24504730.228   131083859.961        3227.241          34.000  
R10  21507398.634   114646547.673       -3409.607          41.000  
R22  20502468.695   109443532.138        1170.764          48.000  
R11  19267837.445   102961432.304         158.604          48.000  
R21  20388263.480   109101682.495       -2195.809          51.000  
S20  37897120.329   199150720.191         102.953          39.000  
S38  39592798.227   208061559.436          87.120          43.000  
> 2017 11 15 18 47 21.4000000  0 17                     
G20  24435236.668   128407930.955        2973.103          38.000  
G 2  21025594.946   110490196.103       -2109.820          46.000  
G 5  23679042.127   124434223.559        2127.775          45.000  
G 6  24371910.945   128075201.9902      -3309.325          33.000  
G12  20664847.590   108594492.438         187.717          51.000  
R12  21490496.399   114798357.505        3593.946          43.000  
G24  22222918.184   116782143.588       -3000.457          42.000  
G25  21615168.858   113588444.752        2129.517          49.000  
G29  21536473.698   113174929.454        1103.359          48.000  
G21  26005332.556   136658915.748        3937.095          33.000  
R23  24504609.804   131083214.423        3227.510          35.000  
R10  21507526.422   114647229.572       -3409.612          41.000  
R22  20502424.842   109443297.994        1170.628          48.000  
R11  19267831.529   102961400.573         158.456          48.000  
R21  20388345.531   109102121.623       -2195.938          51.000  
S20  37897116.420   199150699.590         102.958          40.000  
S38  39592794.911   208061542.002          86.948          43.000  
> 2017 11 15 18 47 21.6000000  0 17                     
G20  24435123.504   128407336.322        2972.875          36.000  
G 2  21025675.270   110490618.024       -2109.538          46.000  
G 5  23678961.193   124433798.050        2127.490          43.000  
G 6  24372038.977   128075863.7242      -3308.785          34.000  
G12  20664840.627   108594454.868         187.848          51.000  
R12  21490361.770   114797638.788        3593.759          43.000  
G24  22223032.360   116782743.714       -3000.613          43.000  
G25  21615087.976   113588018.830        2129.705          48.000  
G29  21536431.765   113174708.768        1103.409          48.000  
G21  26005180.408   136658128.250        3937.825          32.000  
R23  24504489.118   131082568.958        3227.597          35.000  
R10  21507654.297   114647911.510       -3409.493          41.000  
R22  20502380.972   109443063.909        1170.484          48.000  
R11  19267825.527   102961368.894         158.344          48.000  
R21  20388427.617   109102560.767       -2195.653          51.000  
S20  37897112.529   199150679.001         102.710          40.000  
S38  39592791.456   208061524.600          87.173          43.000  
> 2017 11 15 18 47 21.8000000  0 17                     
G20  24435010.200   128406741.637        2973.719          36.000  
G 2  21025755.506   110491039.928       -2109.428          47.000  
G 5  23678880.469   124433372.447        2128.244          43.000  
G 6  24372162.682   128076525.4572      -3308.269          34.000  
G12  20664833.595   108594417.265         188.012          51.000  
R12  21490227.299   114796919.971        3594.025          43.000  
G24  22223146.607   116783343.806       -3000.515          43.000  
G25  21615007.060   113587592.860        2129.854          48.000  
G29  21536389.920   113174488.014        1103.812          48.000  
G21  26005028.294   136657340.763        3937.699          32.000  
R23  24504368.694   131081923.459        3227.124          35.000  
R10  21507782.190   114648593.435       -3409.640          42.000  
R22  20502337.033   109442829.767        1170.629          48.000  
R11  19267819.524   102961337.185         158.411          48.000  
R21  20388509.633   109102999.861       -2195.447          51.000  
S20  37897108.637   199150658.343         103.328          40.000  
S38  39592788.088   208061507.150          87.324          43.000  
> 2017 11 15 18 47 22.0000000  0 17                     
G20  24434896.895   128406146.907        2973.779          36.000  
G 2  21025835.742   110491461.788       -2109.095          47.000  
G 5  23678799.639   124432946.832        2128.087          40.000  
G 6  24372286.753   128077187.1292      -3307.898          34.000  
G12  20664826.300   108594379.612         188.552          51.000  
R12  21490092.618   114796201.137        3594.798          43.000  
G24  22223260.784   116783943.825       -2999.785          44.000  
G25  21614926.038   113587166.827        2130.530          47.000  
G29  21536347.847   113174267.218        1104.396          48.000  
G21  26004878.484   136656553.141        3938.437          32.000  
R23  24504248.253   131081277.867        3227.854          35.000  
R10  21507910.135   114649275.281       -3409.243          42.000  
R22  20502293.198   109442595.577        1171.298          49.000  
R11  19267813.818   102961305.450         159.005          48.000  
R21  20388591.440   109103438.910       -2194.876          51.000  
S20  37897104.781   199150637.640         103.582          40.000  
S38  39592784.773   208061489.623          88.148          43.000  
> 2017 11 15 18 47 22.2000000  0 17                     
G20  24434783.643   128405552.119        2973.583          33.000  
G 2  21025915.995   110491883.674       -2109.741          47.000  
G 5  23678718.845   124432521.227        2128.138          40.000  
G 6  24372410.719   128077848.8152      -3308.741          34.000  
G12  20664819.163   108594341.967         188.214          51.000  
R12  21489958.112   114795482.313        3594.040          43.000  
G24  22223374.995   116784543.848       -2999.988          44.000  
G25  21614844.999   113586740.815        2129.971          47.000  
G29  21536305.932   113174046.428        1103.900          48.000  
G21  26004733.298   136655765.585        3938.266          33.000  
R23  24504127.672   131080632.289        3227.825          36.000  
R10  21508038.045   114649957.137       -3409.436          42.000  
R22  20502249.380   109442361.405        1170.923          49.000  
R11  19267807.884   102961273.751         158.443          48.000  
R21  20388673.421   109103877.971       -2195.368          51.000  
S20  37897100.837   199150616.892         103.587          41.000  
S38  39592781.597   208061472.093          87.715          43.000  
> 2017 11 15 18 47 22.4000000  0 18                     
G20  24434670.496   128404957.305        2974.213          33.000  
G 2  21025996.249   110492305.532       -2109.565          47.000  
G 5  23678637.998   124432095.569        2127.443          39.000  
G 6  24372536.186   128078510.4572      -3308.264          35.000  
G12  20664812.305   108594304.309         188.021          51.000  
R12  21489823.536   114794763.444        3594.169          43.000  
G24  22223489.242   116785143.876       -3000.047          44.000  
G25  21614763.961   113586314.756        2129.961          47.000  
G29  21536264.121   113173825.615        1103.838          49.000  
G21  26004583.418   136654977.960        3937.824          33.000  
R23  24504007.073   131079986.686        3228.190          36.000  
G31  25487682.230                1       3480.313          23.000  
R10  21508165.868   114650638.989       -3409.142          42.000  
R22  20502205.493   109442127.230        1170.712          49.000  
R11  19267801.847   102961242.051         158.235          48.000  
R21  20388755.629   109104317.003       -2195.561          51.000  
S20  37897096.946   199150596.134         104.023          41.000  
S38  39592778.281   208061454.536          87.834          43.000  
> 2017 11 15 18 47 22.6000000  0 18                     
G20  24434557.314   128404362.501        2974.598          33.000  
G 2  21026076.520   110492727.496       -2109.739          47.000  
G 5  23678557.221   124431669.921        2128.482          38.000  
G 6  24372661.793   128079172.2022      -3308.883          35.000  
G12  20664805.308   108594266.715         187.882          51.000  
R12  21489688.907   114794044.719        3593.698          43.000  
G24  22223603.506   116785743.905       -3000.115          44.000  
G25  21614683.079   113585888.798        2129.612          47.000  
G29  21536222.241   113173604.882        1103.636          49.000  
G21  26004434.533   136654190.370        3937.575          33.000  
R23  24503886.615   131079341.152        3227.720          36.000  
G31  25487551.057                1       3480.517          24.000  
R10  21508293.918   114651320.869       -3409.150          42.000  
R22  20502161.588   109441893.124        1170.500          49.000  
R11  19267795.879   102961210.436         158.095          48.000  
R21  20388837.662   109104756.124       -2195.662          50.000  
S20  37897093.141   199150575.372         103.977          41.000  
S38  39592774.966   208061437.039          87.454          43.000  
> 2017 11 15 18 47 22.8000000  0 18                     
G20  24434444.237   128403767.656        2974.882          33.000  
G 2  21026156.808   110493149.468       -2109.686          47.000  
G 5  23678476.374   124431244.252        2128.714          38.000  
G 6  24372784.241   128079833.9092      -3308.427          35.000  
G12  20664798.066   108594229.112         188.209          51.000  
R12  21489554.262   114793326.007        3593.557          43.000  
G24  22223717.718   116786343.838       -2999.255          44.000  
G25  21614602.110   113585462.847        2129.800          47.000  
G29  21536180.500   113173384.135        1103.965          49.000  
G21  26004285.857   136653402.683        3939.175          33.000  
R23  24503766.295   131078695.496        3228.684          36.000  
G31  25487418.627                1       3481.578          25.000  
R10  21508421.985   114652002.676       -3408.617          42.000  
R22  20502117.806   109441659.002        1170.765          49.000  
R11  19267789.806   102961178.808         158.346          48.000  
R21  20388919.556   109105195.259       -2195.513          50.000  
S20  37897089.041   199150554.552         104.678          41.000  
S38  39592771.615   208061419.478          88.008          41.000  
> 2017 11 15 18 47 23.0000000  0 18                     
G20  24434331.002   128403172.766        2974.702          33.000  
G 2  21026237.271   110493571.507       -2110.408          47.000  
G 5  23678395.440   124430818.562        2128.173          38.000  
G 6  24372907.911   128080495.7972      -3309.922          34.000  
G12  20664790.493   108594191.566         187.632          51.000  
R12  21489419.947   114792607.373        3592.703          43.000  
G24  22223831.964   116786943.778       -2999.542          44.000  
G25  21614521.193   113585036.970        2129.151          47.000  
G29  21536138.602   113173163.456        1103.226          49.000  
G21  26004131.580   136652614.960        3938.437          32.000  
R23  24503645.819   131078049.869        3228.550          36.000  
G31  25487285.604                1       3479.844          25.000  
R10  21508550.052   114652684.471       -3408.805          42.000  
R22  20502074.023   109441424.942        1170.194          49.000  
R11  19267783.890   102961147.246         157.741          48.000  
R21  20389001.450   109105634.493       -2196.390          50.000  
S20  37897085.027   199150533.744         104.151          41.000  
S38  39592768.230   208061401.903          88.001          41.000  
> 2017 11 15 18 47 23.2000000  0 18                     
G20  24434217.523   128402577.726        2974.383          33.000  
G 2  21026317.700   110493993.603       -2110.690          47.000  
G 5  23678314.296   124430392.881        2128.053          37.000  
G 6  24373030.883   128081157.6832      -3309.764          34.000  
G12  20664782.832   108594154.063         187.395          50.000  
R12  21489285.406   114791888.804        3592.747          43.000  
G24  22223946.281   116787543.739       -2999.941          44.000  
G25  21614440.242   113584611.154        2129.090          47.000  
G29  21536096.721   113172942.807        1103.318          49.000  
G21  26003979.903   136651827.177        3938.613          32.000  
R23  24503525.116   131077404.330        3227.504          36.000  
G31  25487152.598                1       3481.866          24.000  
R10  21508678.032   114653366.329       -3409.547          42.000  
R22  20502030.188   109441190.923        1170.099          49.000  
R11  19267778.045   102961115.744         157.210          48.000  
R21  20389083.379   109106073.771       -2196.474          50.000  
S20  37897081.066   199150512.915         104.104          41.000  
S38  39592764.775   208061384.375          87.496          42.000  
> 2017 11 15 18 47 23.4000000  0 18                     
G20  24434104.080   128401982.679        2976.483          33.000  
G 2  21026397.866   110494415.769       -2110.792          46.000  
G 5  23678232.978   124429967.257        2128.094          37.000  
G 6  24373156.821   128081819.6112      -3309.851          34.000  
G12  20664775.451   108594116.598         187.434          50.000  
R12  21489150.847   114791170.321        3592.478          44.000  
G24  22224060.475   116788143.621       -2999.300          45.000  
G25  21614359.168   113584185.380        2128.847          48.000  
G29  21536054.858   113172722.190        1103.099          49.000  
G21  26003830.878   136651039.449        3939.438          32.000  
R23  24503404.692   131076758.723        3228.486          36.000  
G31  25487019.820                1       3480.160          25.000  
R10  21508805.959   114654048.109       -3408.765          42.000  
R22  20501986.318   109440956.939        1169.989          50.000  
R11  19267772.181   102961084.292         157.224          48.000  
R21  20389165.569   109106513.118       -2196.778          50.000  
S20  37897077.035   199150492.086         104.584          41.000  
S38  39592761.546   208061366.878          87.543          43.000  
> 2017 11 15 18 47 23.6000000  0 18                     
G20  24433990.915   128401387.737        2973.752          33.000  
G 2  21026477.962   110494838.015       -2111.347          46.000  
G 5  23678151.660   124429541.426        2128.692          35.000  
G 6  24373283.387   128082481.6222      -3309.511          34.000  
G12  20664768.436   108594079.204         186.889          51.000  
R12  21489016.202   114790451.985        3591.674          44.000  
G24  22224174.861   116788743.585       -2999.287          45.000  
G25  21614278.077   113583759.721        2128.330          47.000  
G29  21536012.838   113172501.672        1102.675          49.000  
G21  26003682.778   136650251.687        3938.788          32.000  
R23  24503284.268   131076113.117        3227.531          38.000  
G31  25486888.454                1       3481.378          25.000  
R10  21508933.765   114654729.926       -3409.656          42.000  
R22  20501942.553   109440723.020        1169.796          49.000  
R11  19267766.545   102961052.916         156.989          48.000  
R21  20389247.568   109106952.574       -2197.370          49.000  
S20  37897073.248   199150471.295         104.173          41.000  
S38  39592757.987   208061349.346          88.012          41.000  
> 2017 11 15 18 47 23.8000000  0 18                     
G20  24433877.663   128400792.394        2976.199          33.000  
G 2  21026558.303   110495260.236       -2111.196          47.000  
G 5  23678070.918   124429115.770        2128.555          41.000  
G 6  24373409.308   128083143.7162      -3310.679          34.000  
G12  20664761.403   108594041.784         186.924          51.000  
R12  21488881.922   114789733.584        3591.864          45.000  
G24  22224289.160   116789343.389       -2999.468          45.000  
G25  21614197.073   113583334.023        2128.306          47.000  
G29  21535970.905   113172281.083        1102.870          49.000  
G21  26003531.816   136649463.764        3940.815          32.000  
R23  24503163.931   131075467.430        3228.804          40.000  
G31  25486755.676                1       3479.849          25.000  
R10  21509061.640   114655411.602       -3407.908          42.000  
R22  20501898.753   109440489.050        1169.724          49.000  
R11  19267760.699   102961021.499         156.972          48.000  
R21  20389329.654   109107391.996       -2197.256          49.000  
S20  37897069.165   199150450.397         104.651          40.000  
S38  39592754.619   208061331.763          87.434          43.000  
> 2017 11 15 18 47 24.0000000  0 18                     
G20  24433764.428   128400197.223        2978.403          32.000  
G 2  21026638.749   110495682.511       -2111.522          47.000  
G 5  23677989.617   124428689.898        2129.215          37.000  
G 6  24373535.508   128083805.7732      -3310.265          34.000  
G12  20664754.074   108594004.359         187.288          51.000  
R12  21488747.538   114789015.308        3591.761          45.000  
G24  22224403.249   116789943.155       -2998.290          45.000  
G25  21614115.894   113582908.370        2128.364          47.000  
G29  21535929.269   113172060.572        1102.988          49.000  
G21  26003383.664   136648675.924        3939.075          32.000  
R23  24503043.542   131074821.725        3227.883          38.000  
G31  25486622.670                1       3478.011          24.000  
R10  21509189.445   114656093.335       -3408.880          42.000  
R22  20501854.918   109440255.137        1170.000          49.000  
R11  19267754.749   102960990.140         156.876          49.000  
R21  20389411.583   109107831.465       -2197.358          49.000  
S20  37897065.204   199150429.522         104.664          41.000  
S38  39592751.286   208061314.210          88.577          43.000  
> 2017 11 15 18 47 24.2000000  0 18                     
G20  24433650.828   128399601.9591       2975.845          35.000  
G 2  21026719.142   110496104.794       -2111.200          48.000  
G 5  23677908.299   124428263.985        2129.476          37.000  
G 6  24373661.359   128084467.881       -3310.702          34.000  
G12  20664746.815   108593966.964         186.648          51.000  
R12  21488613.189   114788297.040        3590.980          46.000  
G24  22224517.287   116790542.820       -2997.624          44.000  
G25  21614034.908   113582482.729        2127.976          46.000  
G29  21535887.196   113171840.023        1102.646          49.000  
G21  26003232.423   136647887.795        3940.026          32.000  
R23  24502922.891   131074175.890        3228.458          36.000  
G31  25486489.979                1       3479.130          24.000  
R10  21509317.390   114656774.893       -3408.324          42.000  
R22  20501810.961   109440021.153        1169.761          48.000  
R11  19267748.850   102960958.725         156.888          48.000  
R21  20389493.738   109108270.966       -2197.443          49.000  
S20  37897061.277   199150408.518         105.148          41.000  
S38  39592747.883   208061296.474          88.339          42.000  
> 2017 11 15 18 47 24.4000000  0 18                     
G20  24433536.023   128399006.4811       2975.881          32.000  
G 2  21026799.500   110496527.179       -2112.068          47.000  
G 5  23677827.505   124427838.400        2129.185          38.000  
G 6  24373788.728   128085130.040       -3310.417          30.000  
G12  20664739.939   108593929.591         186.896          51.000  
R12  21488478.630   114787578.833        3590.637          46.000  
G24  22224631.428   116791142.514       -2997.755          45.000  
G25  21613953.852   113582057.109        2127.628          46.000  
G29  21535845.037   113171619.451        1102.733          48.000  
G21  26003083.799   136647099.706        3942.277          32.000  
R23  24502802.031   131073530.036        3233.828          33.000  
G31  25486357.165                1       3481.802          24.000  
R10  21509445.370   114657456.484       -3407.260          42.000  
R22  20501767.248   109439787.213        1169.813          49.000  
R11  19267743.022   102960927.386         156.643          48.000  
R21  20389575.911   109108710.534       -2198.068          49.000  
S20  37897057.264   199150387.526         105.387          40.000  
S38  39592744.533   208061278.796          89.084          42.000  
> 2017 11 15 18 47 24.6000000  0 18                     
G20  24433422.334   128398411.0351       2976.396          33.000  
G 2  21026879.858   110496949.559       -2112.242          47.000  
G 5  23677746.327   124427412.416        2126.522          41.000  
G 6  24373919.884   128085792.143       -3309.715          30.000  
G12  20664732.855   108593892.246         186.385          50.000  
R12  21488344.089   114786860.648        3591.151          45.000  
G24  22224745.553   116791742.170       -2998.234          44.000  
G25  21613872.795   113581631.504        2128.126          46.000  
G29  21535803.104   113171398.935        1102.791          49.000  
G21  26002932.575   136646311.671        3940.655          32.000  
R23  24502681.468   131072884.440        3230.148          38.000  
G31  25486225.503                1       3480.170          25.000  
R10  21509573.245   114658138.134       -3408.413          42.000  
R22  20501723.448   109439553.289        1169.851          49.000  
R11  19267737.124   102960896.091         156.281          48.000  
R21  20389658.119   109109150.089       -2197.878          49.000  
S20  37897053.268   199150366.618         104.565          41.000  
S38  39592741.287   208061261.125          88.427          43.000  
> 2017 11 15 18 47 24.8000000  0 18                     
G20  24433309.135   128397815.6161       2976.356          33.000  
G 2  21026960.251   110497371.971       -2112.129          47.000  
G 5  23677665.218   124426969.9963       2129.979          40.000  
G 6  24374045.491   128086454.301       -3310.168          34.000  
G12  20664725.665   108593854.918         186.739          51.000  
R12  21488209.687   114786142.518        3590.919          45.000  
G24  22224859.695   116792341.920       -2998.322          44.000  
G25  21613791.809   113581205.926        2128.150          46.000  
G29  21535761.066   113171178.472        1102.745          49.000  
G21  26002783.777   136645523.710        3938.878          32.000  
R23  24502560.834   131072238.777        3227.613          38.000  
G31  25486093.580                1       3479.532          25.000  
R10  21509701.225   114658819.795       -3408.211          42.000  
R22  20501679.735   109439319.426        1169.306          49.000  
R11  19267731.557   102960864.819         156.330          48.000  
R21  20389740.292   109109589.668       -2197.691          48.000  
S20  37897049.341   199150345.655         104.260          41.000  
S38  39592737.954   208061243.446          88.149          43.000  
> 2017 11 15 18 47 25.0000000  0 18                     
G20  24433195.691   128397220.311        2977.264          33.000  
G 2  21027040.418   110497794.376       -2112.435          47.000  
G 5  23677583.952   124426544.2902       2128.686          38.000  
G 6  24374172.807   128087116.472       -3310.215          36.000  
G12  20664718.284   108593817.604         186.541          51.000  
R12  21488075.233   114785424.342        3590.704          45.000  
G24  22224973.784   116792941.770       -2998.949          44.000  
G25  21613710.875   113580780.341        2127.949          46.000  
G29  21535719.011   113170958.006        1101.852          48.000  
G21  26002635.468   136644735.682        3938.337          33.000  
R23  24502440.026   131071593.124        3226.327          38.000  
G31  25485961.534                1       3481.442          25.000  
R10  21509829.083   114659501.552       -3408.717          42.000  
R22  20501636.040   109439085.609        1168.951          49.000  
R11  19267725.781   102960833.628         155.919          48.000  
R21  20389822.343   109110029.257       -2198.055          48.000  
S20  37897045.415   199150324.712         104.975          41.000  
S38  39592734.481   208061225.846          88.037          43.000  
> 2017 11 15 18 47 25.2000000  0 18                     
G20  24433082.055   128396625.033        2977.855          33.000  
G 2  21027120.863   110498216.823       -2111.844          48.000  
G 5  23677503.036   124426118.5842       2128.516          38.000  
G 6  24374297.611   128087778.697       -3310.720          36.000  
G12  20664711.059   108593780.344         186.051          51.000  
R12  21487940.937   114784706.183        3590.513          44.000  
G24  22225087.909   116793541.602       -2998.477          44.000  
G25  21613629.993   113580354.797        2127.683          47.000  
G29  21535677.270   113170737.516        1102.167          49.000  
G21  26002487.316   136643947.6411       3939.872          32.000  
R23  24502319.271   131070947.361        3229.019          36.000  
G31  25485828.999                1       3477.465          25.000  
R10  21509956.993   114660183.318       -3408.259          42.000  
R22  20501592.188   109438851.818        1168.389          49.000  
R11  19267720.145   102960802.477         155.341          48.000  
R21  20389904.621   109110468.845       -2198.438          49.000  
S20  37897041.332   199150303.823         104.639          41.000  
S38  39592731.078   208061208.201          87.509          42.000  
> 2017 11 15 18 47 25.4000000  0 18                     
G20  24432966.884   128396029.736        2976.646          33.000  
G 2  21027201.413   110498639.358       -2112.877          48.000  
G 5  23677421.927   124425692.8032       2129.004          40.000  
G 6  24374422.956   128088440.951       -3312.018          37.000  
G12  20664704.062   108593743.096         185.964          51.000  
R12  21487806.622   114783988.103        3589.740          44.000  
G24  22225202.068   116794141.441       -2998.934          44.000  
G25  21613549.042   113579929.299        2126.914          47.000  
G29  21535635.163   113170517.122        1101.501          49.000  
G21  26002338.465   136643159.6501       3940.636          33.000  
R23  24502198.707   131070301.755        3228.963          40.000  
G31  25485695.872                1       3480.621          25.000  
R10  21510084.956   114660865.098       -3407.970          42.000  
R22  20501548.423   109438618.032        1168.475          49.000  
R11  19267714.299   102960771.318         155.543          48.000  
R21  20389986.986   109110908.504       -2198.631          50.000  
S20  37897037.545   199150282.875         104.522          41.000  
S38  39592727.920   208061190.564          88.134          43.000  
> 2017 11 15 18 47 25.6000000  0 18                     
G20  24432855.220   128395434.314        2976.718          33.000  
G 2  21027281.824   110499061.952       -2113.034          48.000  
G 5  23677340.801   124425266.9582       2128.219          39.000  
G 6  24374546.870   128089103.242       -3311.587          37.000  
G12  20664697.012   108593705.880         186.028          51.000  
R12  21487672.290   114783270.117        3590.183          45.000  
G24  22225316.332   116794741.252       -2999.055          44.000  
G25  21613467.846   113579503.883        2126.829          47.000  
G29  21535593.230   113170296.764        1101.899          49.000  
G21  26002189.842   136642371.668        3939.867          33.000  
R23  24502078.545   131069656.159        3227.194          40.000  
G31  25485562.412                1       3479.755          25.000  
R10  21510212.866   114661546.868       -3408.624          41.000  
R22  20501504.657   109438384.345        1168.432          49.000  
R11  19267708.453   102960740.302         155.052          48.000  
R21  20390069.124   109111348.257       -2198.453          49.000  
S20  37897033.462   199150261.965         104.461          41.000  
S38  39592724.447   208061172.937          88.126          43.000  
> 2017 11 15 18 47 25.8000000  0 18                     
G20  24432739.996   128394838.873        2977.264          34.000  
G 2  21027362.409   110499484.531       -2113.077          48.000  
G 5  23677259.797   124424841.3182       2129.191          40.000  
G 6  24374674.327   128089765.480       -3310.349          39.000  
G12  20664689.997   108593668.721         186.130          51.000  
R12  21487537.976   114782552.145        3589.963          45.000  
G24  22225430.439   116795341.103       -2999.180          44.000  
G25  21613386.877   113579078.432        2127.194          47.000  
G29  21535551.332   113170076.407        1102.406          49.000  
G21  26002038.008   136641583.7141       3939.082          32.000  
R23  24501958.034   131069010.493        3228.013          39.000  
G31  25485430.244                1       3479.542          25.000  
R10  21510340.706   114662228.662       -3408.154          41.000  
R22  20501460.788   109438150.667        1168.766          49.000  
R11  19267702.764   102960709.262         155.069          48.000  
R21  20390151.193   109111787.983       -2198.380          49.000  
S20  37897029.535   199150240.982         105.259          41.000  
S38  39592721.079   208061155.344          88.373          43.000  
> 2017 11 15 18 47 26.0000000  0 18                     
G20  24432630.269   128394243.547        2976.929          34.000  
G 2  21027442.820   110499907.151       -2113.039          48.000  
G 5  23677178.671   124424415.6572       2128.505          40.000  
G 6  24374799.689   128090427.839       -3311.584          39.000  
G12  20664682.842   108593631.555         185.826          51.000  
R12  21487403.487   114781834.180        3589.949          45.000  
G24  22225544.598   116795940.998       -2999.557          44.000  
G25  21613305.925   113578652.990        2127.116          46.000  
G29  21535509.696   113169856.097        1101.637          49.000  
G21  26001887.273   136640795.7791       3938.717          32.000  
R23  24501837.627   131068364.948        3226.830          39.000  
G31  25485297.309                1       3482.684          25.000  
R10  21510468.616   114662910.543       -3408.673          41.000  
R22  20501417.179   109437917.007        1168.211          49.000  
R11  19267696.884   102960678.297         155.018          48.000  
R21  20390233.296   109112227.710       -2198.430          48.000  
S20  37897025.801   199150220.150         104.644          41.000  
S38  39592717.729   208061137.734          87.952          43.000  
> 2017 11 15 18 47 26.2000000  0 18                     
G20  24432517.698   128393648.281        2977.467          34.000  
G 2  21027523.265   110500329.847       -2113.310          48.000  
G 5  23677097.719   124423990.0462       2128.331          41.000  
G 6  24374927.634   128091090.186       -3311.786          39.000  
G12  20664675.565   108593594.488         185.272          51.000  
R12  21487269.121   114781116.302        3588.929          44.000  
G24  22225658.915   116796541.041       -3000.880          45.000  
G25  21613225.043   113578227.587        2126.886          47.000  
G29  21535467.589   113169635.837        1100.980          48.000  
G21  26001735.543   136640007.909        3938.395          32.000  
R23  24501716.750   131067719.389        3227.174          36.000  
G31  25485163.692                1       3479.791          25.000  
R10  21510596.544   114663592.540       -3409.473          41.000  
R22  20501373.432   109437683.470        1167.484          49.000  
R11  19267690.968   102960647.432         153.977          48.000  
R21  20390315.452   109112667.502       -2199.161          48.000  
S20  37897021.892   199150199.306         103.574          41.000  
S38  39592714.379   208061120.246          87.067          43.000  
> 2017 11 15 18 47 26.4000000  0 17                     
G20  24432404.708   128393053.043        2976.682          35.000  
G 2  21027603.781   110500752.563       -2113.132          48.000  
G 5  23677016.489   124423564.4262       2127.596          39.000  
G 6  24375051.984   128091752.558       -3311.438          40.000  
G12  20664668.498   108593557.381         185.651          51.000  
R12  21487134.754   114780398.348        3589.972          44.000  
G24  22225773.057   116797140.983       -3000.177          45.000  
G25  21613144.162   113577802.196        2127.590          47.000  
G29  21535425.725   113169415.512        1101.580          49.000  
G21  26001585.035   136639220.0181       3938.288          32.000  
R23  24501595.907   131067074.027        3226.210          36.000  
R10  21510724.523   114664274.568       -3410.328          43.000  
R22  20501329.510   109437449.881        1167.857          49.000  
R11  19267685.262   102960616.591         154.268          49.000  
R21  20390397.537   109113107.291       -2198.877          49.000  
S20  37897017.879   199150178.463         104.377          41.000  
S38  39592711.046   208061102.687          88.067          43.000  
> 2017 11 15 18 47 26.6000000  0 17                     
G20  24432289.309   128392457.795        2976.451          37.000  
G 2  21027684.261   110501175.345       -2114.588          48.000  
G 5  23676935.328   124423138.8962       2126.353          39.000  
G 6  24375178.655   128092415.006       -3312.610          40.000  
G12  20664661.710   108593520.379         184.930          51.000  
R12  21487000.335   114779680.533        3588.790          43.000  
G24  22225887.164   116797740.993       -3000.194          45.000  
G25  21613063.262   113577376.903        2126.196          48.000  
G29  21535383.793   113169195.310        1101.058          49.000  
G21  26001432.991   136638432.1271       3938.361          31.000  
R23  24501475.029   131066428.619        3225.757          34.000  
R10  21510852.538   114664956.600       -3411.410          43.000  
R22  20501285.762   109437216.378        1167.178          48.000  
R11  19267679.433   102960585.807         153.705          48.000  
R21  20390479.850   109113547.164       -2199.599          50.000  
S20  37897013.813   199150157.698         103.292          41.000  
S38  39592707.643   208061085.120          87.694          43.000  
> 2017 11 15 18 47 26.8000000  0 17                     
G20  24432174.591   128391862.570        2976.945          36.000  
G 2  21027764.654   110501598.125       -2114.009          48.000  
G 5  23676854.202   124422713.3572       2128.517          37.000  
G 6  24375303.599   128093077.411       -3312.147          40.000  
G12  20664654.870   108593483.362         184.940          51.000  
R12  21486865.829   114778962.670        3589.400          43.000  
G24  22226001.271   116798341.048       -3000.337          45.000  
G25  21612982.241   113576951.572        2126.630          47.000  
G29  21535341.790   113168975.062        1101.219          47.000  
G21  26001279.237   136637644.3041       3938.280          31.000  
R23  24501354.379   131065783.086        3228.907          36.000  
R10  21510980.536   114665638.648       -3411.763          43.000  
R22  20501242.084   109436982.887        1167.277          49.000  
R11  19267673.657   102960555.074         153.576          48.000  
R21  20390562.215   109113987.016       -2199.281          50.000  
S20  37897009.817   199150136.949         103.985          41.000  
S38  39592704.362   208061067.667          87.602          43.000  
> 2017 11 15 18 47 27.0000000  0 17                     
G20  24432062.299   128391267.507        2974.673          37.000  
G 2  21027845.152   110502020.899       -2113.723          48.000  
G 5  23676773.145   124422287.8732       2128.076          39.000  
G 6  24375429.590   128093739.760       -3311.079          39.000  
G12  20664647.645   108593446.348         185.045          51.000  
R12  21486731.375   114778244.771        3589.624          43.000  
G24  22226115.500   116798941.155       -3000.726          45.000  
G25  21612901.220   113576526.184        2127.198          46.000  
G29  21535299.892   113168754.796        1101.239          48.000  
G21  26001129.113   136636856.4381       3939.180          31.000  
R23  24501233.972   131065137.737        3227.906          38.000  
R10  21511108.498   114666320.761       -3412.064          43.000  
R22  20501198.354   109436749.405        1167.463          49.000  
R11  19267668.021   102960524.360         153.383          48.000  
R21  20390644.493   109114426.830       -2198.858          49.000  
S20  37897005.943   199150116.178         103.990          41.000  
S38  39592701.064   208061050.140          87.416          43.000  
> 2017 11 15 18 47 27.2000000  0 17                     
G20  24431949.658   128390672.279        2974.663          36.000  
G 2  21027925.650   110502443.817       -2114.327          48.000  
G 5  23676692.072   124421862.3602       2128.202          39.000  
G 6  24375553.695   128094402.306       -3311.756          37.000  
G12  20664640.508   108593409.433         184.669          51.000  
R12  21486596.938   114777526.997        3588.593          43.000  
G24  22226229.764   116799541.214       -3000.446          45.000  
G25  21612820.338   113576100.892        2126.714          45.000  
G29  21535257.994   113168534.634        1100.955          49.000  
G21  26000978.675                1       3938.315          31.000  
R23  24501113.566   131064492.316        3227.082          38.000  
R10  21511236.356   114667002.824       -3411.047          42.000  
R22  20501154.676   109436515.939        1167.154          49.000  
R11  19267662.315   102960493.737         153.268          48.000  
R21  20390726.579   109114866.774       -2199.577          48.000  
S20  37897002.051   199150095.461         103.538          42.000  
S38  39592697.818   208061032.634          87.438          42.000  
> 2017 11 15 18 47 27.4000000  0 17                     
G20  24431837.698   128390077.037        2975.961          36.000  
G 2  21028005.921   110502866.769       -2115.177          48.000  
G 5  23676611.242   124421437.0752       2124.801          40.000  
G 6  24375679.459   128095064.846       -3312.737          37.000  
G12  20664633.476   108593372.533         184.225          51.000  
R12  21486462.798   114776809.253        3588.521          43.000  
G24  22226344.028   116800141.366       -3000.671          44.000  
G25  21612739.334   113575675.642        2126.116          46.000  
G29  21535216.009   113168314.469        1100.619          48.000  
G21  26000830.418                1       3940.193          30.000  
R23  24500993.351   131063846.977        3225.738          40.000  
R10  21511364.423   114667685.020       -3410.854          42.000  
R22  20501110.876   109436282.585        1166.902          48.000  
R11  19267656.504   102960463.164         152.461          48.000  
R21  20390808.769   109115306.740       -2200.206          48.000  
S20  37896998.038   199150074.753         102.804          41.000  
S38  39592694.520   208061015.148          87.631          41.000  
> 2017 11 15 18 47 27.6000000  0 17                     
G20  24431723.695   128389481.848        2976.084          36.000  
G 2  21028086.436   110503289.725       -2114.505          48.000  
G 5  23676530.168   124421011.5332       2126.080          40.000  
G 6  24375803.897   128095727.408       -3312.786          36.000  
G12  20664626.722   108593335.659         184.696          51.000  
R12  21486328.379   114776091.587        3589.006          43.000  
G24  22226458.379   116800741.545       -3001.480          43.000  
G25  21612658.400   113575250.434        2126.456          47.000  
G29  21535174.303   113168094.350        1100.601          48.000  
G21  26000682.562                1       3940.340          30.000  
R23  24500873.084   131063201.595        3225.185          38.000  
R10  21511492.316   114668367.229       -3411.432          43.000  
R22  20501067.146   109436049.232        1166.679          49.000  
R11  19267651.181   102960432.651         152.828          48.000  
R21  20390890.995   109115746.711       -2199.484          48.000  
S20  37896994.111   199150054.022         104.010          41.000  
S38  39592691.274   208060997.695          87.459          42.000  
> 2017 11 15 18 47 27.8000000  0 17                     
G20  24431611.874   128388886.537        2977.343          36.000  
G 2  21028166.777   110503712.720       -2114.827          48.000  
G 5  23676449.217   124420586.0872       2127.886          40.000  
G 6  24375930.969   128096389.908       -3311.344          36.000  
G12  20664619.934   108593298.791         184.548          51.000  
R12  21486194.065   114775373.873        3588.458          43.000  
G24  22226572.486   116801341.652       -3000.601          43.000  
G25  21612577.309   113574825.193        2126.274          46.000  
G29  21535132.562   113167874.198        1100.994          49.000  
G21  26000535.526                1       3939.917          30.000  
R23  24500752.678   131062556.125        3226.637          39.000  
R10  21511620.278   114669049.386       -3410.934          43.000  
R22  20501023.555   109435815.855        1167.271          49.000  
R11  19267645.475   102960402.132         152.601          48.000  
R21  20390973.220   109116186.713       -2199.938          49.000  
S20  37896990.168   199150033.285         103.788          41.000  
S38  39592688.011   208060980.199          87.553          42.000  
> 2017 11 15 18 47 28.0000000  0 17                     
G20  24431498.448   128388291.325        2977.627          36.000  
G 2  21028247.327   110504135.675       -2114.734          48.000  
G 5  23676367.881   124420160.5982       2128.247          39.000  
G 6  24376056.698   128097052.416       -3311.432          33.000  
G12  20664613.251   108593261.893         184.280          51.000  
R12  21486059.803   114774656.120        3589.006          43.000  
G24  22226686.785   116801941.837       -3000.887          43.000  
G25  21612496.322   113574399.915        2126.210          47.000  
G29  21535090.629   113167654.010        1100.789          48.000  
G21  26000389.363                1       3939.664          29.000  
R23  24500632.393   131061910.724        3226.955          40.000  
R10  21511748.363   114669731.593       -3410.896          43.000  
R22  20500979.737   109435582.501        1166.420          49.000  
R11  19267639.769   102960371.626         152.569          48.000  
R21  20391055.358   109116626.658       -2199.954          49.000  
S20  37896986.207   199150012.528         103.902          41.000  
S38  39592684.556   208060962.677          88.105          42.000  
> 2017 11 15 18 47 28.2000000  0 17                     
G20  24431385.911   128387696.146        2977.439          33.000  
G 2  21028327.738   110504558.698       -2115.320          48.000  
G 5  23676287.000   124419735.3632       2126.724          38.000  
G 6  24376183.736   128097714.965       -3311.736          33.000  
G12  20664605.957   108593225.060         184.198          51.000  
R12  21485925.419   114773938.466        3588.219          43.000  
G24  22226801.084   116802542.032       -3001.227          43.000  
G25  21612415.458   113573974.697        2126.072          47.000  
G29  21535048.748   113167433.894        1100.315          48.000  
G21  26000244.335                1       3939.358          29.000  
R23  24500512.022   131061265.390        3226.833          38.000  
R10  21511876.360   114670413.868       -3411.570          43.000  
R22  20500936.234   109435349.218        1166.487          49.000  
R11  19267633.906   102960341.201         151.975          48.000  
R21  20391137.619   109117066.666       -2200.068          49.000  
S20  37896982.158   199149991.806         103.573          41.000  
S38  39592681.066   208060945.273          86.852          40.000  
> 2017 11 15 18 47 28.4000000  0 17                     
G20  24431269.972   128387100.913        2977.473          33.000  
G 2  21028408.218   110504981.686       -2115.075          48.000  
G 5  23676205.891   124419310.0002       2125.821          37.000  
G 6  24376309.569   128098377.434       -3311.564          29.000  
G12  20664598.645   108593188.176         184.503          51.000  
R12  21485791.052   114773220.721        3589.076          42.000  
G24  22226915.575   116803142.236       -3001.342          44.000  
G25  21612334.367   113573549.435        2126.569          46.000  
G29  21535006.624   113167213.746        1101.099          49.000  
G21  26000100.196                1       3940.432          30.000  
R23  24500391.580   131060620.054        3226.366          38.000  
R10  21512004.427   114671096.114       -3411.407          42.000  
R22  20500892.486   109435115.872        1166.451          49.000  
R11  19267628.269   102960310.764         151.938          48.000  
R21  20391219.931   109117506.631       -2199.621          49.000  
S20  37896978.319   199149971.082         103.421          41.000  
S38  39592677.733   208060927.785          87.474          41.000  
> 2017 11 15 18 47 28.6000000  0 17                     
G20  24431155.603   128386505.646        2977.363          33.000  
G 2  21028488.960   110505404.740       -2114.803          49.000  
G 5  23676124.713   124418884.4922       2125.457          39.000  
G 6  24376433.832   128099040.0371      -3313.836          29.000  
G12  20664591.804   108593151.354         184.520          51.000  
R12  21485656.686   114772503.063        3589.067          42.000  
G24  22227029.891   116803742.375       -3001.164          44.000  
G25  21612253.363   113573124.209        2126.597          46.000  
G29  21534964.778   113166993.626        1100.592          48.000  
G21  25999947.803                1       3939.266          30.000  
R23  24500270.912   131059974.651        3228.164          35.000  
R10  21512132.390   114671778.353       -3410.891          41.000  
R22  20500848.704   109434882.593        1167.011          49.000  
R11  19267622.511   102960280.362         152.373          48.000  
R21  20391301.930   109117946.649       -2199.641          49.000  
S20  37896974.480   199149950.291         104.274          41.000  
S38  39592674.435   208060910.286          87.131          42.000  
> 2017 11 15 18 47 28.8000000  0 17                     
G20  24431044.725   128385910.449        2976.432          33.000  
G 2  21028569.249   110505827.787       -2115.399          48.000  
G 5  23676043.709   124418459.0212       2126.392          39.000  
G 6  24376560.032   128099702.3981      -3313.448          29.000  
G12  20664584.772   108593114.476         184.498          51.000  
R12  21485522.336   114771785.336        3588.847          42.000  
G24  22227144.120   116804342.518       -3000.998          45.000  
G25  21612172.516   113572698.938        2126.128          46.000  
G29  21534923.124   113166773.440        1100.973          49.000  
G21  25999797.871                1       3940.065          30.000  
R23  24500150.314   131059329.457        3225.774          35.000  
R10  21512260.492   114672460.621       -3411.294          41.000  
R22  20500805.061   109434649.284        1166.194          49.000  
R11  19267616.770   102960249.954         151.940          48.000  
R21  20391384.295   109118386.606       -2199.780          49.000  
S20  37896970.623   199149929.583         103.928          41.000  
S38  39592671.050   208060892.752          88.162          41.000  
> 2017 11 15 18 47 29.0000000  0 17                     
G20  24430931.735   128385315.175        2976.012          33.000  
G 2  21028649.799   110506250.754       -2114.847          48.000  
G 5  23675962.426   124418033.5472       2128.490          34.000  
G 6  24376684.190   128100364.857       -3312.264          30.000  
G12  20664577.670   108593077.601         184.510          51.000  
R12  21485387.935   114771067.609        3589.454          43.000  
G24  22227258.402   116804942.638       -3000.524          45.000  
G25  21612091.617   113572273.632        2126.792          47.000  
G29  21534881.139   113166553.287        1100.984          49.000  
G21  25999649.928                1       3938.205          31.000  
R23  24500029.558   131058684.035        3226.066          33.000  
R10  21512388.402   114673142.859       -3411.139          42.000  
R22  20500761.365   109434415.943        1167.087          49.000  
R11  19267611.168   102960219.548         152.185          48.000  
R21  20391466.346   109118826.550       -2199.275          49.000  
S20  37896966.575   199149908.782         103.688          41.000  
S38  39592667.839   208060875.225          88.048          42.000  
> 2017 11 15 18 47 29.2000000  0 17                     
G20  24430817.645   128384719.811        2976.154          33.000  
G 2  21028730.227   110506673.723       -2114.599          48.000  
G 5  23675881.387   124417608.0662       2129.515          37.000  
G 6  24376811.193   128101027.326       -3313.068          34.000  
G12  20664570.533   108593040.669         185.094          51.000  
R12  21485253.568   114770349.838        3589.684          43.000  
G24  22227372.770   116805542.698       -2999.748          45.000  
G25  21612010.595   113571848.321        2126.797          47.000  
G29  21534839.189   113166333.017        1101.652          48.000  
G21  25999498.006                1       3941.572          31.000  
R23  24499908.663   131058038.413        3230.202          32.000  
R10  21512516.504   114673825.041       -3410.562          43.000  
R22  20500717.530   109434182.569        1166.950          49.000  
R11  19267605.602   102960189.103         152.506          49.000  
R21  20391548.571   109119266.453       -2199.401          49.000  
S20  37896962.719   199149887.931         104.435          41.000  
S38  39592664.593   208060857.565          87.508          42.000  
> 2017 11 15 18 47 29.4000000  0 17                     
G20  24430703.521   128384124.278        2976.602          33.000  
G 2  21028810.795   110507096.702       -2114.610          49.000  
G 5  23675800.348   124417182.5982       2127.202          40.000  
G 6  24376941.948   128101689.720       -3311.967          37.000  
G12  20664563.378   108593003.711         184.796          51.000  
R12  21485119.132   114769632.058        3589.424          44.000  
G24  22227486.947   116806142.716       -2999.822          46.000  
G25  21611929.644   113571422.916        2127.267          46.000  
G29  21534797.361   113166112.732        1101.293          49.000  
G21  25999352.524                1       3939.945          31.000  
R23  24499787.140   131057392.951        3229.483          32.000  
R10  21512644.536   114674507.196       -3410.900          43.000  
R22  20500673.835   109433949.175        1167.202          49.000  
R11  19267600.052   102960158.639         152.381          48.000  
R21  20391630.762   109119706.322       -2198.804          49.000  
S20  37896958.845   199149867.081         104.263          41.000  
S38  39592661.051   208060839.839          89.808          40.000  
