     3.01           OBSERVATION DATA    M: Mixed            RINEX VERSION / TYPE
CONVBIN 2.4.3 Emlid                     20171115 194732 UTC PGM / RUN BY / DATE 
log: /home/reach/logs/ref_201711151846.rtcm3                COMMENT             
format: RTCM 3, station ID: 0                               COMMENT             
                                                            MARKER NAME         
                                                            MARKER NUMBER       
                                                            MARKER TYPE         
                                                            OBSERVER / AGENCY   
                    TRIMBLE NETR8       4.85,12/FEB/2014    REC # / TYPE / VERS 
4951353663          TRM59800.00     NONE                    ANT # / TYPE        
  3467519.4064 -4300378.5382 -3177517.7346                  APPROX POSITION XYZ 
        0.0069        0.0000        0.0000                  ANTENNA: DELTA H/E/N
G   16 C1C L1C D1C S1C C1W L1W D1W S1W C2W L2W D2W S2W C2X  SYS / # / OBS TYPES 
       L2X D2X S2X                                          SYS / # / OBS TYPES 
R   16 C1C L1C D1C S1C C1P L1P D1P S1P C2C L2C D2C S2C C2P  SYS / # / OBS TYPES 
       L2P D2P S2P                                          SYS / # / OBS TYPES 
E    4 C1X L1X D1X S1X                                      SYS / # / OBS TYPES 
J    8 C1C L1C D1C S1C C2X L2X D2X S2X                      SYS / # / OBS TYPES 
S    4 C1C L1C D1C S1C                                      SYS / # / OBS TYPES 
C    4 C1I L1I D1I S1I                                      SYS / # / OBS TYPES 
  2017    11    15    18    46   41.0000000     GPS         TIME OF FIRST OBS   
  2017    11    15    18    49    6.0000000     GPS         TIME OF LAST OBS    
                                                            END OF HEADER       
> 2017 11 15 18 46 41.0000000  0  5                     
R22  20399846.164   108895863.445                          53.250                                                                                                                                    20399853.084    84696808.082                          48.000  
R12  21403908.640   114335881.918                          47.000                                                                                                1                                                                                                 
R11  19154255.316   102354617.540                          54.250                                                                                                                                    19154262.496    79609168.039                          49.500  
R21  20255390.488   108390814.061                          53.000                                                                                                                                    20255395.888    84303999.289                          48.500  
R10  21365604.600   113890682.371                          49.750                                                                                                                                    21365615.520    88581646.954                          39.250  
> 2017 11 15 18 46 42.0000000  0 13                     
G29  21432932.298   112630914.811                          50.000                                                                                                                                    21432942.738    87764376.350                          47.250  
G12  20549077.424   107986188.339                          50.750                                                                                                                                    20549086.124    84145098.130                          50.000  
G 2  20891505.882   109785672.465                          49.500                                                                    20891513.262    85547363.837                          39.000                                                                  
G20  24342722.858   127921878.531                          37.250                                                                    24342743.078    99679390.363                          16.250                                                                  
G25  21516876.898   113072061.956                          47.500                                                                                                                                    21516889.158    88108127.614                          49.750  
G 5  23576267.844   123894200.762                          43.750                                                                                                                                    23576281.044    96540956.516                          41.250  
G24  22086952.114   116067718.073                          42.500                                                                                                                                    22086967.894    90442377.398                          47.000  
G 6  24227698.320   127317497.635                          35.250                                                                                                                                    24227714.620    99208458.763                          39.000  
R22  20399638.684   108894757.405                          53.000                                                                                                                                    20399645.964    84695947.833                          47.750  
R12  21403249.500   114332359.609                          47.000                                                                                                1                                                                                                 
R11  19154235.736   102354513.936                          54.250                                                                                                                                    19154242.656    79609087.456                          49.250  
R21  20255814.288   108393082.452                          53.000                                                                                                                                    20255820.148    84305763.599                          48.000  
R10  21366257.320   113894161.448                          50.250                                                                                                                                    21366268.000    88584352.903                          39.250  
> 2017 11 15 18 46 43.0000000  0 13                     
G29  21432736.238   112629885.021                          49.250                                                                                                                                    21432747.378    87763573.924                          47.250  
G12  20549054.824   107986070.868                          50.500                                                                                                                                    20549063.684    84145006.594                          49.750  
G 2  20891919.582   109787845.146                          49.750                                                                    20891927.202    85549056.835                          38.750                                                                  
G20  24342174.318   127918994.069                          37.250                                                                    24342194.038    99677142.721                          15.500                                                                  
G25  21516485.818   113070008.346                          48.000                                                                                                                                    21516498.258    88106527.400                          49.500  
G 5  23575876.944   123892148.710                          43.500                                                                                                                                    23575890.564    96539357.525                          41.500  
G24  22087536.474   116070792.508                          42.500                                                                                                                                    22087552.794    90444773.057                          47.000  
G 6  24228343.140   127320885.733                          34.750                                                                                                                                    24228359.160    99211098.839                          39.000  
R22  20399431.864   108893651.742                          53.000                                                                                                                                    20399438.444    84695087.875                          47.750  
R12  21402590.320   114328837.557                          47.000                                                                                                1                                                                                                 
R11  19154216.576   102354411.030                          54.250                                                                                                                                    19154222.916    79609007.418                          49.250  
R21  20256238.468   108395350.984                          53.250                                                                                                                                    20256243.988    84307528.013                          48.000  
R10  21366910.240   113897640.869                          50.000                                                                                                                                    21366921.500    88587059.109                          39.000  
> 2017 11 15 18 46 44.0000000  0 13                     
G29  21432540.278   112628855.462                          49.500                                                                                                                                    21432551.418    87762771.673                          47.000  
G12  20549032.804   107985953.759                          51.250                                                                                                                                    20549041.484    84144915.343                          50.000  
G 2  20892333.102   109790018.390                          50.000                                                                    20892340.262    85550750.276                          39.000                                                                  
G20  24341624.818   127916109.482                          37.000                                                                    24341645.058    99674895.039                          16.750                                                                  
G25  21516095.438   113067954.949                          48.000                                                                                                                                    21516107.398    88104927.350                          49.000  
G 5  23575485.784   123890096.871                          43.000                                                                                                                                    23575500.024    96537758.693                          41.500  
G24  22088122.494   116073867.250                          42.500                                                                                                                                    22088137.914    90447168.952                          47.000  
G 6  24228987.900   127324274.053                          34.750                                                                                                                                    24229004.620    99213739.083                          38.250  
R22  20399224.144   108892546.583                          52.750                                                                                                                                    20399231.524    84694228.305                          48.000  
R12  21401931.120   114325315.879                          46.500                                                                                                1                                                                                                 
R11  19154197.736   102354308.936                          54.500                                                                                                                                    19154203.496    79608928.010                          49.500  
R21  20256662.708   108397619.800                          53.500                                                                                                                                    20256667.768    84309292.652                          48.250  
R10  21367563.280   113901120.773                          49.750                                                                                                                                    21367572.900    88589765.692                          39.000  
> 2017 11 15 18 46 45.0000000  0 13                     
G29  21432344.678   112627826.269                          49.500                                                                                                                                    21432355.238    87761969.706                          47.250  
G12  20549010.284   107985837.124                          52.000                                                                                                                                    20549019.564    84144824.458                          49.750  
G 2  20892746.322   109792192.264                          50.000                                                                    20892754.362    85552444.200                          38.500                                                                  
G20  24341076.038   127913224.836                          37.250                                                                    24341096.138    99672647.287                          15.500                                                                  
G25  21515704.658   113065901.841                          48.500                                                                                                                                    21515717.198    88103327.526                          49.000  
G 5  23575095.544   123888045.353                          43.500                                                                                                                                    23575109.204    96536160.120                          41.250  
G24  22088706.874   116076942.411                          42.500                                                                                                                                    22088723.134    90449565.175                          47.000  
G 6  24229632.740   127327662.613                          35.000                                                                                                                                    24229649.240    99216379.513                          38.500  
R22  20399017.084   108891442.051                          52.500                                                                                                                                    20399024.944    84693369.235                          48.000  
R12  21401271.520   114321794.738                          46.750                                                                                                1                                                                                                 
R11  19154178.476   102354207.788                          54.250                                                                                                                                    19154184.936    79608849.343                          49.000  
R21  20257086.328   108399889.018                          53.500                                                                                                                                    20257092.548    84311057.597                          47.750  
R10  21368216.000   113904601.281                          49.750                                                                                                                                    21368226.800    88592472.746                          39.000  
> 2017 11 15 18 46 46.0000000  0 13                     
G29  21432148.718   112626797.265                          50.000                                                                                                                                    21432159.338    87761167.883                          47.250  
G12  20548988.364   107985720.785                          52.500                                                                                                                                    20548997.344    84144733.805                          49.500  
G 2  20893160.362   109794366.651                          50.250                                                                    20893167.642    85554138.529                          38.500                                                                  
G20  24340526.798   127910340.045                          37.250                                                                    24340546.738    99670399.428                          15.500                                                                  
G25  21515313.978   113063848.874                          49.000                                                                                                                                    21515326.478    88101727.814                          49.000  
G 5  23574705.184   123885994.005                          43.500                                                                                                                                    23574719.444    96534561.671                          41.000  
G24  22089292.474   116080017.762                          42.500                                                                                                                                    22089308.314    90451961.547                          47.000  
G 6  24230277.660   127331051.260                          35.000                                                                                                                                    24230293.740    99219020.021                          38.500  
R22  20398811.204   108890337.992                          53.000                                                                                                                                    20398818.004    84692510.524                          48.250  
R12  21400612.560   114318273.934                          47.000                                                                                                1                                                                                                 
R11  19154159.836   102354107.441                          54.250                                                                                                                                    19154166.296    79608771.294                          49.000  
R21  20257510.148   108402158.457                          53.750                                                                                                                                    20257516.128    84312822.720                          48.250  
R10  21368868.900   113908082.218                          49.750                                                                                                                                    21368879.240    88595180.137                          39.000  
> 2017 11 15 18 46 47.0000000  0 13                     
G29  21431953.198   112625768.547                          49.500                                                                                                                                    21431964.178    87760366.288                          47.500  
G12  20548966.464   107985604.872                          52.250                                                                                                                                    20548975.564    84144643.481                          50.000  
G 2  20893574.582   109796541.649                          49.250                                                                    20893582.382    85555833.329                          39.000                                                                  
G20  24339977.918   127907455.235                          37.250                                                                    24339998.158    99668151.515                          16.250                                                                  
G25  21514922.978   113061796.168                          49.500                                                                                                                                    21514935.698    88100128.305                          49.500  
G 5  23574314.924   123883942.970                          43.750                                                                                                                                    23574329.044    96532963.470                          41.250  
G24  22089877.854   116083093.548                          42.250                                                                                                                                    22089893.754    90454358.254                          47.000  
G 6  24230922.700   127334440.153                          34.500                                                                                                                                    24230938.780    99221660.721                          39.000  
R22  20398603.664   108889234.531                          53.000                                                                                                                                    20398610.944    84691652.277                          48.250  
R12  21399953.660   114314753.586                          47.000                                                                                                1                                                                                                 
R11  19154141.236   102354008.043                          54.000                                                                                                                                    19154147.336    79608693.988                          49.000  
R21  20257934.088   108404428.239                          53.250                                                                                                                                    20257940.428    84314588.106                          48.500  
R10  21369522.600   113911563.715                          50.000                                                                                                                                    21369532.580    88597887.969                          39.000  
> 2017 11 15 18 46 48.0000000  0 13                     
G29  21431757.198   112624739.994                          49.500                                                                                                                                    21431767.998    87759564.819                          47.500  
G12  20548944.704   107985489.254                          52.000                                                                                                                                    20548953.464    84144553.390                          50.000  
G 2  20893988.122   109798717.121                          49.250                                                                    20893995.502    85557528.504                          38.500                                                                  
G20  24339428.378   127904570.176                          36.500                                                                    24339449.138    99665903.445                          16.250                                                                  
G25  21514532.718   113059743.596                          49.750                                                                                                                                    21514545.338    88098528.900                          49.250  
G 5  23573924.964   123881892.045                          43.750                                                                                                                                    23573938.644    96531365.349                          40.750  
G24  22090463.274   116086169.570                          42.250                                                                                                                                    22090478.834    90456755.144                          47.000  
G 6  24231567.760   127337829.126                          34.750                                                                                                                                    24231583.660    99224301.477                          39.000  
R22  20398396.844   108888131.523                          53.000                                                                                                                                    20398404.944    84690794.382                          48.500  
R12  21399294.520   114311233.567                          47.000                                                                                                1                                                                                                 
R11  19154123.176   102353909.374                          53.750                                                                                                                                    19154129.036    79608617.244                          49.250  
R21  20258358.508   108406698.248                          53.000                                                                                                                                    20258364.508    84316353.671                          48.250  
R10  21370174.640   113915045.636                          49.750                                                                                                                                    21370185.560    88600596.117                          38.750  
> 2017 11 15 18 46 49.0000000  0 13                     
G29  21431561.738   112623711.750                          49.500                                                                                                                                    21431572.298    87758763.589                          47.750  
G12  20548922.244   107985374.040                          52.000                                                                                                                                    20548930.944    84144463.615                          49.750  
G 2  20894402.362   109800893.208                          49.500                                                                    20894409.822    85559224.158                          39.000                                                                  
G20  24338879.678   127901685.088                          36.500                                                                    24338899.978    99663655.294                          15.500                                                                  
G25  21514142.058   113057691.286                          48.000                                                                                                                                    21514154.558    88096929.702                          49.250  
G 5  23573534.784   123879841.412                          44.000                                                                                                                                    23573548.564    96529767.459                          40.750  
G24  22091048.854   116089245.983                          42.750                                                                                                                                    22091064.794    90459152.348                          47.000  
G 6  24232212.160   127341218.384                          34.750                                                                                                                                    24232228.880    99226942.457                          39.250  
R22  20398190.644   108887029.111                          53.000                                                                                                                                    20398198.504    84689936.952                          47.750  
R12  21398635.540   114307714.004                          47.000                                                                                                1                                                                                                 
R11  19154104.756   102353811.614                          54.000                                                                                                                                    19154111.096    79608541.204                          49.250  
R21  20258782.448   108408968.640                          53.000                                                                                                                                    20258787.968    84318119.534                          48.250  
R10  21370828.760   113918528.101                          49.500                                                                                                                                    21370838.500    88603304.696                          38.500  
> 2017 11 15 18 46 50.0000000  0 13                     
G29  21431365.838   112622683.738                          48.500                                                                                                                                    21431376.998    87757962.544                          47.250  
G12  20548900.524   107985259.186                          51.250                                                                                                                                    20548909.564    84144374.113                          50.000  
G 2  20894816.862   109803069.830                          49.500                                                                    20894824.142    85560920.225                          38.750                                                                  
G20  24338331.518   127898799.832                          35.750                                                                    24338350.918    99661407.048                          16.250                                                                  
G25  21513751.218   113055639.140                          47.750                                                                                                                                    21513764.178    88095330.626                          49.250  
G 5  23573144.144   123877791.008                          44.250                                                                                                                                    23573157.984    96528169.747                          40.500  
G24  22091634.034   116092322.659                          42.750                                                                                                                                    22091650.054    90461549.753                          47.000  
G 6  24232857.440   127344607.706                          35.500                                                                                                                                    24232873.460    99229583.489                          39.500  
R22  20397984.564   108885927.195                          53.000                                                                                                                                    20397991.944    84689079.913                          48.000  
R12  21397976.420   114304194.826                          46.500                                                                                                1                                                                                                 
R11  19154086.496   102353714.647                          54.500                                                                                                                                    19154093.196    79608465.787                          49.000  
R21  20259207.048   108411239.270                          53.000                                                                                                                                    20259213.048    84319885.577                          48.500  
R10  21371481.620   113922011.080                          49.750                                                                                                                                    21371492.200    88606013.676                          39.000  
> 2017 11 15 18 46 51.0000000  0 13                     
G29  21431170.338   112621655.956                          48.750                                                                                                                                    21431181.378    87757161.676                          47.500  
G12  20548878.564   107985144.731                          50.750                                                                                                                                    20548887.904    84144284.931                          50.000  
G 2  20895231.222   109805247.025                          49.000                                                                    20895238.502    85562616.741                          38.500                                                                  
G20  24337781.758   127895914.486                          36.250                                                                    24337801.338    99659158.738                          15.500                                                                  
G25  21513361.138   113053587.230                          48.250                                                                                                                                    21513373.398    88093731.738                          49.250  
G 5  23572754.184   123875740.840                          42.000                                                                                                                                    23572767.384    96526572.222                          40.250  
G24  22092219.674   116095399.703                          43.000                                                                                                                                    22092235.574    90463947.446                          46.750  
G 6  24233502.420   127347997.270                          35.750                                                                                                                                    24233518.840    99232224.698                          39.000  
R22  20397777.604   108884825.831                          53.250                                                                                                                                    20397785.364    84688223.294                          48.000  
R12  21397318.560   114300676.089                          47.000                                                                                                1                                                                                                 
R11  19154068.316   102353618.576                          54.250                                                                                                                                    19154074.896    79608391.065                          49.250  
R21  20259631.068   108413510.197                          53.000                                                                                                                                    20259637.408    84321651.852                          48.500  
R10  21372135.240   113925494.549                          50.000                                                                                                                                    21372146.160    88608723.033                          39.000  
> 2017 11 15 18 46 52.0000000  0 13                     
G29  21430974.338   112620628.294                          49.500                                                                                                                                    21430985.718    87756360.905                          47.250  
G12  20548856.744   107985030.476                          51.500                                                                                                                                    20548866.024    84144195.897                          49.750  
G 2  20895645.642   109807424.652                          49.250                                                                    20895652.562    85564313.591                          39.000                                                                  
G20  24337231.738   127893028.907                          36.250                                                                    24337253.138    99656910.195                          15.500                                                                  
G25  21512970.298   113051535.393                          48.750                                                                                                                                    21512983.198    88092132.906                          49.250  
G 5  23572364.004   123873690.774                          42.250                                                                                                                                    23572377.324    96524974.775                          40.250  
G24  22092805.654   116098476.886                          43.000                                                                                                                                    22092821.214    90466345.245                          47.000  
G 6  24234147.740   127351386.894                          36.000                                                                                                                                    24234164.160    99234865.963                          39.000  
R22  20397571.344   108883724.881                          53.000                                                                                                                                    20397579.444    84687366.998                          48.000  
R12  21396659.540   114297157.605                          47.250                                                                                                1                                                                                                 
R11  19154050.616   102353523.207                          54.000                                                                                                                                    19154056.356    79608316.887                          49.000  
R21  20260055.308   108415781.269                          53.000                                                                                                                                    20260061.288    84323418.245                          48.250  
R10  21372788.960   113928978.389                          50.000                                                                                                                                    21372798.720    88611432.684                          38.500  
> 2017 11 15 18 46 53.0000000  0 13                     
G29  21430779.258   112619601.001                          49.500                                                                                                                                    21430789.638    87755560.421                          47.500  
G12  20548835.024   107984916.723                          52.000                                                                                                                                    20548843.884    84144107.263                          49.500  
G 2  20896060.002   109809602.953                          49.500                                                                    20896067.322    85566010.975                          39.250                                                                  
G20  24336682.978   127890143.333                          35.750                                                                    24336703.978    99654661.718                          15.500                                                                  
G25  21512579.918   113049483.856                          49.000                                                                                                                                    21512592.658    88090534.306                          49.250  
G 5  23571973.924   123871641.066                          42.250                                                                                                                                    23571987.364    96523377.606                          40.000  
G24  22093391.074   116101554.569                          43.000                                                                                                                                    22093406.494    90468743.435                          47.000  
G 6  24234793.640   127354776.767                          36.000                                                                                                                                    24234808.660    99237507.421                          39.000  
R22  20397365.644   108882624.553                          53.000                                                                                                                                    20397372.924    84686511.192                          48.250  
R12  21396002.060   114293639.637                          47.000                                                                                                1                                                                                                 
R11  19154033.076   102353428.800                          53.750                                                                                                                                    19154039.536    79608243.455                          49.000  
R21  20260479.808   108418052.774                          52.750                                                                                                                                    20260485.908    84325184.973                          48.000  
R10  21373442.360   113932462.840                          50.000                                                                                                                                    21373452.580    88614142.808                          39.250  
> 2017 11 15 18 46 54.0000000  0 13                     
G29  21430583.938   112618573.833                          49.250                                                                                                                                    21430595.038    87754760.034                          47.250  
G12  20548813.484   107984803.196                          51.750                                                                                                                                    20548822.984    84144018.798                          49.250  
G 2  20896474.682   109811781.662                          49.250                                                                    20896482.202    85567708.668                          39.000                                                                  
G20  24336134.358   127887257.477                          36.000                                                                    24336154.518    99652413.010                          15.500                                                                  
G25  21512189.878   113047432.414                          49.500                                                                                                                                    21512202.658    88088935.783                          48.750  
G 5  23571583.684   123869591.442                          42.000                                                                                                                                    23571597.484    96521780.500                          40.250  
G24  22093977.154   116104632.406                          43.000                                                                                                                                    22093992.234    90471141.742                          47.000  
G 6  24235437.560   127358166.652                          35.750                                                                                                                                    24235453.760    99240148.889                          39.250  
R22  20397160.084   108881524.620                          53.000                                                                                                                                    20397167.364    84685655.688                          48.500  
R12  21395341.980   114290121.960                          47.250                                                                                                1                                                                                                 
R11  19154015.836   102353335.119                          54.500                                                                                                                                    19154022.176    79608170.593                          49.500  
R21  20260904.368   108420324.463                          53.000                                                                                                                                    20260910.948    84326951.839                          48.000  
R10  21374096.500   113935947.652                          49.750                                                                                                                                    21374106.480    88616853.213                          39.000  
> 2017 11 15 18 46 55.0000000  0 13                     
G29  21430388.378   112617546.970                          48.500                                                                                                                                    21430399.638    87753959.883                          47.250  
G12  20548792.064   107984690.105                          51.000                                                                                                                                    20548801.044    84143930.677                          49.500  
G 2  20896889.362   109813961.009                          49.000                                                                    20896896.582    85569406.854                          39.000                                                                  
G20  24335585.218   127884371.620                          36.750                                                                    24335605.258    99650164.316                          14.750                                                                  
G25  21511799.418   113045381.216                          49.750                                                                                                                                    21511811.978    88087337.449                          48.750  
G 5  23571193.644   123867542.094                          42.500                                                                                                                                    23571207.544    96520183.607                          40.500  
G24  22094562.994   116107710.648                          43.000                                                                                                                                    22094578.414    90473540.370                          47.000  
G 6  24236082.660   127361556.833                          36.000                                                                                                                                    24236099.200    99242790.585                          39.500  
R22  20396953.504   108880425.275                          52.750                                                                                                                                    20396960.904    84684800.650                          48.500  
R12  21394684.240   114286604.769                          47.000                                                                                                1                                                                                                 
R11  19153998.196   102353242.337                          54.250                                                                                                                                    19154004.056    79608098.433                          49.250  
R21  20261329.428   108422596.477                          52.750                                                                                                                                    20261335.308    84328718.960                          48.000  
R10  21374750.260   113939433.035                          49.750                                                                                                                                    21374760.360    88619564.059                          39.250  
> 2017 11 15 18 46 56.0000000  0 13                     
G29  21430193.178   112616520.433                          48.750                                                                                                                                    21430204.278    87753159.987                          47.000  
G12  20548770.904   107984577.473                          51.000                                                                                                                                    20548779.944    84143842.912                          49.250  
G 2  20897304.062   109816141.006                          49.250                                                                    20897311.342    85571105.555                          39.500                                                                  
G20  24335036.138   127881485.678                          36.750                                                                    24335056.118    99647915.553                          15.500                                                                  
G25  21511409.138   113043330.336                          48.250                                                                                                                                    21511421.398    88085739.363                          48.500  
G 5  23570804.584   123865493.095                          42.500                                                                                                                                    23570817.884    96518586.987                          40.750  
G24  22095148.694   116110789.324                          43.000                                                                                                                                    22095164.234    90475939.330                          47.000  
G 6  24236728.320   127364947.284                          35.500                                                                                                                                    24236744.860    99245432.487                          39.000  
R22  20396747.564   108879326.537                          53.000                                                                                                                                    20396755.184    84683946.078                          48.500  
R12  21394025.460   114283088.078                          47.250                                                                                                1                                                                                                 
R11  19153980.776   102353150.511                          53.750                                                                                                                                    19153987.356    79608027.010                          49.500  
R21  20261754.188   108424868.862                          53.250                                                                                                                                    20261759.828    84330486.371                          48.250  
R10  21375403.920   113942918.981                          50.250                                                                                                                                    21375413.900    88622275.341                          39.000  
> 2017 11 15 18 46 57.0000000  0 13                     
G29  21429997.798   112615494.009                          49.250                                                                                                                                    21430008.418    87752360.176                          47.000  
G12  20548749.544   107984465.058                          51.500                                                                                                                                    20548759.064    84143755.310                          49.250  
G 2  20897718.922   109818321.414                          49.500                                                                    20897726.382    85572804.573                          39.000                                                                  
G20  24334486.378   127878599.523                          37.250                                                                    24334506.538    99645666.611                          14.750                                                                  
G25  21511018.958   113041279.506                          48.500                                                                                                                                    21511031.398    88084141.316                          48.750  
G 5  23570413.824   123863444.180                          43.000                                                                                                                                    23570427.624    96516990.436                          40.500  
G24  22095734.414   116113868.134                          43.000                                                                                                                                    22095750.014    90478338.398                          46.750  
G 6  24237372.940   127368337.699                          35.500                                                                                                                                    24237390.000    99248074.362                          38.500  
R22  20396541.864   108878228.166                          53.250                                                                                                                                    20396550.324    84683091.792                          48.000  
R12  21393367.680   114279571.662                          47.250                                                                                                1                                                                                                 
R11  19153963.896   102353059.390                          54.000                                                                                                                                    19153970.716    79607956.138                          49.500  
R21  20262178.888   108427141.402                          53.250                                                                                                                                    20262184.628    84332253.894                          47.750  
R10  21376057.760   113946405.307                          50.250                                                                                                                                    21376068.320    88624986.925                          38.500  
> 2017 11 15 18 46 58.0000000  0 13                     
G29  21429802.358   112614467.819                          49.750                                                                                                                                    21429813.338    87751560.547                          47.000  
G12  20548728.104   107984352.997                          52.000                                                                                                                                    20548737.604    84143667.989                          49.250  
G 2  20898134.142   109820502.343                          50.000                                                                    20898141.182    85574504.000                          39.250                                                                  
G20  24333937.258   127875713.205                          37.000                                                                    24333957.018    99643417.518                          15.500                                                                  
G25  21510628.458   113039228.870                          48.500                                                                                                                                    21510641.298    88082543.418                          49.000  
G 5  23570023.704   123861395.457                          42.750                                                                                                                                    23570038.544    96515394.033                          40.750  
G24  22096320.254   116116947.246                          43.250                                                                                                                                    22096335.554    90480737.696                          46.750  
G 6  24238018.400   127371728.356                          35.750                                                                                                                                    24238034.760    99250716.422                          39.250  
R22  20396336.144   108877130.320                          53.500                                                                                                                                    20396344.124    84682237.914                          48.000  
R12  21392709.080   114276055.625                          47.000                                                                                                1                                                                                                 
R11  19153946.756   102352969.071                          54.000                                                                                                                                    19153953.096    79607885.884                          49.000  
R21  20262603.548   108429414.240                          53.250                                                                                                                                    20262609.408    84334021.656                          48.250  
R10  21376711.720   113949892.092                          49.750                                                                                                                                    21376722.620    88627698.862                          38.500  
> 2017 11 15 18 46 59.0000000  0 13                     
G29  21429606.918   112613441.926                          50.000                                                                                                                                    21429618.078    87750761.154                          47.000  
G12  20548706.924   107984241.364                          52.500                                                                                                                                    20548715.684    84143580.997                          49.750  
G 2  20898548.882   109822683.935                          50.000                                                                    20898556.402    85576203.943                          39.000                                                                  
G20  24333388.138   127872826.861                          37.000                                                                    24333408.718    99641168.421                          13.750                                                                  
G25  21510238.558   113037178.510                          48.500                                                                                                                                    21510251.518    88080945.735                          49.000  
G 5  23569634.124   123859347.052                          43.000                                                                                                                                    23569648.504    96513797.879                          41.250  
G24  22096906.334   116120026.738                          43.250                                                                                                                                    22096921.934    90483137.299                          46.250  
G 6  24238663.820   127375119.162                          35.500                                                                                                                                    24238680.000    99253358.603                          39.500  
R22  20396130.404   108876033.080                          53.250                                                                                                                                    20396138.044    84681384.509                          48.250  
R12  21392051.940   114272540.063                          47.000                                                                                                1                                                                                                 
R11  19153930.296   102352879.676                          53.750                                                                                                                                    19153936.876    79607816.359                          49.000  
R21  20263028.548   108431687.433                          53.250                                                                                                                                    20263034.408    84335789.698                          48.250  
R10  21377365.660   113953379.448                          49.750                                                                                                                                    21377376.460    88630411.244                          38.500  
> 2017 11 15 18 47  0.0000000  0 13                     
G29  21429412.218   112612416.203                          50.000                                                                                                                                    21429422.718    87749961.889                          47.000  
G12  20548685.444   107984130.033                          51.750                                                                                                                                    20548694.664    84143494.252                          50.000  
G 2  20898964.702   109824865.975                          50.250                                                                    20898971.862    85577904.234                          39.250                                                                  
G20  24332839.338   127869940.344                          37.250                                                                    24332858.998    99638919.209                          16.250                                                                  
G25  21509848.558   113035128.271                          48.000                                                                                                                                    21509860.638    88079348.150                          49.500  
G 5  23569244.364   123857298.800                          43.500                                                                                                                                    23569258.384    96512201.842                          41.000  
G24  22097492.874   116123106.465                          43.500                                                                                                                                    22097508.134    90485537.086                          46.750  
G 6  24239310.040   127378510.121                          35.500                                                                                                                                    24239324.820    99256000.908                          39.000  
R22  20395925.604   108874936.294                          53.750                                                                                                                                    20395933.004    84680531.453                          48.000  
R12  21391393.460   114269024.827                          46.750                                                                                                1                                                                                                 
R11  19153913.776   102352791.059                          54.000                                                                                                                                    19153919.876    79607747.432                          49.000  
R21  20263453.768   108433960.846                          53.250                                                                                                                                    20263458.708    84337557.908                          48.000  
R10  21378019.880   113956867.206                          49.750                                                                                                                                    21378030.800    88633123.940                          38.750  
> 2017 11 15 18 47  1.0000000  0 13                     
G29  21429216.998   112611390.846                          50.000                                                                                                                                    21429227.498    87749162.914                          47.750  
G12  20548664.524   107984019.184                          52.000                                                                                                                                    20548673.444    84143407.873                          49.750  
G 2  20899379.642   109827048.688                          50.500                                                                    20899387.222    85579605.052                          39.000                                                                  
G20  24332290.338   127867053.774                          37.000                                                                    24332309.678    99636669.928                          15.500                                                                  
G25  21509458.518   113033078.356                          48.000                                                                                                                                    21509470.658    88077750.813                          49.250  
G 5  23568854.144   123855250.876                          43.500                                                                                                                                    23568868.864    96510606.068                          40.500  
G24  22098078.594   116126186.633                          42.750                                                                                                                                    22098094.494    90487937.208                          46.500  
G 6  24239955.660   127381901.321                          36.000                                                                                                                                    24239969.800    99258643.404                          38.750  
R22  20395719.564   108873840.141                          53.750                                                                                                                                    20395727.664    84679678.893                          48.500  
R12  21390734.540   114265510.120                          47.250                                                                                                1                                                                                                 
R11  19153897.496   102352703.417                          53.750                                                                                                                                    19153903.236    79607679.266                          49.000  
R21  20263878.328   108436234.681                          53.250                                                                                                                                    20263883.608    84339326.450                          48.500  
R10  21378674.320   113960355.587                          49.750                                                                                                                                    21378685.480    88635837.121                          39.000  
> 2017 11 15 18 47  2.0000000  0 13                     
G29  21429021.778   112610365.575                          49.500                                                                                                                                    21429032.818    87748364.000                          48.000  
G12  20548643.524   107983908.518                          51.750                                                                                                                                    20548652.164    84143321.640                          50.250  
G 2  20899795.502   109829231.803                          50.250                                                                    20899802.542    85581306.178                          39.500                                                                  
G20  24331740.098   127864166.996                          37.250                                                                    24331759.918    99634420.464                          14.750                                                                  
G25  21509068.178   113031028.485                          47.750                                                                                                                                    21509081.138    88076153.511                          49.500  
G 5  23568464.844   123853203.030                          43.750                                                                                                                                    23568478.684    96509010.358                          40.500  
G24  22098664.634   116129266.930                          42.750                                                                                                                                    22098680.694    90490337.436                          46.500  
G 6  24240600.220   127385292.561                          36.000                                                                                                                                    24240615.780    99261285.935                          38.500  
R22  20395514.224   108872744.347                          53.750                                                                                                                                    20395522.204    84678826.610                          48.250  
R12  21390077.960   114261995.667                          47.500                                                                                                1                                                                                                 
R11  19153880.836   102352616.451                          53.750                                                                                                                                    19153887.296    79607611.626                          49.250  
R21  20264303.388   108438508.610                          53.250                                                                                                                                    20264309.148    84341095.062                          48.750  
R10  21379329.200   113963844.281                          49.500                                                                                                                                    21379340.340    88638550.548                          38.750  
> 2017 11 15 18 47  3.0000000  0 13                     
G29  21428826.838   112609340.641                          49.250                                                                                                                                    21428837.298    87747565.358                          47.500  
G12  20548622.444   107983798.357                          51.250                                                                                                                                    20548632.004    84143235.802                          50.000  
G 2  20900210.962   109831415.581                          50.500                                                                    20900217.602    85583007.817                          39.250                                                                  
G20  24331190.838   127861280.184                          36.750                                                                    24331210.718    99632170.976                          16.250                                                                  
G25  21508678.038   113028978.913                          48.000                                                                                                                                    21508690.638    88074556.446                          49.500  
G 5  23568075.744   123851155.511                          43.000                                                                                                                                    23568089.004    96507414.899                          40.500  
G24  22099251.374   116132347.666                          43.000                                                                                                                                    22099266.694    90492738.005                          46.750  
G 6  24241246.020   127388684.067                          36.500                                                                                                                                    24241260.620    99263928.671                          39.000  
R22  20395309.304   108871649.203                          53.000                                                                                                                                    20395317.164    84677974.833                          48.500  
R12  21389419.460   114258481.756                          47.500                                                                                                1                                                                                                 
R11  19153864.776   102352530.441                          54.000                                                                                                                                    19153870.536    79607544.732                          49.000  
R21  20264728.228   108440782.962                          53.250                                                                                                                                    20264734.088    84342864.000                          48.500  
R10  21379984.100   113967333.606                          49.500                                                                                                                                    21379994.560    88641264.463                          39.500  
> 2017 11 15 18 47  4.0000000  0 13                     
G29  21428631.638   112608315.996                          49.250                                                                                                                                    21428642.558    87746766.935                          47.000  
G12  20548601.744   107983688.553                          51.250                                                                                                                                    20548610.724    84143150.237                          49.750  
G 2  20900626.402   109833599.920                          49.750                                                                    20900633.562    85584709.908                          39.000                                                                  
G20  24330640.558   127858393.252                          36.500                                                                    24330660.858    99629921.453                          15.500                                                                  
G25  21508288.398   113026929.565                          46.750                                                                                                                                    21508300.898    88072959.554                          49.250  
G 5  23567686.164   123849108.238                          42.500                                                                                                                                    23567699.304    96505819.617                          40.250  
G24  22099837.474   116135428.714                          43.000                                                                                                                                    22099853.074    90495138.811                          46.250  
G 6  24241891.100   127392075.735                          36.250                                                                                                                                    24241905.880    99266571.535                          38.500  
R22  20395104.304   108870554.581                          53.250                                                                                                                                    20395111.584    84677123.460                          48.250  
R12  21388762.060   114254968.225                          47.250                                                                                                1                                                                                                 
R11  19153849.156   102352445.274                          53.750                                                                                                                                    19153855.616    79607478.490                          49.500  
R21  20265153.488   108443057.630                          53.250                                                                                                                                    20265158.648    84344633.184                          48.250  
R10  21380638.980   113970823.424                          49.000                                                                                                                                    21380649.440    88643978.751                          38.750  
> 2017 11 15 18 47  5.0000000  0 13                     
G29  21428436.658   112607291.409                          49.500                                                                                                                                    21428447.698    87745968.557                          47.000  
G12  20548580.744   107983578.946                          51.500                                                                                                                                    20548590.264    84143064.831                          50.000  
G 2  20901042.742   109835784.659                          50.000                                                                    20901049.782    85586412.300                          39.000                                                                  
G20  24330092.578   127855506.036                          37.500                                                                    24330111.638    99627671.682                          14.750                                                                  
G25  21507898.238   113024880.253                          47.250                                                                                                                                    21507911.078    88071362.683                          49.000  
G 5  23567296.824   123847061.024                          42.250                                                                                                                                    23567309.964    96504224.385                          40.750  
G24  22100423.734   116138509.923                          43.500                                                                                                                                    22100439.214    90497539.743                          46.000  
G 6  24242536.320   127395467.429                          36.000                                                                                                                                    24242551.520    99269214.420                          39.250  
R22  20394899.204   108869460.333                          53.250                                                                                                                                    20394906.844    84676272.383                          48.500  
R12  21388104.000   114251454.968                          47.250                                                                                                1                                                                                                 
R11  19153833.296   102352360.784                          54.000                                                                                                                                    19153839.276    79607412.781                          49.500  
R21  20265578.548   108445332.394                          53.000                                                                                                                                    20265585.228    84346402.443                          48.250  
R10  21381292.980   113974313.573                          48.750                                                                                                                                    21381304.360    88646693.309                          39.500  
> 2017 11 15 18 47  6.0000000  0 13                     
G29  21428241.838   112606267.152                          49.500                                                                                                                                    21428252.758    87745170.433                          47.500  
G12  20548560.124   107983469.812                          51.250                                                                                                                                    20548568.824    84142979.799                          50.000  
G 2  20901458.622   109837970.037                          50.500                                                                    20901465.442    85588115.193                          39.000                                                                  
G20  24329543.938   127852618.827                          37.750                                                                    24329562.778    99625421.954                          15.500                                                                  
G25  21507508.198   113022831.241                          47.250                                                                                                                                    21507521.098    88069766.053                          49.250  
G 5  23566907.144   123845014.148                          42.750                                                                                                                                    23566921.104    96502629.417                          40.500  
G24  22101009.534   116141591.554                          43.750                                                                                                                                    22101025.734    90499941.012                          46.500  
G 6  24243180.960   127398859.389                          36.000                                                                                                                                    24243197.260    99271857.502                          39.000  
R22  20394694.204   108868366.691                          53.250                                                                                                                                    20394701.244    84675421.770                          48.500  
R12  21387446.600   114247942.192                          47.250                                                                                                1                                                                                                 
R11  19153817.736   102352277.254                          54.250                                                                                                                                    19153823.716    79607347.809                          49.500  
R21  20266002.928   108447607.548                          53.500                                                                                                                                    20266009.148    84348172.007                          48.000  
R10  21381948.100   113977804.323                          49.000                                                                                                                                    21381958.540    88649408.328                          39.500  
> 2017 11 15 18 47  7.0000000  0 14                     
G29  21428046.878   112605243.114                          50.000                                                                                                                                    21428057.738    87744372.486                          47.250  
G12  20548539.184   107983360.996                          51.500                                                                                                                                    20548548.164    84142895.006                          50.000  
G 2  20901874.222   109840155.940                          50.750                                                                    20901881.562    85589818.496                          39.250                                                                  
G20  24328993.998   127849731.419                          38.000                                                                    24329013.238    99623172.036                          15.500                                                                  
G25  21507118.158   113020782.400                          47.500                                                                                                                                    21507130.478    88068169.561                          49.250  
G 5  23566518.004   123842967.456                          43.250                                                                                                                                    23566531.144    96501034.596                          40.500  
G24  22101596.834   116144673.456                          43.500                                                                                                                                    22101612.314    90502342.488                          46.500  
G31  25384904.712   133398574.2211                         35.000                                                                                                                                                                1                                 
G 6  24243827.280   127402251.486                          37.000                                                                                                                                    24243842.480    99274500.700                          39.000  
R22  20394490.044   108867273.559                          53.000                                                                                                                                    20394497.324    84674571.561                          48.000  
R12  21386789.040   114244429.809                          47.750                                                                                                1                                                                                                 
R11  19153801.896   102352194.526                          54.500                                                                                                                                    19153808.596    79607283.462                          49.500  
R21  20266429.008   108449882.959                          53.000                                                                                                                                    20266435.008    84349941.776                          48.500  
R10  21382602.820   113981295.552                          49.000                                                                                                                                    21382614.200    88652123.719                          39.500  
> 2017 11 15 18 47  8.0000000  0 14                     
G29  21427852.078   112604219.288                          50.250                                                                                                                                    21427863.638    87743574.704                          47.000  
G12  20548518.824   107983252.537                          52.000                                                                                                                                    20548527.464    84142810.488                          50.250  
G 2  20902290.402   109842342.402                          50.500                                                                    20902297.502    85591522.232                          39.250                                                                  
G20  24328443.918   127846843.940                          37.500                                                                    24328464.098    99620922.032                          16.250                                                                  
G25  21506728.378   113018733.751                          48.000                                                                                                                                    21506740.998    88066573.213                          49.500  
G 5  23566129.084   123840920.990                          43.750                                                                                                                                    23566141.924    96499439.950                          40.500  
G24  22102182.714   116147755.671                          43.750                                                                                                                                    22102198.434    90504744.210                          47.000  
G31  25384258.352   133395177.473                          35.500                                                                                                                                                                1                                 
G 6  24244473.140   127405643.719                          36.500                                                                                                                                    24244488.500    99277143.994                          39.250  
R22  20394285.284   108866180.921                          53.250                                                                                                                                    20394292.444    84673721.733                          48.250  
R12  21386132.100   114240917.826                          48.000                                                                                                1                                                                                                 
R11  19153786.996   102352112.626                          54.250                                                                                                                                    19153793.696    79607219.766                          49.750  
R21  20266854.828   108452158.644                          53.500                                                                                                                                    20266859.988    84351711.746                          48.250  
R10  21383258.040   113984787.235                          49.000                                                                                                                                    21383269.440    88654839.473                          39.250  
> 2017 11 15 18 47  9.0000000  0 14                     
G29  21427656.738   112603195.715                          50.500                                                                                                                                    21427668.418    87742777.116                          47.250  
G12  20548498.244   107983144.438                          52.750                                                                                                                                    20548507.644    84142726.256                          49.500  
G 2  20902706.802   109844529.393                          50.500                                                                    20902713.842    85593226.378                          39.000                                                                  
G20  24327894.618   127843956.306                          38.250                                                                    24327913.838    99618671.940                          17.750                                                                  
G25  21506338.738   113016685.294                          48.500                                                                                                                                    21506351.478    88064977.009                          49.750  
G 5  23565739.224   123838874.753                          43.250                                                                                                                                    23565751.944    96497845.485                          40.500  
G24  22102769.614   116150838.215                          43.250                                                                                                                                    22102784.934    90507146.184                          46.500  
G31  25383612.132   133391780.984                          35.500                                                                                                                                                                1                                 
G 6  24245119.180   127409036.154                          36.500                                                                                                                                    24245133.660    99279787.454                          39.000  
R22  20394080.184   108865088.811                          53.500                                                                                                                                    20394088.044    84672872.320                          48.000  
R12  21385474.680   114237406.212                          47.750                                                                                                1                                                                                                 
R11  19153771.476   102352031.594                          54.000                                                                                                                                    19153777.116    79607156.744                          49.750  
R21  20267280.088   108454434.614                          53.750                                                                                                                                    20267285.728    84353481.945                          47.750  
R10  21383913.600   113988279.415                          49.000                                                                                                                                    21383923.920    88657555.604                          39.250  
> 2017 11 15 18 47 10.0000000  0 14                     
G29  21427462.518   112602172.429                          50.250                                                                                                                                    21427474.018    87741979.756                          46.500  
G12  20548477.724   107983036.736                          52.500                                                                                                                                    20548486.764    84142642.338                          49.750  
G 2  20903122.662   109846716.972                          50.500                                                                    20903129.282    85594930.983                          38.750                                                                  
G20  24327345.798   127841068.622                          37.750                                                                    24327364.858    99616421.796                          17.750                                                                  
G25  21505949.078   113014637.072                          48.000                                                                                                                                    21505961.338    88063380.996                          49.000  
G 5  23565349.944   123836828.797                          43.000                                                                                                                                    23565362.264    96496251.236                          40.500  
G24  22103356.474   116153921.097                          43.750                                                                                                                                    22103372.034    90509548.430                          46.500  
G31  25382965.832   133388384.778                          35.500                                                                                                                                                                1                                 
G 6  24245765.200   127412428.766                          36.750                                                                                                                                    24245779.580    99282431.048                          38.750  
R22  20393875.824   108863997.280                          53.750                                                                                                                                    20393883.924    84672023.354                          47.500  
R12  21384817.240   114233895.071                          48.000                                                                                                1                                                                                                 
R11  19153756.376   102351951.444                          54.250                                                                                                                                    19153762.956    79607094.405                          49.500  
R21  20267705.248   108456710.895                          53.500                                                                                                                                    20267710.648    84355252.390                          48.000  
R10  21384567.760   113991772.138                          48.750                                                                                                                                    21384579.500    88660272.165                          39.000  
> 2017 11 15 18 47 11.0000000  0 14                     
G29  21427267.618   112601149.315                          49.500                                                                                                                                    21427278.898    87741182.519                          46.250  
G12  20548456.824   107982929.350                          52.500                                                                                                                                    20548466.444    84142558.658                          49.500  
G 2  20903539.202   109848905.061                          50.500                                                                    20903545.662    85596635.988                          39.000                                                                  
G20  24326796.098   127838180.722                          37.500                                                                    24326815.318    99614171.549                          16.750                                                                  
G25  21505559.378   113012589.014                          48.500                                                                                                                                    21505571.758    88061785.111                          49.250  
G 5  23564960.524   123834782.975                          43.000                                                                                                                                    23564973.904    96494657.089                          40.500  
G24  22103942.814   116157004.216                          43.000                                                                                                                                    22103958.714    90511950.852                          46.500  
G31  25382318.392   133384988.719                          34.500                                                                                                                                                                1                                 
G 6  24246408.600   127415821.488                          36.250                                                                                                                                    24246424.800    99285074.725                          39.000  
R22  20393671.444   108862906.208                          54.250                                                                                                                                    20393679.304    84671174.747                          48.000  
R12  21384160.840   114230384.256                          48.000                                                                                                1                                                                                                 
R11  19153741.716   102351872.042                          54.250                                                                                                                                    19153748.416    79607032.648                          49.500  
R21  20268130.708   108458987.406                          53.500                                                                                                                                    20268136.808    84357023.010                          48.250  
R10  21385223.460   113995265.261                          48.750                                                                                                                                    21385234.600    88662989.026                          39.250  
> 2017 11 15 18 47 12.0000000  0 14                     
G29  21427073.118   112600126.438                          50.000                                                                                                                                    21427084.558    87740385.472                          46.500  
G12  20548436.724   107982822.297                          52.250                                                                                                                                    20548445.644    84142475.240                          50.000  
G 2  20903955.802   109851093.668                          50.250                                                                    20903962.502    85598341.396                          39.000                                                                  
G20  24326246.418   127835292.762                          37.000                                                                    24326265.538    99611921.184                          17.250                                                                  
G25  21505169.038   113010541.127                          48.000                                                                                                                                    21505182.118    88060189.355                          49.500  
G 5  23564571.504   123832737.368                          43.500                                                                                                                                    23564584.704    96493063.110                          40.500  
G24  22104529.254   116160087.637                          43.000                                                                                                                                    22104545.494    90514353.511                          46.500  
G31  25381672.072   133381592.920                          35.000                                                                                                                                                                1                                 
G 6  24247054.800   127419214.378                          35.500                                                                                                                                    24247070.520    99287718.529                          39.000  
R22  20393466.724   108861815.665                          53.500                                                                                                                                    20393474.944    84670326.550                          48.000  
R12  21383502.720   114226873.833                          47.500                                                                                                1                                                                                                 
R11  19153726.876   102351793.425                          54.250                                                                                                                                    19153733.216    79606971.495                          49.500  
R21  20268555.888   108461264.206                          53.750                                                                                                                                    20268561.648    84358793.859                          48.500  
R10  21385879.380   113998758.867                          49.250                                                                                                                                    21385890.420    88665706.270                          39.500  
> 2017 11 15 18 47 13.0000000  0 14                     
G29  21426878.818   112599103.766                          50.000                                                                                                                                    21426889.558    87739588.587                          46.750  
G12  20548416.644   107982715.604                          53.000                                                                                                                                    20548425.564    84142392.105                          49.750  
G 2  20904372.162   109853282.819                          49.750                                                                    20904379.682    85600047.229                          39.250                                                                  
G20  24325696.698   127832404.621                          37.000                                                                    24325715.518    99609670.666                          17.750                                                                  
G25  21504779.858   113008493.429                          48.000                                                                                                                                    21504792.658    88058593.748                          49.500  
G 5  23564182.864   123830691.982                          43.500                                                                                                                                    23564194.904    96491469.307                          40.250  
G24  22105116.594   116163171.378                          43.500                                                                                                                                    22105131.954    90516756.421                          46.500  
G31  25381028.412   133378197.319                          34.500                                                                                                                                                                1                                 
G 6  24247701.260   127422607.388                          35.750                                                                                                                                    24247716.700    99290362.432                          39.000  
R22  20393262.644   108860725.618                          53.500                                                                                                                                    20393271.104    84669478.736                          48.250  
R12  21382846.180   114223363.824                          47.500                                                                                                1                                                                                                 
R11  19153712.356   102351715.688                          54.000                                                                                                                                    19153718.456    79606911.039                          49.500  
R21  20268981.448   108463541.292                          53.750                                                                                                                                    20268987.328    84360564.926                          48.500  
R10  21386534.280   114002252.944                          49.000                                                                                                                                    21386545.660    88668423.878                          39.500  
> 2017 11 15 18 47 14.0000000  0 14                     
G29  21426684.478   112598081.341                          50.000                                                                                                                                    21426695.278    87738791.896                          47.250  
G12  20548396.284   107982609.276                          52.750                                                                                                                                    20548405.544    84142309.254                          49.750  
G 2  20904788.602   109855472.521                          50.500                                                                    20904795.942    85601753.485                          38.750                                                                  
G20  24325147.858   127829516.335                          37.500                                                                    24325166.278    99607420.050                          17.250                                                                  
G25  21504389.878   113006445.949                          48.500                                                                                                                                    21504402.778    88056998.313                          49.750  
G 5  23563792.884   123828646.838                          42.000                                                                                                                                    23563805.504    96489875.698                          40.250  
G24  22105703.654   116166255.425                          43.500                                                                                                                                    22105719.494    90519159.572                          46.500  
G31  25380381.412   133374802.011                          33.750                                                                                                                                                                1                                 
G 6  24248346.440   127426000.607                          36.250                                                                                                                                    24248361.940    99293006.490                          38.750  
R22  20393058.804   108859636.086                          53.250                                                                                                                                    20393066.084    84668631.331                          48.000  
R12  21382189.220   114219854.216                          47.500                                                                                                1                                                                                                 
R11  19153698.116   102351638.824                          54.000                                                                                                                                    19153704.676    79606851.252                          49.500  
R21  20269407.128   108465818.649                          54.000                                                                                                                                    20269412.648    84362336.209                          48.000  
R10  21387191.060   114005747.504                          49.250                                                                                                                                    21387201.620    88671141.860                          39.500  
> 2017 11 15 18 47 15.0000000  0 14                     
G29  21426489.518   112597059.226                          49.250                                                                                                                                    21426500.778    87737995.443                          47.250  
G12  20548376.264   107982503.366                          52.000                                                                                                                                    20548385.484    84142226.727                          50.000  
G 2  20905205.582   109857662.835                          50.000                                                                    20905213.142    85603460.225                          39.000                                                                  
G20  24324596.798   127826628.060                          37.000                                                                    24324617.038    99605169.435                          16.750                                                                  
G25  21504000.778   113004398.697                          48.750                                                                                                                                    21504013.338    88055403.050                          50.250  
G 5  23563403.764   123826601.954                          42.250                                                                                                                                    23563416.844    96488282.292                          40.750  
G24  22106290.434   116169339.841                          43.250                                                                                                                                    22106305.634    90521562.999                          46.500  
G31  25379733.812   133371406.880                          34.250                                                                                                                                                                1                                 
G 6  24248991.360   127429394.015                          36.250                                                                                                                                    24249007.960    99295650.700                          39.000  
R22  20392855.104   108858547.129                          53.500                                                                                                                                    20392862.604    84667784.368                          48.250  
R12  21381532.360   114216345.083                          48.000                                                                                                1                                                                                                 
R11  19153684.236   102351562.840                          54.250                                                                                                                                    19153690.216    79606792.157                          49.500  
R21  20269832.788   108468096.332                          54.000                                                                                                                                    20269838.308    84364107.734                          48.000  
R10  21387845.880   114009242.604                          49.250                                                                                                                                    21387857.040    88673860.268                          39.500  
> 2017 11 15 18 47 16.0000000  0 14                     
G29  21426295.178   112596037.301                          49.000                                                                                                                                    21426305.918    87737199.141                          47.500  
G12  20548356.024   107982397.771                          51.500                                                                                                                                    20548365.184    84142144.445                          50.000  
G 2  20905622.962   109859853.644                          50.250                                                                    20905629.842    85605167.351                          39.000                                                                  
G20  24324047.598   127823739.554                          36.250                                                                    24324066.658    99602918.649                          16.250                                                                  
G25  21503611.238   113002351.606                          48.500                                                                                                                                    21503623.618    88053807.914                          49.750  
G 5  23563014.164   123824557.262                          42.000                                                                                                                                    23563027.964    96486689.031                          40.750  
G24  22106877.994   116172424.490                          42.500                                                                                                                                    22106893.014    90523966.621                          46.500  
G31  25379088.192   133368012.069                          34.500                                                                                                                                                                1                                 
G 6  24249637.280   127432787.564                          36.000                                                                                                                                    24249653.820    99298295.028                          38.750  
R22  20392650.684   108857458.656                          53.500                                                                                                                                    20392657.964    84666937.776                          48.250  
R12  21380875.080   114212836.317                          47.750                                                                                                1                                                                                                 
R11  19153670.376   102351487.635                          54.250                                                                                                                                    19153675.896    79606733.665                          49.500  
R21  20270258.748   108470374.280                          54.000                                                                                                                                    20270262.968    84365879.474                          48.000  
R10  21388502.020   114012738.169                          49.250                                                                                                                                    21388513.400    88676579.034                          39.500  
> 2017 11 15 18 47 17.0000000  0 14                     
G29  21426100.538   112595015.606                          49.500                                                                                                                                    21426111.698    87736403.017                          47.250  
G12  20548335.744   107982292.516                          51.500                                                                                                                                    20548345.204    84142062.426                          50.000  
G 2  20906039.582   109862044.999                          50.250                                                                    20906046.622    85606874.896                          39.000                                                                  
G20  24323497.478   127820850.934                          36.500                                                                    24323516.778    99600667.781                          16.250                                                                  
G25  21503221.418   113000304.699                          48.250                                                                                                                                    21503234.318    88052212.925                          49.750  
G 5  23562625.244   123822512.785                          42.250                                                                                                                                    23562638.624    96485095.941                          40.500  
G24  22107464.414   116175509.440                          42.500                                                                                                                                    22107480.074    90526370.468                          46.500  
G31  25378441.772   133364617.414                          33.500                                                                                                                                                                1                                 
G 6  24250283.740   127436181.255                          36.500                                                                                                                                    24250299.860    99300939.461                          39.000  
R22  20392447.184   108856370.681                          53.500                                                                                                                                    20392454.104    84666091.571                          48.250  
R12  21380217.800   114209327.945                          47.750                                                                                                1                                                                                                 
R11  19153655.876   102351413.256                          54.500                                                                                                                                    19153661.976    79606675.814                          49.000  
R21  20270684.548   108472652.471                          54.000                                                                                                                                    20270690.048    84367651.398                          48.000  
R10  21389158.360   114016234.218                          50.000                                                                                                                                    21389168.340    88679298.171                          39.500  
> 2017 11 15 18 47 18.0000000  0 14                     
G29  21425906.378   112593994.180                          50.000                                                                                                                                    21425917.878    87735607.105                          47.000  
G12  20548316.264   107982187.675                          51.750                                                                                                                                    20548324.664    84141980.740                          50.000  
G 2  20906456.682   109864236.943                          50.250                                                                    20906463.962    85608582.908                          39.500                                                                  
G20  24322948.118   127817962.257                          37.000                                                                    24322966.998    99598416.911                          15.500                                                                  
G25  21502832.198   112998258.068                          47.750                                                                                                                                    21502844.998    88050618.150                          49.000  
G 5  23562236.404   123820468.571                          42.500                                                                                                                                    23562249.604    96483503.055                          40.500  
G24  22108051.334   116178594.758                          43.000                                                                                                                                    22108067.174    90528774.610                          46.500  
G31  25377796.192   133361223.031                          33.250                                                                                                                                                                1                                 
G 6  24250930.000   127439575.123                          36.750                                                                                                                                    24250945.540    99303584.031                          39.000  
R22  20392243.704   108855283.284                          53.500                                                                                                                                    20392250.624    84665245.825                          48.500  
R12  21379561.800   114205820.044                          48.250                                                                                                1                                                                                                 
R11  19153642.376   102351339.788                          54.500                                                                                                                                    19153648.016    79606618.673                          49.250  
R21  20271109.988   108474931.002                          54.250                                                                                                                                    20271115.868    84369423.595                          48.250  
R10  21389813.220   114019730.836                          49.500                                                                                                                                    21389824.240    88682017.756                          39.250  
> 2017 11 15 18 47 19.0000000  0 14                     
G29  21425712.278   112592972.948                          50.000                                                                                                                                    21425722.618    87734811.342                          46.500  
G12  20548296.544   107982083.160                          52.000                                                                                                                                    20548305.304    84141899.298                          49.750  
G 2  20906873.882   109866429.375                          50.500                                                                    20906881.142    85610291.297                          39.250                                                                  
G20  24322397.958   127815073.420                          37.000                                                                    24322417.898    99596165.873                          15.500                                                                  
G25  21502442.778   112996211.575                          48.000                                                                                                                                    21502455.158    88049023.485                          49.250  
G 5  23561847.944   123818424.557                          43.000                                                                                                                                    23561860.604    96481910.323                          41.000  
G24  22108638.354   116181680.325                          43.500                                                                                                                                    22108654.314    90531178.942                          46.750  
G31  25377150.472   133357828.898                          33.000                                                                                                                                                                1                                 
G 6  24251575.960   127442969.119                          36.750                                                                                                                                    24251591.380    99306228.701                          39.000  
R22  20392040.384   108854196.374                          53.500                                                                                                                                    20392047.424    84664400.447                          48.000  
R12  21378905.540   114202312.460                          48.000                                                                                                1                                                                                                 
R11  19153628.736   102351267.109                          54.750                                                                                                                                    19153635.316    79606562.146                          49.250  
R21  20271535.688   108477209.774                          54.500                                                                                                                                    20271541.548    84371195.975                          48.000  
R10  21390470.560   114023227.882                          49.750                                                                                                                                    21390481.480    88684737.671                          40.000  
> 2017 11 15 18 47 20.0000000  0 14                     
G29  21425517.958   112591951.931                          50.500                                                                                                                                    21425528.238    87734015.748                          46.250  
G12  20548276.204   107981978.971                          52.500                                                                                                                                    20548285.244    84141818.112                          49.750  
G 2  20907291.302   109868622.356                          50.250                                                                    20907298.222    85612000.116                          39.000                                                                  
G20  24321848.418   127812184.414                          36.750                                                                    24321867.998    99593914.773                          15.500                                                                  
G25  21502053.478   112994165.249                          48.500                                                                                                                                    21502065.918    88047428.940                          49.500  
G 5  23561458.524   123816380.716                          42.750                                                                                                                                    23561471.784    96480317.715                          41.000  
G24  22109225.514   116184766.164                          43.750                                                                                                                                    22109241.694    90533583.485                          47.000  
G31  25376503.752   133354434.900                          32.750                                                                                                                                                                1                                 
G 6  24252221.400   127446363.289                          36.000                                                                                                                                    24252237.400    99308873.511                          38.750  
R22  20391836.364   108853109.935                          53.500                                                                                                                                    20391843.424    84663555.446                          48.250  
R12  21378248.740   114198805.261                          47.750                                                                                                1                                                                                                 
R11  19153615.176   102351195.236                          54.500                                                                                                                                    19153621.156    79606506.243                          49.000  
R21  20271962.288   108479488.819                          54.500                                                                                                                                    20271966.748    84372968.560                          47.750  
R10  21391125.860   114026725.416                          49.750                                                                                                                                    21391137.260    88687457.969                          39.500  
> 2017 11 15 18 47 21.0000000  0 14                     
G29  21425323.938   112590931.135                          51.000                                                                                                                                    21425334.018    87733220.325                          46.500  
G12  20548256.684   107981875.140                          53.000                                                                                                                                    20548265.424    84141737.202                          50.000  
G 2  20907709.322   109870815.858                          51.000                                                                    20907716.122    85613709.338                          39.250                                                                  
G20  24321297.718   127809295.266                          36.500                                                                    24321318.018    99591663.491                          16.250                                                                  
G25  21501663.638   112992119.114                          48.250                                                                                                                                    21501676.378    88045834.554                          49.500  
G 5  23561069.284   123814337.103                          43.250                                                                                                                                    23561082.964    96478725.294                          41.250  
G24  22109812.574   116187852.315                          43.750                                                                                                                                    22109828.654    90535988.272                          47.000  
G31  25375858.332   133351041.224                          34.000                                                                                                                                                                1                                 
G 6  24252869.100   127449757.595                          36.000                                                                                                                                    24252883.060    99311518.431                          38.500  
R22  20391633.044   108852023.996                          53.750                                                                                                                                    20391640.564    84662710.831                          48.000  
R12  21377592.280   114195298.463                          48.000                                                                                                1                                                                                                 
R11  19153601.856   102351124.157                          54.250                                                                                                                                    19153608.096    79606450.957                          49.250  
R21  20272387.608   108481768.115                          54.250                                                                                                                                    20272393.248    84374741.346                          48.250  
R10  21391781.760   114030223.395                          49.750                                                                                                                                    21391793.620    88690178.613                          39.500  
> 2017 11 15 18 47 22.0000000  0 14                     
G29  21425129.438   112589910.670                          51.250                                                                                                                                    21425139.958    87732425.162                          47.000  
G12  20548237.024   107981771.750                          53.500                                                                                                                                    20548245.484    84141656.638                          49.500  
G 2  20908126.162   109873010.004                          51.000                                                                    20908133.262    85615419.060                          38.500                                                                  
G20  24320749.078   127806406.158                          37.000                                                                    24320768.238    99589412.228                          16.750                                                                  
G25  21501274.558   112990073.287                          48.500                                                                                                                                    21501287.178    88044240.409                          49.250  
G 5  23560680.804   123812293.796                          44.000                                                                                                                                    23560694.124    96477133.115                          41.250  
G24  22110400.634   116190938.852                          43.750                                                                                                                                    22110416.474    90538393.366                          47.000  
G31  25375212.972   133347647.756                          33.500                                                                                                                                                                1                                 
G 6  24253514.220   127453152.148                          36.000                                                                                                                                    24253529.300    99314163.541                          38.500  
R22  20391429.544   108850938.679                          54.000                                                                                                                                    20391436.604    84661866.693                          48.000  
R12  21376935.380   114191792.151                          48.250                                                                                                1                                                                                                 
R11  19153588.156   102351054.053                          54.000                                                                                                                                    19153594.616    79606396.432                          49.000  
R21  20272813.608   108484047.810                          54.000                                                                                                                                    20272819.468    84376514.450                          48.250  
R10  21392438.360   114033721.972                          50.000                                                                                                                                    21392450.220    88692899.726                          39.000  
> 2017 11 15 18 47 23.0000000  0 14                     
G29  21424935.258   112588890.368                          51.500                                                                                                                                    21424945.938    87731630.123                          47.000  
G12  20548217.424   107981668.643                          53.500                                                                                                                                    20548226.184    84141576.295                          50.000  
G 2  20908543.942   109875204.617                          51.000                                                                    20908551.042    85617129.146                          39.250                                                                  
G20  24320199.778   127803516.795                          37.000                                                                    24320218.558    99587160.780                          16.750                                                                  
G25  21500884.818   112988027.559                          48.500                                                                                                                                    21500897.618    88042646.335                          48.500  
G 5  23560292.144   123810250.649                          43.500                                                                                                                                    23560305.704    96475541.058                          41.500  
G24  22110988.174   116194025.625                          44.000                                                                                                                                    22111003.414    90540798.644                          47.000  
G31  25374567.532   133344254.503                          34.000                                                                                                                                                                1                                 
G 6  24254159.160   127456546.791                          36.000                                                                                                                                    24254174.880    99316808.721                          38.250  
R22  20391226.424   108849853.810                          54.000                                                                                                                                    20391233.584    84661022.906                          47.750  
R12  21376278.940   114188286.170                          48.250                                                                                                1                                                                                                 
R11  19153575.736   102350984.737                          53.750                                                                                                                                    19153581.496    79606342.520                          49.250  
R21  20273239.708   108486327.706                          53.500                                                                                                                                    20273244.768    84378287.698                          48.000  
R10  21393094.720   114037220.940                          49.500                                                                                                                                    21393106.340    88695621.139                          39.250  
> 2017 11 15 18 47 24.0000000  0 14                     
G29  21424741.258   112587870.313                          51.750                                                                                                                                    21424751.938    87730835.275                          46.750  
G12  20548197.964   107981565.910                          53.750                                                                                                                                    20548206.364    84141496.239                          49.500  
G 2  20908961.722   109877399.779                          50.750                                                                    20908968.482    85618839.666                          39.250                                                                  
G20  24319649.178   127800627.351                          36.750                                                                    24319668.478    99584909.230                          16.750                                                                  
G25  21500496.078   112985982.063                          48.750                                                                                                                                    21500509.278    88041052.446                          49.000  
G 5  23559903.864   123808207.735                          43.500                                                                                                                                    23559916.704    96473949.179                          41.000  
G24  22111575.154   116197112.722                          44.000                                                                                                                                    22111591.234    90543204.170                          47.000  
G31  25373920.112   133340861.466                          33.250                                                                                                                                                                1                                 
G 6  24254805.700   127459941.578                          36.250                                                                                                                                    24254820.720    99319454.012                          38.500  
R22  20391023.424   108848769.467                          54.250                                                                                                                                    20391030.704    84660179.537                          48.000  
R12  21375623.720   114184780.603                          48.500                                                                                                1                                                                                                 
R11  19153562.816   102350916.266                          54.000                                                                                                                                    19153568.436    79606289.264                          49.500  
R21  20273665.428   108488607.907                          53.250                                                                                                                                    20273672.008    84380061.189                          47.750  
R10  21393750.720   114040720.404                          49.000                                                                                                                                    21393762.340    88698342.932                          39.000  
> 2017 11 15 18 47 25.0000000  0 14                     
G29  21424547.178   112586850.495                          52.000                                                                                                                                    21424557.038    87730040.616                          47.000  
G12  20548178.364   107981463.521                          54.000                                                                                                                                    20548186.584    84141416.462                          49.500  
G 2  20909379.642   109879595.491                          50.000                                                                    20909386.262    85620550.614                          39.500                                                                  
G20  24319099.778   127797737.767                          37.250                                                                    24319118.078    99582657.578                          15.500                                                                  
G25  21500106.898   112983936.732                          49.250                                                                                                                                    21500119.878    88039458.676                          49.000  
G 5  23559514.284   123806165.040                          42.500                                                                                                                                    23559527.664    96472357.477                          41.000  
G24  22112162.294   116200200.119                          43.500                                                                                                                                    22112178.594    90545609.925                          46.750  
G31  25373275.192   133337468.671                          34.500                                                                                                                                                                1                                 
G 6  24255451.100   127463336.536                          36.000                                                                                                                                    24255466.340    99322099.434                          38.500  
R22  20390820.444   108847685.620                          54.000                                                                                                                                    20390827.964    84659336.547                          47.750  
R12  21374967.660   114181275.439                          48.250                                                                                                1                                                                                                 
R11  19153550.096   102350848.564                          54.250                                                                                                                                    19153556.076    79606236.609                          49.500  
R21  20274091.528   108490888.369                          53.500                                                                                                                                    20274097.048    84381834.885                          47.750  
R10  21394407.700   114044220.334                          49.500                                                                                                                                    21394418.380    88701065.092                          39.000  
> 2017 11 15 18 47 26.0000000  0 14                     
G29  21424353.218   112585830.871                          52.000                                                                                                                                    21424363.558    87729246.105                          47.250  
G12  20548158.884   107981361.471                          54.000                                                                                                                                    20548167.864    84141336.938                          49.750  
G 2  20909797.402   109881791.722                          50.500                                                                    20909804.022    85622261.957                          39.250                                                                  
G20  24318549.958   127794848.033                          36.750                                                                    24318569.138    99580405.821                          15.500                                                                  
G25  21499717.498   112981891.585                          49.500                                                                                                                                    21499730.338    88037865.055                          49.000  
G 5  23559125.804   123804122.563                          41.750                                                                                                                                    23559138.824    96470765.940                          41.250  
G24  22112749.774   116203287.786                          43.500                                                                                                                                    22112766.314    90548015.895                          46.500  
G31  25372629.512   133334076.086                          34.000                                                                                                                                                                1                                 
G 6  24256096.340   127466731.651                          36.000                                                                                                                                    24256113.660    99324744.970                          39.000  
R22  20390617.224   108846602.281                          54.250                                                                                                                                    20390624.384    84658493.954                          48.000  
R12  21374310.960   114177770.644                          47.750                                                                                                1                                                                                                 
R11  19153537.996   102350781.634                          54.000                                                                                                                                    19153544.096    79606184.555                          49.500  
R21  20274517.268   108493169.036                          53.500                                                                                                                                    20274523.248    84383608.739                          48.000  
R10  21395065.440   114047720.704                          49.500                                                                                                                                    21395075.180    88703787.596                          39.000  
> 2017 11 15 18 47 27.0000000  0 14                     
G29  21424159.098   112584811.531                          52.250                                                                                                                                    21424170.118    87728451.818                          47.000  
G12  20548139.644   107981259.804                          53.250                                                                                                                                    20548148.564    84141257.720                          50.000  
G 2  20910215.702   109883988.522                          50.250                                                                    20910222.462    85623973.749                          39.000                                                                  
G20  24317999.858   127791958.182                          36.750                                                                    24318018.498    99578153.989                          16.250                                                                  
G25  21499328.578   112979846.654                          48.750                                                                                                                                    21499341.018    88036271.608                          48.750  
G 5  23558737.064   123802080.306                          42.000                                                                                                                                    23558750.784    96469174.580                          41.750  
G24  22113337.634   116206375.810                          43.250                                                                                                                                    22113353.874    90550422.142                          46.500  
G31  25371985.212   133330683.703                          33.750                                                                                                                                                                1                                 
G 6  24256744.080   127470126.932                          36.250                                                                                                                                    24256758.860    99327390.631                          38.500  
R22  20390414.624   108845519.483                          54.000                                                                                                                                    20390422.004    84657651.780                          48.500  
R12  21373654.960   114174266.279                          47.750                                                                                                1                                                                                                 
R11  19153524.916   102350715.639                          54.000                                                                                                                                    19153530.896    79606133.225                          49.000  
R21  20274944.348   108495450.031                          53.000                                                                                                                                    20274950.228    84385382.840                          47.750  
R10  21395720.980   114051221.577                          50.000                                                                                                                                    21395732.360    88706510.495                          39.000  
> 2017 11 15 18 47 28.0000000  0 14                     
G29  21423965.318   112583792.493                          52.000                                                                                                                                    21423975.658    87727657.765                          47.000  
G12  20548120.344   107981158.579                          53.250                                                                                                                                    20548129.084    84141178.843                          49.750  
G 2  20910633.502   109886185.957                          50.750                                                                    20910640.482    85625686.040                          39.250                                                                  
G20  24317450.238   127789068.330                          36.750                                                                    24317468.998    99575902.195                          16.250                                                                  
G25  21498939.178   112977801.993                          48.500                                                                                                                                    21498951.858    88034678.368                          48.750  
G 5  23558348.664   123800038.409                          42.250                                                                                                                                    23558362.224    96467583.489                          41.250  
G24  22113926.074   116209464.205                          43.750                                                                                                                                    22113941.094    90552828.673                          46.500  
G31  25371338.652   133327291.730                          34.250                                                                                                                                                                1                                 
G 6  24257390.500   127473522.450                          36.250                                                                                                                                    24257405.220    99330036.485                          38.750  
R22  20390211.704   108844437.283                          53.500                                                                                                                                    20390218.984    84656810.075                          48.500  
R12  21372999.380   114170762.416                          48.000                                                                                                1                                                                                                 
R11  19153512.916   102350650.620                          54.250                                                                                                                                    19153519.376    79606082.655                          48.750  
R21  20275370.028   108497731.380                          53.000                                                                                                                                    20275376.588    84387157.230                          47.750  
R10  21396378.640   114054723.027                          49.500                                                                                                                                    21396389.440    88709233.841                          39.250  
> 2017 11 15 18 47 29.0000000  0 14                     
G29  21423771.118   112582773.623                          50.250                                                                                                                                    21423782.158    87726863.840                          46.750  
G12  20548101.064   107981057.640                          53.000                                                                                                                                    20548109.984    84141100.189                          49.750  
G 2  20911052.142   109888383.841                          50.500                                                                    20911059.142    85627398.677                          39.500                                                                  
G20  24316899.618   127786178.281                          37.000                                                                    24316919.098    99573650.240                          16.250                                                                  
G25  21498550.178   112975757.472                          48.750                                                                                                                                    21498562.278    88033085.230                          49.000  
G 5  23557960.804   123797996.607                          42.000                                                                                                                                    23557973.964    96465992.477                          41.250  
G24  22114513.674   116212552.818                          43.750                                                                                                                                    22114529.154    90555235.383                          47.000  
G31  25370694.692   133323899.854                          34.750                                                                                                                                                                1                                 
G 6  24258035.220   127476918.062                          36.250                                                                                                                                    24258051.420    99332682.421                          38.250  
R22  20390008.984   108843355.524                          53.750                                                                                                                                    20390016.024    84655968.709                          48.250  
R12  21372343.740   114167258.870                          47.750                                                                                                1                                                                                                 
R11  19153501.276   102350586.364                          54.000                                                                                                                                    19153507.156    79606032.680                          49.000  
R21  20275796.408   108500012.937                          53.250                                                                                                                                    20275802.748    84388931.764                          48.000  
R10  21397034.940   114058224.857                          49.500                                                                                                                                    21397046.320    88711957.480                          39.250  
> 2017 11 15 18 47 30.0000000  0 14                     
G29  21423577.278   112581754.979                          49.250                                                                                                                                    21423588.058    87726070.092                          47.000  
G12  20548081.744   107980957.051                          52.000                                                                                                                                    20548090.844    84141021.806                          49.750  
G 2  20911470.302   109890582.288                          50.750                                                                    20911477.162    85629111.751                          39.500                                                                  
G20  24316349.038   127783288.088                          37.000                                                                    24316368.378    99571398.186                          14.750                                                                  
G25  21498161.638   112973713.147                          48.750                                                                                                                                    21498173.498    88031492.256                          49.000  
G 5  23557571.984   123795955.042                          42.000                                                                                                                                    23557585.184    96464401.657                          41.250  
G24  22115101.514   116215641.754                          43.500                                                                                                                                    22115117.114    90557642.336                          47.250  
G31  25370049.432   133320508.259                          34.250                                                                                                                                                                1                                 
G 6  24258682.020   127480313.795                          36.000                                                                                                                                    24258697.380    99335328.453                          37.750  
R22  20389806.844   108842274.295                          53.750                                                                                                                                    20389814.124    84655127.755                          48.500  
R12  21371687.320   114163755.734                          48.000                                                                                                1                                                                                                 
R11  19153488.936   102350522.897                          54.250                                                                                                                                    19153495.616    79605983.313                          49.250  
R21  20276222.208   108502294.783                          53.250                                                                                                                                    20276228.648    84390706.536                          48.250  
R10  21397692.920   114061727.170                          49.750                                                                                                                                    21397703.720    88714681.497                          39.750  
> 2017 11 15 18 47 31.0000000  0 14                     
G29  21423383.358   112580736.574                          49.000                                                                                                                                    21423394.518    87725276.534                          47.000  
G12  20548062.944   107980856.835                          51.750                                                                                                                                    20548071.644    84140943.711                          50.000  
G 2  20911888.882   109892781.268                          50.750                                                                    20911895.762    85630825.240                          39.500                                                                  
G20  24315799.778   127780397.768                          37.000                                                                    24315818.478    99569145.995                          15.500                                                                  
G25  21497772.518   112971669.010                          48.250                                                                                                                                    21497785.298    88029899.424                          48.750  
G 5  23557183.844   123793913.679                          42.750                                                                                                                                    23557196.164    96462810.988                          41.000  
G24  22115689.474   116218730.971                          43.250                                                                                                                                    22115705.134    90560049.508                          47.250  
G31  25369403.792   133317116.783                          34.250                                                                                                                                                                1                                 
G 6  24259328.320   127483709.688                          35.250                                                                                                                                    24259343.700    99337974.611                          38.000  
R22  20389604.504   108841193.572                          53.500                                                                                                                                    20389611.784    84654287.190                          48.750  
R12  21371030.740   114160252.995                          47.750                                                                                                1                                                                                                 
R11  19153477.576   102350460.232                          54.250                                                                                                                                    19153483.796    79605934.575                          49.000  
R21  20276649.568   108504576.913                          53.500                                                                                                                                    20276655.568    84392481.530                          48.250  
R10  21398349.540   114065229.992                          49.500                                                                                                                                    21398359.980    88717405.908                          39.500  
> 2017 11 15 18 47 32.0000000  0 14                     
G29  21423189.478   112579718.429                          49.000                                                                                                                                    21423200.918    87724483.174                          47.500  
G12  20548043.804   107980756.994                          51.250                                                                                                                                    20548052.784    84140865.920                          49.750  
G 2  20912307.542   109894980.823                          50.750                                                                    20912314.242    85632539.179                          39.000                                                                  
G20  24315249.478   127777507.357                          36.000                                                                    24315269.058    99566893.727                          16.750                                                                  
G25  21497383.358   112969625.100                          48.750                                                                                                                                    21497395.438    88028306.767                          48.750  
G 5  23556795.324   123791872.602                          42.750                                                                                                                                    23556808.164    96461220.541                          41.250  
G24  22116277.334   116221820.562                          42.750                                                                                                                                    22116292.814    90562456.979                          46.750  
G31  25368758.332   133313725.672                          33.500                                                                                                                                    25368768.352   103880824.8261                         25.750  
G 6  24259974.220   127487105.797                          35.500                                                                                                                                    24259989.880    99340620.936                          38.250  
R22  20389401.724   108840113.411                          53.750                                                                                                                                    20389409.124    84653447.065                          48.750  
R12  21370375.540   114156750.706                          47.750                                                                                                1                                                                                                 
R11  19153465.736   102350398.445                          54.250                                                                                                                                    19153471.956    79605886.517                          48.500  
R21  20277076.108   108506859.377                          53.500                                                                                                                                    20277082.208    84394256.778                          48.500  
R10  21399006.540   114068733.345                          49.500                                                                                                                                    21399017.220    88720130.730                          40.250  
> 2017 11 15 18 47 33.0000000  0 14                     
G29  21422995.818   112578700.495                          49.500                                                                                                                                    21423007.198    87723689.984                          46.750  
G12  20548024.984   107980657.485                          51.250                                                                                                                                    20548034.024    84140788.380                          49.500  
G 2  20912726.322   109897180.891                          50.500                                                                    20912733.202    85634253.522                          39.000                                                                  
G20  24314699.138   127774616.843                          36.500                                                                    24314719.078    99564641.401                          15.500                                                                  
G25  21496994.078   112967581.351                          48.500                                                                                                                                    21497006.398    88026714.237                          48.500  
G 5  23556406.484   123789831.701                          43.250                                                                                                                                    23556419.504    96459630.227                          41.000  
G24  22116864.534   116224910.396                          43.000                                                                                                                                    22116880.974    90564864.638                          47.000  
G31  25368111.812   133310334.708                          34.000                                                                                                                                    25368122.672   103878182.512                          27.000  
G 6  24260621.240   127490502.095                          36.500                                                                                                                                    24260636.380    99343267.398                          38.000  
R22  20389199.444   108839033.741                          53.500                                                                                                                                    20389206.604    84652607.332                          48.750  
R12  21369720.340   114153248.798                          47.500                                                                                                1                                                                                                 
R11  19153454.376   102350337.516                          54.250                                                                                                                                    19153460.836    79605839.130                          49.000  
R21  20277502.608   108509142.061                          53.500                                                                                                                                    20277509.308    84396032.196                          48.500  
R10  21399664.120   114072237.156                          49.750                                                                                                                                    21399675.040    88722855.908                          39.500  
> 2017 11 15 18 47 34.0000000  0 14                     
G29  21422802.198   112577682.705                          49.500                                                                                                                                    21422813.518    87722896.899                          46.750  
G12  20548006.004   107980558.257                          51.500                                                                                                                                    20548015.144    84140711.061                          49.500  
G 2  20913144.722   109899381.422                          50.500                                                                    20913151.942    85635968.217                          39.500                                                                  
G20  24314149.058   127771726.085                          36.500                                                                    24314168.518    99562388.874                          16.250                                                                  
G25  21496605.518   112965537.739                          48.500                                                                                                                                    21496618.078    88025121.820                          49.000  
G 5  23556018.624   123787790.940                          42.750                                                                                                                                    23556031.244    96458040.033                          41.500  
G24  22117453.574   116228000.455                          43.500                                                                                                                                    22117469.234    90567272.469                          46.750  
G31  25367466.712   133306943.938                          34.000                                                                                                                                    25367477.452   103875540.373                          26.000  
G 6  24261267.160   127493898.379                          36.000                                                                                                                                    24261282.180    99345913.849                          38.500  
R22  20388997.444   108837954.512                          53.500                                                                                                                                    20389004.384    84651767.934                          48.750  
R12  21369064.440   114149747.216                          47.250                                                                                                1                                                                                                 
R11  19153443.076   102350277.344                          54.500                                                                                                                                    19153449.776    79605792.331                          49.000  
R21  20277929.108   108511424.921                          53.000                                                                                                                                    20277934.968    84397807.754                          48.250  
R10  21400322.100   114075741.377                          49.750                                                                                                                                    21400332.200    88725581.413                          39.000  
> 2017 11 15 18 47 35.0000000  0 14                     
G29  21422608.458   112576665.269                          48.750                                                                                                                                    21422619.258    87722104.099                          47.000  
G12  20547987.364   107980459.499                          51.000                                                                                                                                    20547996.004    84140634.103                          49.750  
G 2  20913564.042   109901582.627                          50.500                                                                    20913570.502    85637683.446                          39.500                                                                  
G20  24313598.238   127768835.293                          35.750                                                                    24313618.758    99560136.278                          16.250                                                                  
G25  21496216.518   112963494.466                          48.750                                                                                                                                    21496228.958    88023529.655                          48.750  
G 5  23555630.284   123785750.541                          42.250                                                                                                                                    23555643.264    96456450.118                          41.500  
G24  22118041.394   116231090.988                          43.500                                                                                                                                    22118057.174    90569680.671                          46.750  
G31  25366821.812   133303553.534                          34.000                                                                                                                                    25366832.212   103872898.503                          25.250  
G 6  24261913.280   127497295.035                          36.750                                                                                                                                    24261928.580    99348560.592                          38.500  
R22  20388795.384   108836875.915                          53.500                                                                                                                                    20388802.784    84650929.030                          48.750  
R12  21368408.640   114146246.152                          47.000                                                                                                1                                                                                                 
R11  19153431.796   102350218.114                          55.000                                                                                                                                    19153438.256    79605746.257                          49.000  
R21  20278355.828   108513708.209                          53.500                                                                                                                                    20278362.168    84399583.641                          48.500  
R10  21400979.120   114079246.219                          49.750                                                                                                                                    21400990.260    88728307.393                          39.250  
> 2017 11 15 18 47 36.0000000  0 14                     
G29  21422414.878   112575647.989                          48.500                                                                                                                                    21422426.098    87721311.413                          46.750  
G12  20547968.724   107980361.027                          51.000                                                                                                                                    20547977.764    84140557.378                          49.750  
G 2  20913983.062   109903784.277                          50.500                                                                    20913989.102    85639399.019                          39.500                                                                  
G20  24313048.798   127765944.356                          36.250                                                                    24313068.038    99557883.594                          16.250                                                                  
G25  21495827.978   112961451.250                          49.500                                                                                                                                    21495840.658    88021937.537                          48.750  
G 5  23555241.344   123783710.294                          43.250                                                                                                                                    23555255.124    96454860.322                          42.250  
G24  22118630.254   116234181.685                          44.250                                                                                                                                    22118646.094    90572088.998                          47.000  
G31  25366176.152   133300163.250                          34.000                                                                                                                                    25366186.712   103870256.707                          26.500  
G 6  24262559.640   127500691.671                          37.000                                                                                                                                    24262575.240    99351207.311                          38.000  
R22  20388592.844   108835797.719                          53.250                                                                                                                                    20388600.364    84650090.435                          48.250  
R12  21367754.100   114142745.408                          47.500                                                                                                1                                                                                                 
R11  19153421.296   102350159.614                          54.500                                                                                                                                    19153427.996    79605700.759                          49.500  
R21  20278782.848   108515991.687                          53.500                                                                                                                                    20278788.968    84401359.688                          48.500  
R10  21401636.340   114082751.459                          49.500                                                                                                                                    21401647.020    88731033.687                          39.000  
> 2017 11 15 18 47 37.0000000  0 14                     
G29  21422221.478   112574631.045                          48.250                                                                                                                                    21422232.338    87720518.991                          47.250  
G12  20547950.144   107980263.003                          50.750                                                                                                                                    20547958.524    84140480.993                          50.000  
G 2  20914401.542   109905986.573                          50.500                                                                    20914408.702    85641115.090                          39.250                                                                  
G20  24312499.138   127763053.400                          36.500                                                                    24312518.318    99555630.895                          16.250                                                                  
G25  21495439.398   112959408.368                          49.500                                                                                                                                    21495451.838    88020345.687                          48.750  
G 5  23554853.704   123781670.337                          42.500                                                                                                                                    23554867.264    96453270.744                          41.250  
G24  22119218.114   116237272.810                          44.000                                                                                                                                    22119233.774    90574497.658                          46.500  
G31  25365531.192   133296773.358                          33.750                                                                                                                                    25365542.052   103867615.221                          26.000  
G 6  24263206.680   127504088.568                          36.750                                                                                                                                    24263221.920    99353854.238                          38.250  
R22  20388391.124   108834720.147                          53.000                                                                                                                                    20388399.004    84649252.325                          48.500  
R12  21367098.200   114139245.178                          47.750                                                                                                1                                                                                                 
R11  19153410.076   102350102.097                          54.500                                                                                                                                    19153416.896    79605656.020                          49.250  
R21  20279209.808   108518275.519                          53.500                                                                                                                                    20279214.968    84403135.999                          49.000  
R10  21402294.280   114086257.282                          49.000                                                                                                                                    21402304.500    88733760.434                          39.250  
> 2017 11 15 18 47 38.0000000  0 14                     
G29  21422028.138   112573614.290                          48.250                                                                                                                                    21422039.598    87719726.712                          47.250  
G12  20547931.764   107980165.275                          51.000                                                                                                                                    20547940.144    84140404.842                          50.000  
G 2  20914820.762   109908189.352                          50.500                                                                    20914827.642    85642831.541                          38.750                                                                  
G20  24311949.358   127760162.222                          36.250                                                                    24311968.058    99553378.059                          15.500                                                                  
G25  21495050.318   112957365.618                          50.000                                                                                                                                    21495063.238    88018753.928                          49.000  
G 5  23554465.184   123779630.568                          43.000                                                                                                                                    23554478.264    96451681.317                          41.250  
G24  22119806.354   116240364.168                          43.250                                                                                                                                    22119821.954    90576906.509                          46.750  
G31  25364885.672   133293383.550                          34.250                                                                                                                                    25364896.632   103864973.814                          25.750  
G 6  24263852.600   127507485.636                          36.500                                                                                                                                    24263868.260    99356501.308                          38.500  
R22  20388189.364   108833643.040                          53.500                                                                                                                                    20388197.224    84648414.579                          48.750  
R12  21366443.760   114135745.270                          47.750                                                                                                1                                                                                                 
R11  19153400.036   102350045.334                          54.000                                                                                                                                    19153406.136    79605611.875                          49.500  
R21  20279636.268   108520559.554                          53.250                                                                                                                                    20279642.488    84404912.473                          48.500  
R10  21402951.560   114089763.505                          49.000                                                                                                                                    21402962.600    88736487.494                          38.750  
> 2017 11 15 18 47 39.0000000  0 14                     
G29  21421834.638   112572597.817                          48.500                                                                                                                                    21421845.318    87718934.659                          46.750  
G12  20547913.044   107980067.999                          50.750                                                                                                                                    20547921.924    84140329.042                          50.500  
G 2  20915240.262   109910392.763                          50.750                                                                    20915246.762    85644548.486                          38.500                                                                  
G20  24311398.218   127757270.988                          36.250                                                                    24311418.338    99551125.160                          16.750                                                                  
G25  21494661.818   112955323.140                          47.750                                                                                                                                    21494674.318    88017162.393                          49.000  
G 5  23554077.724   123777591.105                          43.500                                                                                                                                    23554090.584    96450092.133                          41.750  
G24  22120394.974   116243455.884                          43.000                                                                                                                                    22120410.234    90579315.633                          46.750  
G31  25364241.192   133289994.092                          34.250                                                                                                                                    25364251.972   103862332.684                          27.000  
G 6  24264498.760   127510882.891                          36.500                                                                                                                                    24264514.300    99359148.523                          38.250  
R22  20387987.864   108832566.528                          52.750                                                                                                                                    20387995.604    84647577.298                          48.500  
R12  21365787.840   114132245.855                          47.750                                                                                                1                                                                                                 
R11  19153389.316   102349989.492                          54.000                                                                                                                                    19153395.536    79605568.440                          49.750  
R21  20280063.808   108522843.998                          53.000                                                                                                                                    20280069.328    84406689.261                          48.250  
R10  21403609.600   114093270.285                          49.000                                                                                                                                    21403620.160    88739214.979                          38.750  
> 2017 11 15 18 47 40.0000000  0 14                     
G29  21421641.398   112571581.524                          49.250                                                                                                                                    21421652.018    87718142.747                          46.750  
G12  20547894.344   107979971.001                          51.250                                                                                                                                    20547903.024    84140253.462                          50.250  
G 2  20915659.962   109912596.648                          50.750                                                                    20915666.242    85646265.802                          38.500                                                                  
G20  24310847.578   127754379.591                          35.500                                                                    24310867.938    99548872.136                          16.250                                                                  
G25  21494273.158   112953280.797                          47.750                                                                                                                                    21494285.598    88015570.959                          48.750  
G 5  23553689.164   123775551.794                          43.000                                                                                                                                    23553702.424    96448503.063                          42.000  
G24  22120983.254   116246547.818                          43.500                                                                                                                                    22120998.554    90581724.926                          46.500  
G31  25363595.312   133286604.783                          33.250                                                                                                                                    25363607.172   103859691.685                          26.750  
G 6  24265145.840   127514280.221                          36.750                                                                                                                                    24265161.160    99361795.800                          37.750  
R22  20387786.064   108831490.448                          53.000                                                                                                                                    20387794.164    84646740.350                          48.750  
R12  21365132.520   114128746.748                          47.750                                                                                                1                                                                                                 
R11  19153378.796   102349934.407                          53.750                                                                                                                                    19153384.776    79605525.598                          49.500  
R21  20280490.348   108525128.648                          53.250                                                                                                                                    20280496.448    84408466.211                          48.500  
R10  21404267.160   114096777.462                          49.750                                                                                                                                    21404278.080    88741942.779                          38.750  
> 2017 11 15 18 47 41.0000000  0 14                     
G29  21421448.058   112570565.476                          50.000                                                                                                                                    21421458.738    87717351.024                          47.000  
G12  20547876.144   107979874.385                          52.000                                                                                                                                    20547885.004    84140178.178                          49.750  
G 2  20916079.382   109914801.067                          50.250                                                                    20916085.962    85647983.533                          38.250                                                                  
G20  24310297.418   127751488.100                          36.000                                                                    24310317.478    99546618.993                          15.500                                                                  
G25  21493884.538   112951238.659                          48.250                                                                                                                                    21493896.918    88013979.682                          48.750  
G 5  23553300.584   123773512.719                          43.250                                                                                                                                    23553314.604    96446914.182                          42.000  
G24  22121571.794   116249640.076                          44.000                                                                                                                                    22121586.474    90584134.471                          47.000  
G31  25362951.232   133283215.745                          34.750                                                                                                                                    25362962.392   103857050.888                          26.750  
G 6  24265792.560   127517677.738                          36.000                                                                                                                                    24265807.640    99364443.228                          38.250  
R22  20387585.004   108830414.907                          53.000                                                                                                                                    20387592.284    84645903.818                          48.000  
R12  21364478.660   114125248.099                          47.750                                                                                                1                                                                                                 
R11  19153369.036   102349880.163                          54.000                                                                                                                                    19153375.376    79605483.406                          49.250  
R21  20280917.188   108527413.553                          53.250                                                                                                                                    20280923.408    84410243.354                          48.500  
R10  21404925.220   114100285.124                          49.500                                                                                                                                    21404936.140    88744670.957                          39.500  
> 2017 11 15 18 47 42.0000000  0 14                     
G29  21421254.658   112569549.741                          50.000                                                                                                                                    21421265.338    87716559.546                          46.750  
G12  20547857.924   107979778.212                          51.500                                                                                                                                    20547866.844    84140103.237                          49.750  
G 2  20916498.962   109917006.133                          50.500                                                                    20916505.362    85649701.768                          38.750                                                                  
G20  24309747.418   127748596.572                          36.500                                                                    24309767.818    99544365.887                          15.500                                                                  
G25  21493495.918   112949196.802                          48.000                                                                                                                                    21493508.698    88012388.622                          48.750  
G 5  23552913.624   123771473.944                          42.750                                                                                                                                    23552926.944    96445325.528                          42.000  
G24  22122159.834   116252732.719                          43.250                                                                                                                                    22122175.554    90586544.315                          46.750  
G31  25362306.092   133279827.041                          33.500                                                                                                                                    25362317.712   103854410.335                          26.750  
G 6  24266438.720   127521075.494                          37.000                                                                                                                                    24266453.980    99367090.832                          38.000  
R22  20387383.704   108829339.975                          53.000                                                                                                                                    20387390.744    84645067.762                          48.000  
R12  21363823.560   114121749.914                          48.000                                                                                                1                                                                                                 
R11  19153359.076   102349826.843                          54.000                                                                                                                                    19153365.416    79605441.938                          49.250  
R21  20281343.768   108529698.842                          53.500                                                                                                                                    20281350.688    84412020.808                          48.250  
R10  21405584.240   114103793.386                          49.500                                                                                                                                    21405594.340    88747399.599                          39.750  
> 2017 11 15 18 47 43.0000000  0 14                     
G29  21421061.198   112568534.098                          50.500                                                                                                                                    21421072.118    87715768.135                          47.000  
G12  20547839.584   107979682.219                          52.000                                                                                                                                    20547848.444    84140028.436                          49.500  
G 2  20916918.442   109919211.598                          50.000                                                                    20916924.842    85651420.308                          38.500                                                                  
G20  24309197.398   127745704.734                          36.500                                                                    24309217.158    99542112.525                          16.250                                                                  
G25  21493107.298   112947154.992                          48.000                                                                                                                                    21493120.018    88010797.604                          48.750  
G 5  23552525.004   123769435.256                          42.000                                                                                                                                    23552538.444    96443736.944                          41.500  
G24  22122748.794   116255825.494                          43.500                                                                                                                                    22122764.234    90588954.263                          47.000  
G31  25361662.092   133276438.384                          33.750                                                                                                                                    25361673.252   103851769.817                          25.750  
G 6  24267085.780   127524473.219                          36.500                                                                                                                                    24267100.580    99369738.412                          38.000  
R22  20387182.444   108828265.401                          53.000                                                                                                                                    20387189.844    84644231.986                          48.250  
R12  21363167.540   114118251.999                          47.750                                                                                                1                                                                                                 
R11  19153349.176   102349774.195                          54.250                                                                                                                                    19153355.516    79605400.989                          49.500  
R21  20281770.928   108531984.215                          53.500                                                                                                                                    20281777.268    84413798.314                          48.000  
R10  21406242.080   114107301.962                          49.500                                                                                                                                    21406252.760    88750128.487                          39.500  
> 2017 11 15 18 47 44.0000000  0 14                     
G29  21420868.138   112567518.854                          50.500                                                                                                                                    21420879.118    87714977.040                          47.000  
G12  20547821.544   107979586.793                          52.250                                                                                                                                    20547830.364    84139954.078                          50.000  
G 2  20917338.242   109921417.759                          49.000                                                                    20917345.042    85653139.396                          39.000                                                                  
G20  24308646.758   127742812.988                          36.000                                                                    24308666.818    99539859.221                          16.250                                                                  
G25  21492719.018   112945113.544                          48.000                                                                                                                                    21492731.578    88009206.870                          49.250  
G 5  23552137.324   123767396.943                          42.250                                                                                                                                    23552150.704    96442148.650                          41.500  
G24  22123337.614   116258918.747                          43.000                                                                                                                                    22123352.174    90591364.580                          46.500  
G31  25361016.812   133273050.157                          32.750                                                                                                                                    25361028.192   103849129.614                          26.750  
G 6  24267732.480   127527871.332                          36.750                                                                                                                                    24267746.740    99372386.286                          37.500  
R22  20386980.884   108827191.518                          53.000                                                                                                                                    20386988.384    84643396.745                          48.250  
R12  21362513.820   114114754.656                          47.750                                                                                                1                                                                                                 
R11  19153339.976   102349722.593                          54.000                                                                                                                                    19153346.436    79605360.852                          49.750  
R21  20282198.728   108534270.077                          53.500                                                                                                                                    20282204.948    84415576.209                          48.250  
R10  21406900.820   114110811.194                          49.000                                                                                                                                    21406911.860    88752857.880                          39.250  
> 2017 11 15 18 47 45.0000000  0 14                     
G29  21420674.698   112566503.723                          50.500                                                                                                                                    21420685.318    87714186.025                          47.500  
G12  20547803.644   107979491.584                          52.250                                                                                                                                    20547811.524    84139879.888                          50.250  
G 2  20917758.082   109923624.345                          49.250                                                                    20917764.482    85654858.817                          39.500                                                                  
G20  24308096.158   127739920.976                          36.500                                                                    24308116.678    99537605.703                          15.500                                                                  
G25  21492330.738   112943072.176                          48.750                                                                                                                                    21492342.998    88007616.193                          49.500  
G 5  23551749.864   123765358.764                          42.750                                                                                                                                    23551762.764    96440560.463                          41.500  
G24  22123925.954   116262012.205                          42.750                                                                                                                                    22123941.214    90593775.063                          46.750  
G31  25360372.192   133269662.050                          34.000                                                                                                                                    25360383.872   103846489.518                          26.000  
G 6  24268378.960   127531269.485                          36.750                                                                                                                                    24268393.580    99375034.198                          37.250  
R22  20386779.384   108826118.040                          53.000                                                                                                                                    20386787.484    84642561.821                          48.500  
R12  21361859.360   114111257.628                          47.500                                                                                                1                                                                                                 
R11  19153329.616   102349671.719                          54.000                                                                                                                                    19153336.316    79605321.281                          49.250  
R21  20282625.348   108536556.105                          53.500                                                                                                                                    20282631.808    84417354.235                          48.250  
R10  21407559.220   114114320.778                          49.250                                                                                                                                    21407570.380    88755587.552                          39.250  
> 2017 11 15 18 47 46.0000000  0 14                     
G29  21420481.758   112565488.918                          49.500                                                                                                                                    21420492.958    87713395.266                          47.500  
G12  20547785.444   107979396.818                          51.750                                                                                                                                    20547794.024    84139806.042                          50.000  
G 2  20918178.322   109925831.571                          49.500                                                                    20918184.842    85656578.728                          39.500                                                                  
G20  24307546.818   127737028.933                          36.500                                                                    24307566.158    99535352.181                          13.750                                                                  
G25  21491941.778   112941031.076                          48.500                                                                                                                                    21491954.578    88006025.727                          49.000  
G 5  23551361.244   123763320.854                          42.500                                                                                                                                    23551375.444    96438972.491                          42.000  
G24  22124515.094   116265106.050                          43.250                                                                                                                                    22124530.654    90596185.850                          47.000  
G31  25359727.732   133266274.299                          33.500                                                                                                                                    25359738.892   103843849.694                          26.750  
G 6  24269024.440   127534667.817                          36.000                                                                                                                                    24269040.220    99377682.252                          38.000  
R22  20386578.804   108825045.155                          53.500                                                                                                                                    20386586.184    84641727.359                          48.500  
R12  21361203.820   114107761.073                          47.250                                                                                                1                                                                                                 
R11  19153320.356   102349621.734                          54.250                                                                                                                                    19153326.916    79605282.404                          49.500  
R21  20283052.848   108538842.481                          53.500                                                                                                                                    20283059.068    84419132.525                          48.750  
R10  21408217.640   114117830.951                          48.750                                                                                                                                    21408228.440    88758317.678                          39.250  
> 2017 11 15 18 47 47.0000000  0 14                     
G29  21420288.998   112564474.312                          49.750                                                                                                                                    21420299.798    87712604.672                          47.500  
G12  20547767.524   107979302.390                          52.000                                                                                                                                    20547775.684    84139732.464                          50.000  
G 2  20918598.302   109928039.306                          50.000                                                                    20918604.822    85658299.041                          39.500                                                                  
G20  24306995.738   127734136.761                          36.000                                                                    24307015.218    99533098.572                          13.750                                                                  
G25  21491553.458   112938990.167                          48.750                                                                                                                                    21491566.258    88004435.415                          49.000  
G 5  23550973.844   123761283.185                          42.500                                                                                                                                    23550986.684    96437384.714                          41.500  
G24  22125103.854   116268200.154                          44.000                                                                                                                                    22125118.414    90598596.835                          47.000  
G31  25359083.152   133262886.648                          32.750                                                                                                                                    25359094.492   103841209.968                          26.000  
G 6  24269671.940   127538066.306                          36.250                                                                                                                                    24269687.120    99380330.424                          37.500  
R22  20386377.624   108823972.751                          53.000                                                                                                                                    20386384.784    84640893.270                          48.500  
R12  21360549.740   114104264.881                          47.500                                                                                                1                                                                                                 
R11  19153311.336   102349572.553                          54.250                                                                                                                                    19153317.796    79605244.158                          49.750  
R21  20283480.288   108541129.082                          53.500                                                                                                                                    20283485.808    84420910.995                          48.750  
R10  21408875.900   114121341.572                          49.000                                                                                                                                    21408886.940    88761048.153                          39.250  
> 2017 11 15 18 47 48.0000000  0 14                     
G29  21420095.658   112563459.862                          48.500                                                                                                                                    21420106.278    87711814.193                          47.000  
G12  20547749.484   107979208.270                          52.000                                                                                                                                    20547758.304    84139659.125                          50.250  
G 2  20919018.622   109930247.495                          50.250                                                                    20919025.422    85660019.709                          39.250                                                                  
G20  24306444.998   127731244.395                          35.750                                                                    24306465.818    99530844.794                          14.750                                                                  
G25  21491165.538   112936949.379                          48.250                                                                                                                                    21491177.978    88002845.187                          48.750  
G 5  23550586.664   123759245.650                          42.750                                                                                                                                    23550599.264    96435797.030                          41.250  
G24  22125692.394   116271294.500                          43.750                                                                                                                                    22125708.054    90601008.010                          47.000  
G31  25358438.232   133259499.231                          32.000                                                                                                                                    25358450.312   103838570.418                          25.250  
G 6  24270318.120   127541464.916                          36.000                                                                                                                                    24270333.780    99382978.691                          38.000  
R22  20386177.124   108822900.795                          53.250                                                                                                                                    20386184.164    84640059.529                          48.750  
R12  21359895.420   114100769.036                          47.500                                                                                                1                                                                                                 
R11  19153302.156   102349524.144                          54.000                                                                                                                                    19153308.856    79605206.505                          49.500  
R21  20283907.488   108543415.889                          53.750                                                                                                                                    20283914.308    84422689.624                          48.750  
R10  21409534.120   114124852.611                          49.500                                                                                                                                    21409545.500    88763778.963                          39.500  
> 2017 11 15 18 47 49.0000000  0 14                     
G29  21419902.978   112562445.700                          48.500                                                                                                                                    21419914.058    87711023.942                          47.000  
G12  20547731.584   107979114.512                          52.000                                                                                                                                    20547739.924    84139586.072                          50.250  
G 2  20919438.802   109932456.297                          50.250                                                                    20919445.262    85661740.853                          39.000                                                                  
G20  24305894.058   127728351.929                          35.500                                                                    24305915.158    99528590.947                          16.250                                                                  
G25  21490777.498   112934908.849                          49.250                                                                                                                                    21490789.938    88001255.161                          49.000  
G 5  23550199.184   123757208.402                          43.250                                                                                                                                    23550211.344    96434209.576                          41.250  
G24  22126281.454   116274389.193                          44.500                                                                                                                                    22126296.514    90603419.448                          47.250  
G31  25357792.432   133256112.075                          33.000                                                                                                                                    25357805.812   103835931.069                          27.000  
G 6  24270964.860   127544863.716                          35.750                                                                                                                                    24270980.760    99385627.098                          38.250  
R22  20385976.244   108821829.391                          53.250                                                                                                                                    20385983.764    84639226.215                          48.750  
R12  21359240.860   114097273.642                          47.500                                                                                                1                                                                                                 
R11  19153293.436   102349476.652                          54.000                                                                                                                                    19153299.436    79605169.565                          50.000  
R21  20284335.168   108545703.030                          54.000                                                                                                                                    20284340.448    84424468.510                          48.500  
R10  21410193.000   114128364.167                          49.250                                                                                                                                    21410204.520    88766510.163                          39.000  
> 2017 11 15 18 47 50.0000000  0 14                     
G29  21419709.778   112561431.752                          48.750                                                                                                                                    21419720.798    87710233.852                          46.750  
G12  20547713.804   107979021.127                          52.000                                                                                                                                    20547722.324    84139513.300                          50.250  
G 2  20919859.402   109934665.595                          50.000                                                                    20919865.682    85663462.384                          39.500                                                                  
G20  24305344.638   127725459.334                          36.500                                                                    24305364.518    99526336.963                          16.750                                                                  
G25  21490389.038   112932868.500                          49.500                                                                                                                                    21490401.418    87999665.285                          49.000  
G 5  23549810.544   123755171.355                          42.250                                                                                                                                    23549823.864    96432622.269                          41.500  
G24  22126869.934   116277484.168                          44.500                                                                                                                                    22126885.954    90605831.117                          46.750  
G31  25357147.552   133252725.144                          33.750                                                                                                                                    25357161.212   103833291.890                          27.500  
G 6  24271612.660   127548262.604                          35.500                                                                                                                                    24271628.260    99388275.575                          37.500  
R22  20385775.888   108820758.503                          53.250                                                                                                                                    20385783.168    84638393.304                          48.750  
R12  21358586.220   114093778.646                          47.000                                                                                                1                                                                                                 
R11  19153284.676   102349429.978                          54.250                                                                                                                                    19153290.796    79605133.264                          49.750  
R21  20284762.988   108547990.441                          53.500                                                                                                                                    20284768.268    84426247.603                          48.500  
R10  21410852.340   114131876.190                          49.000                                                                                                                                    21410863.240    88769241.736                          38.750  
> 2017 11 15 18 47 51.0000000  0 14                     
G29  21419516.818   112560418.121                          49.250                                                                                                                                    21419527.498    87709444.010                          47.000  
G12  20547696.324   107978928.184                          52.500                                                                                                                                    20547704.884    84139440.879                          50.250  
G 2  20920279.862   109936875.530                          50.000                                                                    20920286.622    85665184.415                          39.500                                                                  
G20  24304793.538   127722566.734                          35.250                                                                    24304814.358    99524082.986                          15.500                                                                  
G25  21490000.758   112930828.395                          50.000                                                                                                                                    21490012.898    87998075.593                          48.750  
G 5  23549422.844   123753134.580                          42.000                                                                                                                                    23549436.164    96431035.170                          42.000  
G24  22127459.134   116280579.533                          45.000                                                                                                                                    22127474.674    90608243.084                          47.000  
G31  25356504.212   133249338.568                          34.000                                                                                                                                    25356516.652   103830652.983                          26.000  
G 6  24272258.960   127551661.787                          35.750                                                                                                                                    24272275.320    99390924.283                          37.500  
R22  20385575.088   108819688.199                          53.000                                                                                                                                    20385582.608    84637560.849                          48.500  
R12  21357932.360   114090284.121                          47.000                                                                                                1                                                                                                 
R11  19153275.856   102349384.206                          54.500                                                                                                                                    19153281.856    79605097.664                          49.500  
R21  20285189.488   108550278.190                          53.500                                                                                                                                    20285196.048    84428026.967                          48.500  
R10  21411511.340   114135388.745                          49.500                                                                                                                                    21411522.380    88771973.713                          39.000  
> 2017 11 15 18 47 52.0000000  0 14                     
G29  21419324.258   112559404.709                          49.500                                                                                                                                    21419335.178    87708654.338                          47.250  
G12  20547678.424   107978835.580                          52.250                                                                                                                                    20547687.004    84139368.720                          50.000  
G 2  20920700.822   109939085.989                          49.750                                                                    20920707.102    85666906.849                          40.000                                                                  
G20  24304243.178   127719673.937                          35.250                                                                    24304263.518    99521828.885                          15.500                                                                  
G25  21489612.238   112928788.522                          48.500                                                                                                                                    21489624.978    87996486.083                          48.750  
G 5  23549035.344   123751098.062                          43.000                                                                                                                                    23549049.144    96429448.283                          42.000  
G24  22128048.314   116283675.185                          44.750                                                                                                                                    22128063.214    90610655.274                          47.000  
G31  25355859.992   133245952.126                          34.500                                                                                                                                    25355872.532   103828014.207                          27.750  
G 6  24272906.460   127555061.125                          36.000                                                                                                                                    24272922.360    99393573.109                          37.000  
R22  20385374.448   108818618.413                          53.250                                                                                                                                    20385382.328    84636728.793                          48.500  
R12  21357277.920   114086790.007                          47.750                                                                                                1                                                                                                 
R11  19153267.996   102349339.266                          54.500                                                                                                                                    19153274.336    79605062.707                          49.750  
R21  20285618.108   108552566.246                          53.500                                                                                                                                    20285624.108    84429806.567                          48.250  
R10  21412170.480   114138901.770                          49.500                                                                                                                                    21412180.800    88774706.058                          39.250  
> 2017 11 15 18 47 53.0000000  0 14                     
G29  21419131.098   112558391.401                          49.500                                                                                                                                    21419142.018    87707864.750                          47.000  
G12  20547660.924   107978743.204                          52.250                                                                                                                                    20547669.484    84139296.739                          49.750  
G 2  20921120.942   109941296.872                          49.250                                                                    20921127.802    85668629.617                          39.500                                                                  
G20  24303692.038   127716780.992                          35.000                                                                    24303712.798    99519574.635                          14.750                                                                  
G25  21489224.158   112926748.714                          48.250                                                                                                                                    21489236.538    87994896.619                          48.750  
G 5  23548647.964   123749061.599                          43.500                                                                                                                                    23548661.224    96427861.426                          41.500  
G24  22128637.454   116286771.013                          44.500                                                                                                                                    22128652.514    90613067.606                          47.000  
G31  25355216.332   133242565.839                          34.500                                                                                                                                    25355228.132   103825375.538                          27.500  
G 6  24273553.060   127558460.403                          36.250                                                                                                                                    24273568.680    99396221.895                          37.500  
R22  20385174.048   108817549.008                          53.500                                                                                                                                    20385182.388    84635897.043                          48.500  
R12  21356624.160   114083296.162                          47.500                                                                                                1                                                                                                 
R11  19153259.656   102349295.023                          54.250                                                                                                                                    19153266.456    79605028.301                          49.500  
R21  20286045.588   108554854.463                          53.250                                                                                                                                    20286050.988    84431586.293                          48.500  
R10  21412830.260   114142415.171                          49.750                                                                                                                                    21412840.580    88777438.698                          38.750  
> 2017 11 15 18 47 54.0000000  0 14                     
G29  21418938.498   112557378.425                          50.000                                                                                                                                    21418949.298    87707075.417                          47.000  
G12  20547643.244   107978651.299                          52.250                                                                                                                                    20547652.284    84139225.120                          49.750  
G 2  20921542.122   109943508.391                          50.000                                                                    20921548.822    85670352.882                          39.000                                                                  
G20  24303142.678   127713887.927                          35.000                                                                    24303162.798    99517320.331                          15.500                                                                  
G25  21488836.378   112924709.161                          47.750                                                                                                                                    21488848.758    87993307.365                          49.000  
G 5  23548260.404   123747025.488                          43.500                                                                                                                                    23548274.204    96426274.861                          41.500  
G24  22129226.454   116289867.228                          43.500                                                                                                                                    22129241.934    90615480.232                          46.250  
G31  25354571.332   133239179.872                          33.750                                                                                                                                    25354583.652   103822737.129                          26.500  
G 6  24274199.760   127561859.966                          36.000                                                                                                                                    24274215.240    99398870.912                          37.500  
R22  20384974.528   108816480.236                          53.750                                                                                                                                    20384981.688    84635065.773                          48.500  
R12  21355971.460   114079802.820                          48.000                                                                                                1                                                                                                 
R11  19153251.436   102349251.720                          54.250                                                                                                                                    19153257.556    79604994.620                          49.250  
R21  20286472.528   108557143.030                          53.000                                                                                                                                    20286479.108    84433366.284                          48.250  
R10  21413487.000   114145929.131                          49.500                                                                                                                                    21413499.320    88780171.766                          38.500  
> 2017 11 15 18 47 55.0000000  0 14                     
G29  21418745.858   112556365.687                          50.500                                                                                                                                    21418756.938    87706286.273                          47.000  
G12  20547625.784   107978559.756                          52.500                                                                                                                                    20547634.704    84139153.786                          49.500  
G 2  20921962.922   109945720.458                          50.000                                                                    20921969.262    85672076.573                          39.500                                                                  
G20  24302591.198   127710994.762                          34.750                                                                    24302611.598    99515065.935                          15.500                                                                  
G25  21488447.998   112922669.850                          48.000                                                                                                                                    21488460.498    87991718.291                          49.000  
G 5  23547873.144   123744989.609                          42.250                                                                                                                                    23547886.684    96424688.473                          41.750  
G24  22129815.914   116292963.755                          43.500                                                                                                                                    22129831.334    90617893.108                          46.000  
G31  25353928.512   133235794.168                          33.500                                                                                                                                    25353939.612   103820098.922                          27.250  
G 6  24274847.480   127565259.780                          36.000                                                                                                                                    24274862.140    99401520.121                          36.750  
R22  20384774.488   108815411.987                          53.750                                                                                                                                    20384781.868    84634234.917                          48.250  
R12  21355315.960   114076309.881                          47.750                                                                                                1                                                                                                 
R11  19153243.396   102349209.302                          53.750                                                                                                                                    19153249.156    79604961.628                          49.500  
R21  20286900.368   108559431.844                          52.750                                                                                                                                    20286907.068    84435146.472                          48.500  
R10  21414148.300   114149443.571                          49.250                                                                                                                                    21414159.340    88782905.217                          39.000  
> 2017 11 15 18 47 56.0000000  0 14                     
G29  21418553.358   112555353.292                          50.500                                                                                                                                    21418563.798    87705497.404                          47.500  
G12  20547608.204   107978468.671                          52.000                                                                                                                                    20547617.124    84139082.808                          49.500  
G 2  20922384.042   109947933.157                          50.000                                                                    20922390.742    85673800.754                          39.750                                                                  
G20  24302040.718   127708101.621                          35.000                                                                    24302061.418    99512811.507                          16.250                                                                  
G25  21488060.218   112920630.849                          47.750                                                                                                                                    21488072.318    87990129.461                          49.000  
G 5  23547485.864   123742954.057                          42.000                                                                                                                                    23547499.344    96423102.336                          42.500  
G24  22130404.734   116296060.692                          43.500                                                                                                                                    22130420.214    90620306.302                          45.750  
G31  25353282.752   133232408.817                          33.750                                                                                                                                    25353295.132   103817460.979                          26.750  
G 6  24275494.140   127568659.796                          35.750                                                                                                                                    24275508.860    99404169.476                          37.750  
R22  20384574.388   108814344.328                          53.750                                                                                                                                    20384582.008    84633404.516                          48.000  
R12  21354662.700   114072817.452                          48.250                                                                                                1                                                                                                 
R11  19153235.616   102349167.832                          54.000                                                                                                                                    19153241.716    79604929.373                          49.500  
R21  20287328.348   108561721.018                          53.000                                                                                                                                    20287333.968    84436926.943                          48.500  
R10  21414806.820   114152958.595                          49.000                                                                                                                                    21414817.980    88785639.118                          38.500  
> 2017 11 15 18 47 57.0000000  0 14                     
G29  21418360.098   112554340.959                          50.000                                                                                                                                    21418371.538    87704708.571                          47.750  
G12  20547591.064   107978377.806                          52.000                                                                                                                                    20547599.744    84139012.011                          50.000  
G 2  20922804.962   109950146.247                          50.000                                                                    20922811.882    85675525.233                          39.500                                                                  
G20  24301489.558   127705208.156                          35.250                                                                    24301510.598    99510556.867                          14.750                                                                  
G25  21487672.058   112918591.867                          47.000                                                                                                                                    21487684.958    87988540.650                          49.250  
G 5  23547098.544   123740918.556                          42.500                                                                                                                                    23547112.204    96421516.235                          42.000  
G24  22130994.174   116299157.773                          43.750                                                                                                                                    22131009.554    90622719.612                          46.500  
G31  25352638.612   133229023.510                          34.250                                                                                                                                    25352650.812   103814823.057                          26.750  
G 6  24276141.440   127572059.801                          35.500                                                                                                                                    24276155.640    99406818.833                          38.000  
R22  20384374.408   108813277.038                          54.000                                                                                                                                    20384381.328    84632574.407                          48.500  
R12  21354008.520   114069325.315                          48.000                                                                                                1                                                                                                 
R11  19153228.316   102349127.006                          54.000                                                                                                                                    19153234.436    79604897.618                          49.250  
R21  20287756.508   108564010.313                          53.250                                                                                                                                    20287762.368    84438707.500                          48.250  
R10  21415466.500   114156473.957                          49.500                                                                                                                                    21415477.760    88788373.289                          39.000  
> 2017 11 15 18 47 58.0000000  0 14                     
G29  21418167.938   112553328.929                          49.000                                                                                                                                    21418178.558    87703919.978                          47.500  
G12  20547573.784   107978287.343                          51.500                                                                                                                                    20547582.824    84138941.516                          49.750  
G 2  20923226.462   109952359.925                          50.000                                                                    20923232.682    85677250.184                          39.750                                                                  
G20  24300939.358   127702314.676                          35.000                                                                    24300960.118    99508302.228                          15.500                                                                  
G25  21487284.258   112916553.133                          47.000                                                                                                                                    21487296.918    87986952.023                          49.500  
G 5  23546711.564   123738883.333                          43.250                                                                                                                                    23546724.884    96419930.349                          41.750  
G24  22131583.634   116302255.225                          42.500                                                                                                                                    22131599.174    90625133.202                          46.250  
G31  25351994.672   133225638.494                          34.500                                                                                                                                    25352006.292   103812185.369                          25.250  
G 6  24276788.740   127575459.988                          36.000                                                                                                                                    24276803.760    99409468.323                          38.750  
R22  20384174.128   108812210.310                          53.500                                                                                                                                    20384182.108    84631744.732                          48.250  
R12  21353355.280   114065833.631                          48.000                                                                                                1                                                                                                 
R11  19153220.096   102349087.041                          54.000                                                                                                                                    19153226.676    79604866.536                          49.250  
R21  20288184.028   108566299.975                          53.250                                                                                                                                    20288189.908    84440488.354                          48.250  
R10  21416126.540   114159989.836                          49.250                                                                                                                                    21416137.000    88791107.860                          38.750  
> 2017 11 15 18 47 59.0000000  0 14                     
G29  21417975.398   112552317.090                          48.750                                                                                                                                    21417986.598    87703131.538                          47.500  
G12  20547556.604   107978197.227                          51.500                                                                                                                                    20547565.924    84138871.294                          50.000  
G 2  20923647.842   109954574.119                          50.000                                                                    20923654.242    85678975.523                          39.500                                                                  
G20  24300388.998   127699421.038                          35.750                                                                    24300409.418    99506047.404                          14.750                                                                  
G25  21486896.158   112914514.555                          48.000                                                                                                                                    21486908.598    87985363.518                          49.250  
G 5  23546324.304   123736848.366                          43.000                                                                                                                                    23546337.044    96418344.662                          41.750  
G24  22132173.614   116305352.919                          43.500                                                                                                                                    22132188.634    90627546.979                          46.250  
G31  25351349.732   133222253.639                          34.250                                                                                                                                    25351362.832   103809547.809                          27.000  
G 6  24277434.940   127578860.324                          36.000                                                                                                                                    24277450.540    99412117.935                          37.500  
R22  20383974.728   108811144.069                          53.500                                                                                                                                    20383981.768    84630915.435                          48.500  
R12  21352702.080   114062342.311                          48.000                                                                                                1                                                                                                 
R11  19153212.996   102349047.925                          54.500                                                                                                                                    19153218.856    79604836.110                          49.500  
R21  20288611.808   108568589.909                          53.500                                                                                                                                    20288618.028    84442269.408                          48.250  
R10  21416786.180   114163506.184                          49.500                                                                                                                                    21416796.520    88793842.787                          38.750  
> 2017 11 15 18 48  0.0000000  0 14                     
G29  21417782.758   112551305.480                          49.000                                                                                                                                    21417793.958    87702343.275                          47.000  
G12  20547539.724   107978107.461                          52.000                                                                                                                                    20547548.524    84138801.348                          50.000  
G 2  20924069.402   109956788.861                          50.000                                                                    20924075.642    85680701.295                          39.000                                                                  
G20  24299838.278   127696527.271                          35.500                                                                    24299858.458    99503792.537                          14.750                                                                  
G25  21486508.398   112912476.214                          48.000                                                                                                                                    21486521.258    87983775.206                          49.250  
G 5  23545937.344   123734813.563                          42.500                                                                                                                                    23545950.364    96416759.112                          41.750  
G24  22132763.214   116308450.946                          44.000                                                                                                                                    22132778.454    90629961.019                          46.750  
G31  25350706.732   133218869.071                          34.750                                                                                                                                    25350718.512   103806910.475                          27.000  
G 6  24278082.180   127582260.847                          36.500                                                                                                                                    24278097.200    99414767.704                          38.000  
R22  20383775.448   108810078.347                          53.750                                                                                                                                    20383782.248    84630086.547                          48.500  
R12  21352048.340   114058851.412                          48.250                                                                                                1                                                                                                 
R11  19153205.656   102349009.669                          54.500                                                                                                                                    19153211.996    79604806.358                          49.250  
R21  20289039.508   108570880.133                          53.000                                                                                                                                    20289045.848    84444050.699                          48.500  
R10  21417446.480   114167023.012                          49.500                                                                                                                                    21417456.460    88796578.094                          38.500  
> 2017 11 15 18 48  1.0000000  0 14                     
G29  21417590.138   112550294.188                          49.500                                                                                                                                    21417601.398    87701555.257                          47.000  
G12  20547522.444   107978018.109                          52.000                                                                                                                                    20547531.324    84138731.722                          50.250  
G 2  20924490.662   109959004.190                          49.750                                                                    20924497.522    85682427.529                          38.750                                                                  
G20  24299287.778   127693633.441                          35.250                                                                    24299308.358    99501537.607                          13.750                                                                  
G25  21486120.518   112910438.125                          48.250                                                                                                                                    21486133.238    87982187.083                          49.250  
G 5  23545549.604   123732779.071                          43.250                                                                                                                                    23545562.344    96415173.800                          41.250  
G24  22133352.654   116311549.304                          44.000                                                                                                                                    22133367.794    90632375.324                          46.750  
G31  25350063.072   133215484.854                          34.250                                                                                                                                    25350074.052   103804273.396                          28.250  
G 6  24278729.800   127585661.546                          36.750                                                                                                                                    24278744.580    99417417.599                          37.750  
R22  20383575.488   108809013.221                          53.750                                                                                                                                    20383582.528    84629258.114                          48.500  
R12  21351395.040   114055360.968                          48.000                                                                                                1                                                                                                 
R11  19153198.836   102348972.314                          54.500                                                                                                                                    19153205.296    79604777.302                          49.500  
R21  20289468.008   108573170.632                          52.750                                                                                                                                    20289474.348    84445832.202                          48.500  
R10  21418106.120   114170540.398                          49.500                                                                                                                                    21418117.040    88799313.833                          39.000  
> 2017 11 15 18 48  2.0000000  0 14                     
G29  21417398.118   112549283.037                          49.250                                                                                                                                    21417409.398    87700767.348                          47.000  
G12  20547505.844   107977929.034                          52.500                                                                                                                                    20547515.004    84138662.308                          50.000  
G 2  20924912.282   109961219.981                          49.500                                                                    20924918.682    85684154.123                          38.750                                                                  
G20  24298737.658   127690739.454                          35.500                                                                    24298757.298    99499282.582                          14.750                                                                  
G25  21485732.438   112908400.138                          48.250                                                                                                                                    21485745.118    87980599.043                          49.000  
G 5  23545162.004   123730744.689                          43.250                                                                                                                                    23545175.804    96413588.579                          41.250  
G24  22133941.974   116314647.876                          43.750                                                                                                                                    22133957.754    90634789.793                          46.500  
G31  25349417.852   133212100.695                          34.500                                                                                                                                    25349430.052   103801636.359                          26.500  
G 6  24279377.140   127589062.345                          36.250                                                                                                                                    24279391.740    99420067.568                          37.500  
R22  20383376.388   108807948.514                          53.750                                                                                                                                    20383383.188    84628430.013                          48.500  
R12  21350741.620   114051870.865                          47.500                                                                                                1                                                                                                 
R11  19153191.756   102348935.688                          54.250                                                                                                                                    19153197.976    79604748.815                          49.750  
R21  20289896.248   108575461.294                          53.000                                                                                                                                    20289902.128    84447613.826                          48.500  
R10  21418766.000   114174058.161                          49.750                                                                                                                                    21418775.960    88802049.859                          39.250  
> 2017 11 15 18 48  3.0000000  0 14                     
G29  21417205.558   112548272.208                          49.250                                                                                                                                    21417216.358    87699979.690                          47.000  
G12  20547488.684   107977840.434                          52.500                                                                                                                                    20547497.664    84138593.271                          50.250  
G 2  20925334.082   109963436.405                          49.500                                                                    20925341.182    85685881.207                          38.500                                                                  
G20  24298186.318   127687845.348                          35.500                                                                    24298206.838    99497027.460                          14.750                                                                  
G25  21485345.038   112906362.443                          48.750                                                                                                                                    21485357.658    87979011.233                          49.250  
G 5  23544775.184   123728710.675                          43.500                                                                                                                                    23544788.744    96412003.640                          41.250  
G24  22134531.214   116317746.846                          43.500                                                                                                                                    22134546.634    90637204.575                          46.500  
G31  25348774.632   133208716.870                          35.000                                                                                                                                    25348786.252   103798999.589                          26.000  
G 6  24280024.260   127592463.383                          36.250                                                                                                                                    24280039.100    99422717.723                          37.500  
R22  20383177.008   108806884.437                          53.750                                                                                                                                    20383184.408    84627602.401                          48.500  
R12  21350088.740   114048381.249                          48.000                                                                                                1                                                                                                 
R11  19153185.196   102348899.985                          54.000                                                                                                                                    19153191.076    79604721.048                          49.750  
R21  20290324.608   108577752.344                          53.500                                                                                                                                    20290330.728    84449395.748                          48.500  
R10  21419425.480   114177576.530                          49.500                                                                                                                                    21419436.280    88804786.368                          39.250  
