     3.01           OBSERVATION DATA    M: Mixed            RINEX VERSION / TYPE
CONVBIN 2.4.3 Emlid                     20171125 153547 UTC PGM / RUN BY / DATE 
log: /home/reach/logs/ref_201711251248.rtcm3                COMMENT             
format: RTCM 3, station ID: 0                               COMMENT             
                                                            MARKER NAME         
                                                            MARKER NUMBER       
                                                            MARKER TYPE         
                                                            OBSERVER / AGENCY   
                    TRIMBLE NETR8       48.01,21/DEC/2016   REC # / TYPE / VERS 
4951353663          TRM59800.00     NONE                    ANT # / TYPE        
  3467519.4064 -4300378.5382 -3177517.7346                  APPROX POSITION XYZ 
        0.0069        0.0000        0.0000                  ANTENNA: DELTA H/E/N
G   16 C1C L1C D1C S1C C1W L1W D1W S1W C2W L2W D2W S2W C2X  SYS / # / OBS TYPES 
       L2X D2X S2X                                          SYS / # / OBS TYPES 
R   16 C1C L1C D1C S1C C1P L1P D1P S1P C2C L2C D2C S2C C2P  SYS / # / OBS TYPES 
       L2P D2P S2P                                          SYS / # / OBS TYPES 
E    4 C1X L1X D1X S1X                                      SYS / # / OBS TYPES 
J    8 C1C L1C D1C S1C C2X L2X D2X S2X                      SYS / # / OBS TYPES 
S    4 C1C L1C D1C S1C                                      SYS / # / OBS TYPES 
C    4 C1I L1I D1I S1I                                      SYS / # / OBS TYPES 
  2017    11    25    12    48   53.0000000     GPS         TIME OF FIRST OBS   
  2017    11    25    12    51   26.0000000     GPS         TIME OF LAST OBS    
                                                            END OF HEADER       
> 2017 11 25 12 48 53.0000000  0  9                     
R10  21298676.820   113533939.573                          50.750                                                                                                                                    21298684.560    88304153.822                          40.500  
R 2  23765698.424   126818335.125                          35.750                                                                                                                                    23765709.344    98636482.809                          36.000  
R11  20934691.904   111868653.791                          52.250                                                                                                                                    20934697.884    87008963.729                          46.000  
R20  21537300.360   115169665.673                          44.750                                                                                                                                    21537308.700    89576413.951                          46.000  
R19  24397671.100   130511104.994                          31.000                                                                                                                                    24397677.800   101508633.795                          29.500  
R 8  21322847.520   114182876.783                          50.250                                                                                                                                    21322852.100    88808903.155                          45.750  
R 1  20817036.564   111279007.988                          50.500                                                                                                                                    20817045.024    86550350.408                          42.500  
R21  21532818.480   115226825.865                          49.500                                                                                                                                    21532823.520    89620631.544                          44.750  
R12  23876086.944   127541774.444                          40.000                                                                                                1                                                                                                 
> 2017 11 25 12 48 54.0000000  0 19                     
G30  22075893.534   116009577.333                          46.250                                                                                                                                    22075904.914    90397069.526                          47.750  
G 7  24388190.478   128160756.303                          43.500                                                                                                                                    24388201.398    99865511.905                          38.250  
G28  20649415.544   108513393.747                          52.000                                                                    20649423.464    84555894.831                          40.000                                                                  
G13  20871277.422   109679337.075                          53.000                                                                    20871285.282    85464424.022                          42.250                                                                  
G19  22130890.454   116298637.740                          49.250                                                                    22130897.614    90622321.185                          37.500                                                                  
G17  20962648.922   110159487.219                          54.250                                                                                                                                    20962657.722    85838569.782                          49.500  
G 5  23864247.802   125407445.048                          44.500                                                                                                                                    23864258.962    97720079.324                          40.500  
G20  24591484.396   129229101.850                          40.000                                                                    24591492.856   100697997.566                          18.500                                                                  
G11  25468368.752   133837201.206                          36.500                                                                    25468380.312   104288728.491                          16.750                                                                  
G15  23206911.346   121953167.088                          48.500                                                                                                                                    23206921.326    95028446.792                          44.500  
R10  21298911.020   113535187.362                          50.250                                                                                                                                    21298919.340    88305124.325                          40.500  
R 2  23765116.624   126815212.594                          36.250                                                                                                                                    23765123.324    98634054.171                          35.750  
R11  20934542.204   111867855.579                          52.000                                                                                                                                    20934548.064    87008342.896                          46.250  
R20  21537277.100   115169538.754                          45.000                                                                                                                                    21537284.720    89576315.244                          46.000  
R19  24398232.660   130514109.592                          31.000                                                                                                                                    24398239.240   101510970.709                          28.000  
R 8  21323495.200   114186341.789                          50.500                                                                                                                                    21323500.240    88811598.153                          45.750  
R 1  20817098.064   111279333.974                          50.500                                                                                                                                    20817106.164    86550603.949                          42.000  
R21  21532190.460   115223465.736                          49.250                                                                                                                                    21532196.560    89618018.110                          44.750  
R12  23875707.164   127539746.508                          40.250                                                                                                1                                                                                                 
> 2017 11 25 12 48 55.0000000  0 19                     
G30  22076178.394   116011072.301                          46.750                                                                                                                                    22076189.434    90398234.435                          47.750  
G 7  24388633.038   128163081.362                          43.500                                                                                                                                    24388643.558    99867323.637                          38.500  
G28  20649822.824   108515534.523                          51.750                                                                    20649830.864    84557562.966                          39.750                                                                  
G13  20871000.442   109677880.802                          53.000                                                                    20871007.822    85463289.270                          42.250                                                                  
G19  22130376.254   116295937.984                          49.500                                                                    22130383.234    90620217.483                          37.000                                                                  
G17  20962264.242   110157465.010                          54.250                                                                                                                                    20962272.462    85836994.039                          49.500  
G 5  23864690.962   125409774.172                          44.000                                                                                                                                    23864702.702    97721894.215                          40.000  
G20  24591629.576   129229868.883                          40.000                                                                    24591639.476   100698595.256                          18.500                                                                  
G11  25468560.452   133838208.930                          36.000                                                                    25468572.292   104289513.740                          17.250                                                                  
G15  23206364.106   121950291.159                          48.250                                                                                                                                    23206374.086    95026205.813                          44.500  
R10  21299145.440   113536435.263                          50.250                                                                                                                                    21299152.480    88306094.914                          40.000  
R 2  23764530.744   126812090.759                          35.750                                                                                                                                    23764538.364    98631626.078                          36.250  
R11  20934393.104   111867057.586                          52.000                                                                                                                                    20934398.864    87007722.233                          46.000  
R20  21537253.160   115169412.782                          45.500                                                                                                                                    21537261.500    89576217.263                          45.250  
R19  24398795.140   130517114.758                          29.750                                                                                                                                    24398800.760   101513308.071                          26.750  
R 8  21324141.780   114189807.339                          50.250                                                                                                                                    21324146.480    88814293.581                          45.750  
R 1  20817159.184   111279660.909                          50.500                                                                                                                                    20817167.284    86550858.234                          42.250  
R21  21531562.260   115220106.144                          49.250                                                                                                                                    21531568.840    89615405.098                          44.500  
R12  23875328.164   127537718.704                          40.500                                                                                                1                                                                                                 
> 2017 11 25 12 48 56.0000000  0 19                     
G30  22076462.294   116012567.440                          46.750                                                                                                                                    22076473.914    90399399.480                          47.500  
G 7  24389075.058   128165406.494                          43.250                                                                                                                                    24389086.498    99869135.420                          38.250  
G28  20650229.984   108517675.613                          51.750                                                                    20650237.844    84559231.342                          40.000                                                                  
G13  20870723.602   109676425.054                          53.000                                                                    20870731.102    85462154.911                          42.000                                                                  
G19  22129862.674   116293238.577                          49.000                                                                    22129870.014    90618114.055                          37.500                                                                  
G17  20961879.542   110155443.354                          54.000                                                                                                                                    20961887.702    85835418.718                          49.500  
G 5  23865134.282   125412103.377                          44.000                                                                                                                                    23865145.722    97723709.174                          40.500  
G20  24591775.396   129230636.302                          40.000                                                                    24591785.436   100699193.245                          18.500                                                                  
G11  25468752.852   133839217.116                          35.750                                                                    25468764.232   104290299.361                          16.750                                                                  
G15  23205817.146   121947415.530                          48.250                                                                                                                                    23205826.846    95023965.059                          44.500  
R10  21299379.260   113537683.172                          50.250                                                                                                                                    21299386.200    88307065.510                          40.250  
R 2  23763947.464   126808969.431                          35.750                                                                                                                                    23763954.164    98629198.374                          36.000  
R11  20934244.064   111866259.697                          52.000                                                                                                                                    20934249.464    87007101.654                          46.000  
R20  21537231.620   115169287.678                          45.500                                                                                                                                    21537237.480    89576119.959                          45.250  
R19  24399357.200   130520120.461                          29.250                                                                                                                                    24399362.600   101515645.830                          27.500  
R 8  21324788.460   114193273.320                          50.000                                                                                                                                    21324793.740    88816989.344                          45.500  
R 1  20817220.584   111279988.671                          51.000                                                                                                                                    20817228.444    86551113.157                          42.000  
R21  21530934.440   115216746.957                          49.500                                                                                                                                    21530939.840    89612792.397                          44.500  
R12  23874948.084   127535690.928                          40.750                                                                                                1                                                                                                 
> 2017 11 25 12 48 57.0000000  0 19                     
G30  22076746.994   116014062.834                          46.750                                                                                                                                    22076758.554    90400564.720                          47.500  
G 7  24389517.398   128167731.792                          43.250                                                                                                                                    24389528.738    99870947.339                          38.000  
G28  20650637.624   108519817.048                          52.000                                                                    20650645.364    84560899.996                          40.000                                                                  
G13  20870446.502   109674969.885                          53.000                                                                    20870454.662    85461021.013                          42.000                                                                  
G19  22129349.194   116290539.562                          49.000                                                                    22129356.194    90616010.928                          37.500                                                                  
G17  20961494.702   110153422.354                          53.750                                                                                                                                    20961503.742    85833843.921                          49.500  
G 5  23865578.142   125414432.750                          44.250                                                                                                                                    23865588.582    97725524.268                          40.500  
G20  24591921.916   129231404.160                          39.500                                                                    24591931.656   100699791.576                          17.750                                                                  
G11  25468945.192   133840225.781                          35.750                                                                    25468956.152   104291085.313                          15.500                                                                  
G15  23205270.126   121944540.298                          48.000                                                                                                                                    23205279.746    95021724.624                          44.500  
R10  21299614.120   113538931.198                          50.500                                                                                                                                    21299620.920    88308036.192                          40.000  
R 2  23763361.684   126805848.610                          36.250                                                                                                                                    23763369.204    98626771.067                          36.250  
R11  20934094.424   111865461.968                          52.000                                                                                                                                    20934100.184    87006481.195                          46.500  
R20  21537207.840   115169163.486                          45.500                                                                                                                                    21537215.020    89576023.361                          45.000  
R19  24399920.940   130523126.854                          28.250                                                                                                                                    24399925.160   101517984.136                          27.500  
R 8  21325436.020   114196739.794                          50.250                                                                                                                                    21325441.200    88819685.490                          45.750  
R 1  20817281.484   111280317.378                          51.000                                                                                                                                    20817289.464    86551368.823                          42.000  
R21  21530307.140   115213388.213                          49.750                                                                                                                                    21530312.060    89610180.045                          44.500  
R12  23874569.224   127533663.192                          40.250                                                                                                1                                                                                                 
> 2017 11 25 12 48 58.0000000  0 19                     
G30  22077031.254   116015558.323                          46.500                                                                                                                                    22077042.994    90401730.030                          47.750  
G 7  24389960.218   128170057.127                          43.000                                                                                                                                    24389971.178    99872759.288                          37.750  
G28  20651044.844   108521958.733                          51.500                                                                    20651053.104    84562568.835                          39.750                                                                  
G13  20870169.822   109673515.170                          53.000                                                                    20870177.342    85459887.475                          42.250                                                                  
G19  22128835.614   116287840.849                          48.750                                                                    22128842.654    90613908.037                          37.500                                                                  
G17  20961110.442   110151401.874                          54.000                                                                                                                                    20961119.182    85832269.517                          49.500  
G 5  23866020.962   125416762.187                          44.000                                                                                                                                    23866031.822    97727339.411                          40.750  
G20  24592067.356   129232172.336                          39.500                                                                    24592077.916   100700390.158                          19.750                                                                  
G11  25469135.352   133841234.824                          36.000                                                                    25469147.552   104291871.539                          16.250                                                                  
G15  23204722.546   121941665.318                          48.000                                                                                                                                    23204732.106    95019484.384                          44.500  
R10  21299847.800   113540179.138                          50.750                                                                                                                                    21299855.200    88309006.807                          40.000  
R 2  23762777.464   126802728.320                          36.500                                                                                                                                    23762783.464    98624344.179                          36.500  
R11  20933944.964   111864664.261                          52.000                                                                                                                                    20933951.084    87005860.758                          46.500  
R20  21537184.060   115169040.086                          45.000                                                                                                                                    21537191.580    89575927.383                          45.250  
R19  24400482.140   130526133.595                          30.500                                                                                                                                    24400486.960   101520322.716                          28.000  
R 8  21326084.100   114200206.637                          50.250                                                                                                                                    21326088.800    88822381.922                          46.000  
R 1  20817343.144   111280646.871                          51.000                                                                                                                                    20817351.604    86551625.093                          42.250  
R21  21529679.560   115210029.788                          49.500                                                                                                                                    21529685.440    89607567.938                          44.500  
R12  23874189.464   127531635.434                          40.500                                                                                                1                                                                                                 
> 2017 11 25 12 48 59.0000000  0 19                     
G30  22077316.374   116017054.064                          46.750                                                                                                                                    22077328.354    90402895.540                          47.750  
G 7  24390402.638   128172382.599                          43.000                                                                                                                                    24390413.658    99874571.339                          37.750  
G28  20651452.424   108524100.769                          51.750                                                                    20651460.764    84564237.953                          40.000                                                                  
G13  20869892.802   109672061.018                          53.250                                                                    20869900.902    85458754.363                          42.000                                                                  
G19  22128322.174   116285142.525                          49.000                                                                    22128329.394    90611805.449                          36.750                                                                  
G17  20960726.002   110149382.028                          53.750                                                                                                                                    20960734.042    85830695.615                          49.750  
G 5  23866464.542   125419091.739                          44.250                                                                                                                                    23866475.402    97729154.648                          40.500  
G20  24592214.396   129232940.898                          39.000                                                                    24592224.076   100700989.054                          19.250                                                                  
G11  25469327.692   133842244.290                          36.500                                                                    25469339.892   104292658.146                          15.500                                                                  
G15  23204175.266   121938790.727                          47.750                                                                                                                                    23204185.006    95017244.447                          44.500  
R10  21300082.400   113541427.156                          50.750                                                                                                                                    21300089.560    88309977.489                          40.000  
R 2  23762192.444   126799608.559                          36.000                                                                                                                                    23762199.844    98621917.706                          37.000  
R11  20933795.864   111863866.696                          52.000                                                                                                                                    20933801.864    87005240.434                          46.500  
R20  21537161.200   115168917.565                          44.750                                                                                                                                    21537168.600    89575832.095                          45.250  
R19  24401044.480   130529140.976                          30.500                                                                                                                                    24401049.640   101522661.802                          27.500  
R 8  21326730.780   114203673.933                          50.250                                                                                                                                    21326737.000    88825078.701                          46.000  
R 1  20817405.584   111280977.260                          51.250                                                                                                                                    20817413.684    86551882.055                          42.500  
R21  21529053.040   115206671.826                          49.500                                                                                                                                    21529057.740    89604956.184                          44.750  
R12  23873810.664   127529607.676                          40.500                                                                                                1                                                                                                 
> 2017 11 25 12 49  0.0000000  0 19                     
G30  22077600.634   116018549.928                          46.500                                                                                                                                    22077612.414    90404061.142                          48.000  
G 7  24390845.078   128174708.149                          43.000                                                                                                                                    24390856.118    99876383.455                          38.500  
G28  20651860.024   108526243.076                          51.500                                                                    20651868.544    84565907.281                          39.750                                                                  
G13  20869616.402   109670607.344                          53.250                                                                    20869624.262    85457621.632                          42.250                                                                  
G19  22127808.734   116282444.503                          48.500                                                                    22127815.834    90609703.096                          36.000                                                                  
G17  20960341.802   110147362.707                          54.250                                                                                                                                    20960350.382    85829122.118                          49.500  
G 5  23866907.762   125421421.364                          44.750                                                                                                                                    23866918.322    97730969.941                          40.250  
G20  24592360.056   129233709.809                          39.250                                                                    24592370.556   100701588.216                          19.750                                                                  
G11  25469520.252   133843254.161                          36.000                                                                    25469532.452   104293445.116                          15.500                                                                  
G15  23203628.726   121935916.404                          47.750                                                                                                                                    23203638.186    95015004.713                          43.750  
R10  21300316.820   113542675.142                          51.000                                                                                                                                    21300323.400    88310948.141                          40.000  
R 2  23761608.884   126796489.187                          35.500                                                                                                                                    23761615.344    98619491.521                          36.750  
R11  20933646.824   111863069.168                          52.250                                                                                                                                    20933652.224    87004620.136                          46.750  
R20  21537138.960   115168795.852                          44.750                                                                                                                                    21537146.240    89575737.419                          45.250  
R19  24401607.100   130532148.792                          31.000                                                                                                                                    24401611.800   101525001.212                          27.250  
R 8  21327378.620   114207141.574                          50.000                                                                                                                                    21327383.560    88827775.751                          45.750  
R 1  20817467.184   111281308.444                          51.500                                                                                                                                    20817475.284    86552139.644                          42.250  
R21  21528424.420   115203314.249                          49.500                                                                                                                                    21528430.420    89602344.737                          44.250  
R12  23873431.264   127527579.977                          40.250                                                                                                1                                                                                                 
> 2017 11 25 12 49  1.0000000  0 19                     
G30  22077885.174   116020046.034                          46.500                                                                                                                                    22077897.314    90405226.937                          47.750  
G 7  24391288.118   128177033.820                          42.500                                                                                                                                    24391299.438    99878195.666                          38.250  
G28  20652268.064   108528385.701                          51.500                                                                    20652275.984    84567576.859                          39.500                                                                  
G13  20869340.022   109669154.195                          53.250                                                                    20869347.542    85456489.308                          42.000                                                                  
G19  22127295.334   116279746.868                          48.750                                                                    22127302.314    90607601.038                          36.750                                                                  
G17  20959957.962   110145344.019                          54.000                                                                                                                                    20959966.482    85827549.115                          49.500  
G 5  23867351.262   125423751.126                          44.250                                                                                                                                    23867361.522    97732785.338                          40.000  
G20  24592506.636   129234479.076                          39.500                                                                    24592516.496   100702187.643                          19.500                                                                  
G11  25469713.032   133844264.478                          36.000                                                                    25469724.652   104294232.349                          16.250                                                                  
G15  23203081.406   121933042.459                          48.000                                                                                                                                    23203091.386    95012765.282                          44.000  
R10  21300551.040   113543923.195                          51.000                                                                                                                                    21300557.740    88311918.851                          40.250  
R 2  23761022.924   126793370.433                          36.000                                                                                                                                    23761030.424    98617065.822                          36.750  
R11  20933497.564   111862271.779                          52.500                                                                                                                                    20933504.364    87003999.942                          46.750  
R20  21537116.120   115168674.999                          44.750                                                                                                                                    21537123.280    89575643.425                          45.500  
R19  24402170.000   130535157.175                          31.000                                                                                                                                    24402174.580   101527341.058                          26.000  
R 8  21328025.880   114210609.667                          50.000                                                                                                                                    21328030.800    88830473.155                          45.750  
R 1  20817529.204   111281640.514                          51.500                                                                                                                                    20817537.424    86552397.920                          42.000  
R21  21527797.060   115199957.119                          49.500                                                                                                                                    21527802.940    89599733.642                          44.500  
R12  23873050.484   127525552.265                          40.500                                                                                                1                                                                                                 
> 2017 11 25 12 49  2.0000000  0 19                     
G30  22078170.494   116021542.392                          47.250                                                                                                                                    22078182.154    90406392.926                          47.500  
G 7  24391730.138   128179359.670                          42.750                                                                                                                                    24391741.578    99880008.016                          38.500  
G28  20652675.784   108530528.744                          51.000                                                                    20652683.704    84569246.762                          39.250                                                                  
G13  20869063.482   109667701.677                          53.250                                                                    20869071.042    85455357.474                          42.250                                                                  
G19  22126782.414   116277049.663                          49.000                                                                    22126789.414    90605499.323                          37.000                                                                  
G17  20959573.722   110143326.012                          54.250                                                                                                                                    20959582.482    85825976.639                          49.500  
G 5  23867795.062   125426081.073                          45.000                                                                                                                                    23867805.402    97734600.876                          39.250  
G20  24592653.096   129235248.904                          39.750                                                                    24592663.496   100702787.484                          19.500                                                                  
G11  25469904.772   133845275.300                          36.500                                                                    25469916.392   104295020.015                          16.250                                                                  
G15  23202535.506   121930168.935                          48.250                                                                                                                                    23202544.606    95010526.170                          44.000  
R10  21300785.620   113545171.392                          50.750                                                                                                                                    21300791.720    88312889.666                          40.000  
R 2  23760440.064   126790252.267                          36.000                                                                                                                                    23760445.584    98614640.580                          36.250  
R11  20933348.304   111861474.598                          52.500                                                                                                                                    20933354.044    87003379.913                          47.000  
R20  21537092.780   115168555.112                          45.000                                                                                                                                    21537101.100    89575550.179                          45.500  
R19  24402732.600   130538166.181                          31.500                                                                                                                                    24402736.940   101529681.394                          26.750  
R 8  21328674.440   114214078.261                          50.000                                                                                                                                    21328680.080    88833170.948                          45.500  
R 1  20817591.864   111281973.519                          51.250                                                                                                                                    20817599.964    86552656.924                          41.750  
R21  21527169.900   115196600.500                          49.000                                                                                                                                    21527175.660    89597122.934                          44.750  
R12  23872669.084   127523524.678                          39.500                                                                                                1                                                                                                 
> 2017 11 25 12 49  3.0000000  0 19                     
G30  22078455.494   116023038.913                          47.500                                                                                                                                    22078466.654    90407559.047                          47.500  
G 7  24392172.458   128181685.617                          43.000                                                                                                                                    24392183.618    99881820.436                          38.250  
G28  20653083.624   108532672.047                          51.000                                                                    20653091.844    84570916.865                          39.250                                                                  
G13  20868786.962   109666249.648                          53.500                                                                    20868794.522    85454226.018                          42.500                                                                  
G19  22126268.954   116274352.784                          49.000                                                                    22126276.054    90603397.863                          37.250                                                                  
G17  20959190.022   110141308.543                          53.750                                                                                                                                    20959198.362    85824404.588                          49.500  
G 5  23868237.882   125428411.095                          44.500                                                                                                                                    23868248.202    97736416.474                          40.000  
G20  24592799.176   129236018.982                          40.000                                                                    24592809.616   100703387.519                          19.000                                                                  
G11  25470096.692   133846286.547                          35.750                                                                    25470109.012   104295807.990                          15.500                                                                  
G15  23201988.346   121927295.697                          48.000                                                                                                                                    23201997.806    95008287.285                          44.000  
R10  21301019.580   113546419.567                          50.750                                                                                                                                    21301026.620    88313860.473                          40.000  
R 2  23759855.064   126787134.661                          36.500                                                                                                                                    23759861.744    98612215.769                          37.000  
R11  20933198.664   111860677.439                          52.250                                                                                                                                    20933204.784    87002759.892                          47.000  
R20  21537071.400   115168436.038                          45.000                                                                                                                                    21537079.500    89575457.566                          45.500  
R19  24403292.780   130541175.637                          32.000                                                                                                                                    24403299.960   101532022.088                          27.500  
R 8  21329322.260   114217547.263                          50.000                                                                                                                                    21329327.540    88835869.060                          45.500  
R 1  20817654.164   111282307.345                          51.250                                                                                                                                    20817662.384    86552916.568                          42.000  
R21  21526542.580   115193244.247                          49.500                                                                                                                                    21526548.700    89594512.518                          44.750  
R12  23872289.764   127521497.041                          39.000                                                                                                1                                                                                                 
> 2017 11 25 12 49  4.0000000  0 19                     
G30  22078740.334   116024535.560                          47.250                                                                                                                                    22078751.654    90408725.272                          47.500  
G 7  24392615.178   128184011.595                          42.750                                                                                                                                    24392626.218    99883632.877                          38.000  
G28  20653491.344   108534815.626                          51.250                                                                    20653499.444    84572587.190                          39.750                                                                  
G13  20868510.782   109664798.086                          53.250                                                                    20868518.762    85453094.934                          42.500                                                                  
G19  22125755.614   116271656.197                          49.250                                                                    22125763.254    90601296.624                          37.000                                                                  
G17  20958806.162   110139291.626                          54.250                                                                                                                                    20958814.682    85822832.965                          49.500  
G 5  23868681.262   125430741.172                          44.750                                                                                                                                    23868691.182    97738232.115                          40.000  
G20  24592946.296   129236789.449                          39.500                                                                    24592956.976   100703987.872                          19.250                                                                  
G11  25470289.592   133847298.170                          36.500                                                                    25470301.372   104296596.270                          16.250                                                                  
G15  23201441.166   121924422.727                          48.250                                                                                                                                    23201450.366    95006048.605                          44.250  
R10  21301253.480   113547667.737                          50.750                                                                                                                                    21301260.060    88314831.270                          39.500  
R 2  23759272.344   126784017.538                          36.000                                                                                                                                    23759277.964    98609791.334                          36.500  
R11  20933049.724   111859880.330                          51.500                                                                                                                                    20933056.064    87002139.927                          46.500  
R20  21537049.700   115168317.768                          44.750                                                                                                                                    21537056.040    89575365.574                          45.750  
R19  24403855.360   130544185.684                          31.000                                                                                                                                    24403861.700   101534363.238                          28.250  
R 8  21329970.480   114221016.647                          50.000                                                                                                                                    21329974.820    88838567.466                          45.500  
R 1  20817717.044   111282641.962                          51.500                                                                                                                                    20817725.384    86553176.818                          41.500  
R21  21525915.760   115189888.356                          49.500                                                                                                                                    21525920.940    89591902.386                          45.000  
R12  23871910.984   127519469.374                          39.750                                                                                                1                                                                                                 
> 2017 11 25 12 49  5.0000000  0 19                     
G30  22079025.154   116026032.434                          46.250                                                                                                                                    22079036.654    90409891.664                          47.750  
G 7  24393057.498   128186337.737                          43.000                                                                                                                                    24393068.758    99885445.451                          38.500  
G28  20653899.744   108536959.547                          51.500                                                                    20653907.564    84574257.773                          39.750                                                                  
G13  20868234.802   109663347.097                          52.500                                                                    20868242.542    85451964.291                          42.250                                                                  
G19  22125242.554   116268960.017                          49.250                                                                    22125249.834    90599195.708                          37.000                                                                  
G17  20958422.442   110137275.324                          54.250                                                                                                                                    20958431.002    85821261.822                          49.500  
G 5  23869125.242   125433071.418                          45.500                                                                                                                                    23869135.282    97740047.878                          39.500  
G20  24593092.296   129237560.295                          39.750                                                                    24593103.136   100704588.543                          19.000                                                                  
G11  25470482.552   133848310.206                          35.250                                                                    25470494.052   104297384.898                          15.500                                                                  
G15  23200894.566   121921550.167                          48.000                                                                                                                                    23200904.306    95003810.247                          44.250  
R10  21301487.240   113548915.992                          50.500                                                                                                                                    21301494.180    88315802.133                          39.750  
R 2  23758686.824   126780900.893                          36.000                                                                                                                                    23758693.744    98607367.274                          36.250  
R11  20932900.404   111859083.355                          51.750                                                                                                                                    20932906.984    87001520.055                          46.750  
R20  21537025.680   115168200.440                          44.750                                                                                                                                    21537034.940    89575274.319                          45.750  
R19  24404419.240   130547196.220                          31.750                                                                                                                                    24404425.000   101536704.762                          29.250  
R 8  21330617.820   114224486.510                          49.750                                                                                                                                    21330623.120    88841266.244                          45.500  
R 1  20817779.744   111282977.485                          51.750                                                                                                                                    20817787.504    86553437.782                          42.000  
R21  21525288.380   115186532.944                          49.750                                                                                                                                    21525294.240    89589292.625                          45.000  
R12  23871529.984   127517441.782                          39.500                                                                                                1                                                                                                 
> 2017 11 25 12 49  6.0000000  0 19                     
G30  22079309.894   116027529.501                          46.250                                                                                                                                    22079321.454    90411058.208                          47.750  
G 7  24393500.358   128188663.975                          42.750                                                                                                                                    24393511.738    99887258.090                          38.500  
G28  20654307.324   108539103.748                          51.500                                                                    20654316.064    84575928.578                          39.500                                                                  
G13  20867958.442   109661896.597                          52.500                                                                    20867966.902    85450834.037                          42.500                                                                  
G19  22124729.754   116266264.154                          49.500                                                                    22124736.974    90597095.041                          37.000                                                                  
G17  20958038.782   110135259.595                          53.750                                                                                                                                    20958046.882    85819691.120                          49.750  
G 5  23869568.282   125435401.721                          45.250                                                                                                                                    23869579.262    97741863.697                          39.250  
G20  24593239.256   129238331.516                          39.250                                                                    24593250.056   100705189.495                          19.250                                                                  
G11  25470674.212   133849322.725                          35.000                                                                    25470686.712   104298173.868                          14.750                                                                  
G15  23200348.326   121918677.888                          48.500                                                                                                                                    23200357.606    95001572.105                          44.000  
R10  21301722.420   113550164.258                          50.750                                                                                                                                    21301728.520    88316773.007                          40.500  
R 2  23758104.564   126777784.888                          36.250                                                                                                                                    23758110.204    98604943.708                          36.250  
R11  20932751.404   111858286.479                          51.750                                                                                                                                    20932757.624    87000900.259                          46.000  
R20  21537005.340   115168083.933                          44.500                                                                                                                                    21537013.200    89575183.704                          45.500  
R19  24404981.140   130550207.308                          31.750                                                                                                                                    24404987.840   101539046.719                          29.500  
R 8  21331265.900   114227956.745                          49.500                                                                                                                                    21331270.820    88843965.312                          45.500  
R 1  20817842.644   111283313.836                          51.250                                                                                                                                    20817850.864    86553699.385                          41.750  
R21  21524661.700   115183177.877                          49.500                                                                                                                                    21524667.340    89586683.127                          45.000  
R12  23871151.164   127515414.189                          39.500                                                                                                1                                                                                                 
> 2017 11 25 12 49  7.0000000  0 19                     
G30  22079595.074   116029026.792                          46.750                                                                                                                                    22079606.574    90412224.927                          47.500  
G 7  24393943.198   128190990.345                          43.000                                                                                                                                    24393954.038    99889070.840                          38.750  
G28  20654715.404   108541248.323                          51.750                                                                    20654723.744    84577599.677                          39.250                                                                  
G13  20867682.782   109660446.693                          52.500                                                                    20867690.762    85449704.240                          42.500                                                                  
G19  22124216.734   116263568.718                          49.000                                                                    22124224.414    90594994.703                          37.250                                                                  
G17  20957655.242   110133244.515                          54.000                                                                                                                                    20957663.622    85818120.930                          49.500  
G 5  23870011.922   125437732.217                          45.750                                                                                                                                    23870022.262    97743679.659                          39.500  
G20  24593386.196   129239103.147                          39.750                                                                    24593396.756   100705790.786                          19.000                                                                  
G11  25470867.632   133850335.689                          36.000                                                                    25470879.132   104298963.190                          15.500                                                                  
G15  23199801.866   121915806.014                          48.500                                                                                                                                    23199811.126    94999334.285                          44.000  
R10  21301955.380   113551412.596                          50.500                                                                                                                                    21301962.900    88317743.930                          40.250  
R 2  23757520.644   126774669.368                          34.500                                                                                                                                    23757524.524    98602520.524                          35.500  
R11  20932602.884   111857489.755                          52.000                                                                                                                                    20932608.404    87000280.591                          46.000  
R20  21536984.680   115167968.339                          44.750                                                                                                                                    21536991.140    89575093.798                          45.750  
R19  24405544.860   130553218.983                          31.750                                                                                                                                    24405550.720   101541389.133                          30.000  
R 8  21331914.320   114231427.455                          49.750                                                                                                                                    21331919.600    88846664.755                          45.500  
R 1  20817905.704   111283651.110                          51.250                                                                                                                                    20817913.584    86553961.713                          41.750  
R21  21524034.280   115179823.294                          49.250                                                                                                                                    21524041.200    89584074.017                          45.500  
R12  23870771.404   127513386.696                          39.500                                                                                                1                                                                                                 
> 2017 11 25 12 49  8.0000000  0 19                     
G30  22079879.514   116030524.204                          47.250                                                                                                                                    22079891.354    90413391.743                          47.500  
G 7  24394385.638   128193316.771                          42.250                                                                                                                                    24394397.418    99890883.640                          38.000  
G28  20655124.024   108543393.134                          51.500                                                                    20655132.464    84579270.956                          40.000                                                                  
G13  20867406.722   109658997.223                          52.500                                                                    20867414.822    85448574.787                          42.500                                                                  
G19  22123704.614   116260873.573                          49.000                                                                    22123710.954    90592894.592                          37.000                                                                  
G17  20957271.942   110131229.958                          53.750                                                                                                                                    20957280.282    85816551.141                          49.500  
G 5  23870454.642   125440062.722                          44.750                                                                                                                                    23870464.862    97745495.642                          39.000  
G20  24593532.756   129239875.101                          39.750                                                                    24593543.916   100706392.307                          19.250                                                                  
G11  25471060.492   133851349.007                          36.000                                                                    25471072.052   104299752.759                          14.750                                                                  
G15  23199255.226   121912934.405                          48.500                                                                                                                                    23199264.966    94997096.664                          44.250  
R10  21302189.640   113552660.901                          50.250                                                                                                                                    21302197.740    88318714.834                          39.500  
R 2  23756934.964   126771554.252                          35.750                                                                                                                                    23756942.244    98600097.660                          35.250  
R11  20932453.864   111856693.053                          52.000                                                                                                                                    20932460.084    86999660.940                          46.250  
R20  21536962.100   115167853.495                          44.500                                                                                                                                    21536969.860    89575004.474                          45.750  
R19  24406109.920   130556231.090                          30.500                                                                                                                                    24406112.740   101543731.893                          28.500  
R 8  21332562.120   114234898.502                          50.000                                                                                                                                    21332567.400    88849364.448                          45.500  
R 1  20817969.424   111283989.172                          51.250                                                                                                                                    20817976.924    86554224.648                          41.500  
R21  21523408.060   115176469.043                          49.500                                                                                                                                    21523413.580    89581465.155                          45.000  
R12  23870392.164   127511359.152                          39.000                                                                                                1                                                                                                 
> 2017 11 25 12 49  9.0000000  0 19                     
G30  22080164.574   116032021.865                          47.000                                                                                                                                    22080176.494    90414558.748                          47.750  
G 7  24394828.658   128195643.343                          42.000                                                                                                                                    24394840.158    99892696.556                          38.250  
G28  20655531.584   108545538.324                          51.750                                                                    20655540.264    84580942.534                          39.500                                                                  
G13  20867130.962   109657548.368                          52.500                                                                    20867138.782    85447445.804                          42.750                                                                  
G19  22123191.514   116258178.817                          49.250                                                                    22123198.254    90590794.784                          37.000                                                                  
G17  20956888.602   110129216.034                          54.250                                                                                                                                    20956897.222    85814981.852                          49.000  
G 5  23870898.782   125442393.399                          45.000                                                                                                                                    23870908.942    97747311.768                          39.500  
G20  24593679.776   129240647.502                          40.000                                                                    24593690.796   100706994.180                          19.000                                                                  
G11  25471253.692   133852362.834                          35.500                                                                    25471265.412   104300542.743                          16.250                                                                  
G15  23198708.766   121910063.174                          47.750                                                                                                                                    23198718.686    94994859.343                          44.250  
R10  21302423.900   113553909.290                          50.500                                                                                                                                    21302430.840    88319685.807                          39.500  
R 2  23756350.944   126768439.706                          35.750                                                                                                                                    23756356.944    98597675.244                          35.750  
R11  20932303.784   111855896.508                          51.750                                                                                                                                    20932310.364    86999041.405                          46.750  
R20  21536941.280   115167739.557                          44.250                                                                                                                                    21536948.320    89574915.856                          45.750  
R19  24406672.660   130559243.800                          31.000                                                                                                                                    24406676.780   101546075.119                          28.750  
R 8  21333210.840   114238370.060                          50.250                                                                                                                                    21333216.020    88852064.548                          46.000  
R 1  20818031.724   111284328.143                          51.500                                                                                                                                    20818040.284    86554488.294                          41.750  
R21  21522780.700   115173115.260                          49.500                                                                                                                                    21522785.980    89578856.655                          44.500  
R12  23870012.884   127509331.632                          39.250                                                                                                1                                                                                                 
> 2017 11 25 12 49 10.0000000  0 19                     
G30  22080450.094   116033519.687                          46.750                                                                                                                                    22080461.594    90415725.880                          47.750  
G 7  24395271.398   128197970.010                          42.250                                                                                                                                    24395282.778    99894509.545                          38.250  
G28  20655939.744   108547683.781                          51.500                                                                    20655947.904    84582614.316                          39.500                                                                  
G13  20866855.602   109656099.996                          52.750                                                                    20866863.642    85446317.203                          42.750                                                                  
G19  22122678.294   116255484.419                          49.250                                                                    22122685.814    90588695.249                          37.000                                                                  
G17  20956505.482   110127202.688                          54.250                                                                                                                                    20956514.122    85813413.013                          49.000  
G 5  23871341.962   125444724.170                          44.500                                                                                                                                    23871352.642    97749127.955                          39.500  
G20  24593826.096   129241420.242                          39.250                                                                    24593837.896   100707596.305                          19.250                                                                  
G11  25471446.052   133853377.067                          36.500                                                                    25471457.972   104301333.064                          15.500                                                                  
G15  23198162.406   121907192.251                          47.750                                                                                                                                    23198172.026    94992622.263                          44.750  
R10  21302657.700   113555157.692                          50.750                                                                                                                                    21302665.800    88320656.780                          39.750  
R 2  23755768.264   126765325.710                          35.250                                                                                                                                    23755773.664    98595253.245                          35.750  
R11  20932155.084   111855100.046                          51.750                                                                                                                                    20932161.304    86998421.930                          46.500  
R20  21536918.980   115167626.431                          44.250                                                                                                                                    21536927.200    89574827.874                          45.500  
R19  24407236.240   130562257.022                          29.750                                                                                                                                    24407240.120   101548418.762                          29.000  
R 8  21333857.800   114241842.028                          50.000                                                                                                                                    21333864.140    88854764.961                          46.250  
R 1  20818096.344   111284667.961                          51.500                                                                                                                                    20818104.204    86554752.590                          41.750  
R21  21522154.980   115169761.916                          49.500                                                                                                                                    21522159.920    89576248.494                          44.500  
R12  23869632.984   127507304.149                          39.250                                                                                                1                                                                                                 
> 2017 11 25 12 49 11.0000000  0 19                     
G30  22080734.914   116035017.711                          46.500                                                                                                                                    22080746.414    90416893.171                          47.500  
G 7  24395713.498   128200296.795                          42.000                                                                                                                                    24395725.938    99896322.612                          38.250  
G28  20656348.204   108549829.562                          51.500                                                                    20656356.464    84584286.350                          39.500                                                                  
G13  20866580.082   109654652.155                          52.750                                                                    20866588.482    85445189.015                          42.500                                                                  
G19  22122165.694   116252790.370                          49.250                                                                    22122173.214    90586595.989                          37.500                                                                  
G17  20956122.542   110125189.946                          54.250                                                                                                                                    20956131.282    85811844.638                          49.500  
G 5  23871785.722   125447055.049                          45.000                                                                                                                                    23871795.462    97750944.220                          40.000  
G20  24593974.036   129242193.384                          39.500                                                                    24593984.656   100708198.740                          19.250                                                                  
G11  25471640.292   133854391.712                          36.750                                                                    25471651.252   104302123.723                          16.250                                                                  
G15  23197616.346   121904321.691                          48.750                                                                                                                                    23197625.846    94990385.462                          44.750  
R10  21302892.660   113556406.120                          51.250                                                                                                                                    21302899.820    88321627.780                          40.000  
R 2  23755184.404   126762212.314                          34.750                                                                                                                                    23755190.984    98592831.703                          35.750  
R11  20932006.104   111854303.704                          52.000                                                                                                                                    20932012.324    86997802.555                          46.250  
R20  21536898.900   115167514.175                          44.500                                                                                                                                    21536905.940    89574740.563                          46.000  
R19  24407799.220   130565270.814                          29.750                                                                                                                                    24407803.680   101550762.818                          28.000  
R 8  21334506.920   114245314.453                          49.750                                                                                                                                    21334512.900    88857465.739                          46.000  
R 1  20818159.564   111285008.642                          51.500                                                                                                                                    20818167.904    86555017.567                          41.500  
R21  21521528.600   115166408.983                          49.750                                                                                                                                    21521533.660    89573640.658                          44.500  
R12  23869253.544   127505276.691                          39.000                                                                                                1                                                                                                 
> 2017 11 25 12 49 12.0000000  0 18                     
G30  22081019.934   116036515.956                          47.000                                                                                                                                    22081031.434    90418060.626                          47.000  
G 7  24396155.658   128202623.699                          42.000                                                                                                                                    24396167.758    99898135.786                          38.500  
G28  20656756.764   108551975.703                          51.500                                                                    20656764.624    84585958.672                          39.750                                                                  
G13  20866304.722   109653204.892                          52.750                                                                    20866312.582    85444061.280                          42.250                                                                  
G19  22121653.434   116250096.702                          49.000                                                                    22121660.134    90584497.029                          37.500                                                                  
G17  20955739.822   110123177.817                          54.500                                                                                                                                    20955748.202    85810276.747                          49.500  
G 5  23872229.142   125449386.064                          45.500                                                                                                                                    23872239.242    97752760.590                          39.500  
G20  24594121.556   129242966.920                          38.750                                                                    24594132.056   100708801.483                          19.000                                                                  
G11  25471832.652   133855406.866                          36.500                                                                    25471844.212   104302914.754                          16.250                                                                  
G15  23197069.926   121901451.482                          48.500                                                                                                                                    23197079.486    94988148.942                          44.500  
R10  21303126.400   113557654.623                          51.000                                                                                                                                    21303133.460    88322598.830                          40.000  
R 2  23754600.184   126759099.394                          35.250                                                                                                                                    23754608.524    98590410.540                          35.500  
R11  20931857.704   111853507.496                          52.250                                                                                                                                    20931862.744    86997183.282                          46.500  
R20  21536877.300   115167402.796                          44.500                                                                                                                                    21536885.520    89574653.935                          46.000  
R 8  21335154.460   114248787.305                          49.750                                                                                                                                    21335161.380    88860166.844                          46.000  
R 1  20818224.044   111285350.208                          51.500                                                                                                                                    20818231.424    86555283.234                          41.750  
R21  21520901.920   115163056.479                          49.750                                                                                                                                    21520907.680    89571033.153                          44.250  
R12  23868873.884   127503249.272                          39.250                                                                                                1                                                                                                 
> 2017 11 25 12 49 13.0000000  0 18                     
G30  22081305.254   116038014.353                          46.750                                                                                                                                    22081316.514    90419228.209                          47.000  
G 7  24396598.658   128204950.678                          42.000                                                                                                                                    24396611.258    99899949.017                          38.500  
G28  20657165.124   108554122.090                          51.500                                                                    20657173.164    84587631.180                          39.500                                                                  
G13  20866029.342   109651758.104                          53.000                                                                    20866037.442    85442933.913                          42.500                                                                  
G19  22121141.034   116247403.383                          49.250                                                                    22121148.194    90582398.348                          37.750                                                                  
G17  20955356.962   110121166.242                          54.500                                                                                                                                    20955365.062    85808709.290                          49.750  
G 5  23872673.102   125451717.151                          46.000                                                                                                                                    23872683.242    97754577.013                          39.500  
G20  24594268.276   129243740.787                          39.000                                                                    24594279.476   100709404.499                          19.250                                                                  
G11  25472026.272   133856422.468                          37.000                                                                    25472037.472   104303706.118                          16.750                                                                  
G15  23196523.506   121898581.579                          48.250                                                                                                                                    23196533.366    94985912.656                          44.750  
R10  21303361.780   113558903.140                          51.000                                                                                                                                    21303368.340    88323569.902                          40.250  
R 2  23754018.284   126755987.087                          35.250                                                                                                                                    23754025.224    98587989.852                          35.750  
R11  20931708.064   111852711.333                          52.000                                                                                                                                    20931714.164    86996564.049                          46.500  
R20  21536855.840   115167292.272                          44.500                                                                                                                                    21536863.940    89574567.972                          45.500  
R 8  21335804.100   114252260.496                          50.000                                                                                                                                    21335809.740    88862868.211                          46.000  
R 1  20818287.484   111285692.590                          51.750                                                                                                                                    20818295.344    86555549.526                          42.000  
R21  21520274.980   115159704.380                          50.000                                                                                                                                    21520280.860    89568425.966                          44.250  
R12  23868494.444   127501221.838                          38.500                                                                                                1                                                                                                 
> 2017 11 25 12 49 14.0000000  0 18                     
G30  22081590.694   116039512.971                          47.250                                                                                                                                    22081601.894    90420395.959                          47.000  
G 7  24397040.938   128207277.797                          42.000                                                                                                                                    24397054.598    99901762.350                          38.750  
G28  20657574.004   108556268.828                          51.750                                                                    20657581.804    84589303.954                          39.750                                                                  
G13  20865754.222   109650311.869                          52.750                                                                    20865761.902    85441806.976                          42.500                                                                  
G19  22120627.994   116244710.411                          49.250                                                                    22120635.454    90580299.928                          37.500                                                                  
G17  20954974.522   110119155.290                          55.000                                                                                                                                    20954982.622    85807142.315                          50.000  
G 5  23873116.682   125454048.366                          45.500                                                                                                                                    23873127.182    97756393.544                          39.500  
G20  24594415.016   129244515.095                          38.500                                                                    24594426.556   100710007.852                          18.500                                                                  
G11  25472220.052   133857438.410                          37.000                                                                    25472231.072   104304497.768                          16.750                                                                  
G15  23195978.166   121895712.043                          48.500                                                                                                                                    23195987.906    94983676.648                          44.250  
R10  21303595.540   113560151.685                          50.750                                                                                                                                    21303602.820    88324540.995                          40.000  
R 2  23753436.044   126752875.359                          35.000                                                                                                                                    23753441.924    98585569.615                          36.000  
R11  20931559.544   111851915.237                          52.000                                                                                                                                    20931565.064    86995944.863                          46.750  
R20  21536836.700   115167182.620                          44.000                                                                                                                                    21536844.100    89574482.687                          45.250  
R 8  21336452.660   114255734.156                          49.750                                                                                                                                    21336458.420    88865569.946                          46.250  
R 1  20818351.984   111286035.861                          51.750                                                                                                                                    20818360.324    86555816.519                          42.000  
R21  21519649.340   115156352.681                          50.000                                                                                                                                    21519653.820    89565819.090                          44.000  
R12  23868114.784   127499194.443                          39.000                                                                                                1                                                                                                 
> 2017 11 25 12 49 15.0000000  0 19                     
G30  22081875.374   116041011.807                          47.250                                                                                                                                    22081887.174    90421563.885                          47.250  
G 7  24397483.738   128209605.042                          42.500                                                                                                                                    24397496.538    99903575.786                          38.750  
G28  20657982.604   108558415.920                          51.750                                                                    20657990.404    84590977.008                          40.000                                                                  
G13  20865479.042   109648866.206                          53.250                                                                    20865487.142    85440680.492                          42.250                                                                  
G19  22120115.774   116242017.857                          49.500                                                                    22120122.694    90578201.840                          37.500                                                                  
G17  20954591.802   110117144.963                          54.750                                                                                                                                    20954600.202    85805575.822                          49.750  
G 5  23873559.902   125456379.760                          45.250                                                                                                                                    23873570.762    97758210.208                          40.000  
G20  24594563.236   129245289.771                          38.250                                                                    24594574.036   100710611.506                          20.250                                                                  
G11  25472413.372   133858454.868                          36.500                                                                    25472424.172   104305289.839                          15.500                                                                  
G15  23195432.306   121892842.872                          48.500                                                                                                                                    23195441.406    94981440.930                          44.500  
R10  21303828.640   113561400.338                          50.500                                                                                                                                    21303836.160    88325512.167                          39.500  
R 2  23752851.544   126749764.076                          36.000                                                                                                                                    23752857.884    98583149.727                          35.750  
R11  20931410.604   111851119.315                          52.000                                                                                                                                    20931416.464    86995325.810                          47.000  
R20  21536815.180   115167073.863                          43.750                                                                                                                                    21536822.680    89574398.103                          45.500  
R19  24410054.820   130577333.3211                         30.500                                                                                                                                    24410058.340   101560148.1951                         30.500  
R 8  21337101.320   114259208.287                          49.500                                                                                                                                    21337107.180    88868272.052                          45.750  
R 1  20818415.964   111286380.030                          51.750                                                                                                                                    20818424.304    86556084.200                          42.250  
R21  21519022.520   115153001.493                          50.000                                                                                                                                    21519027.460    89563212.619                          44.500  
R12  23867736.224   127497167.102                          39.750                                                                                                1                                                                                                 
> 2017 11 25 12 49 16.0000000  0 19                     
G30  22082160.454   116042510.766                          47.500                                                                                                                                    22082172.314    90422731.901                          47.250  
G 7  24397927.158   128211932.340                          42.000                                                                                                                                    24397940.298    99905389.258                          38.750  
G28  20658390.724   108560563.237                          51.250                                                                    20658399.004    84592650.245                          39.000                                                                  
G13  20865204.182   109647420.977                          53.500                                                                    20865211.682    85439554.337                          42.000                                                                  
G19  22119603.274   116239325.584                          49.500                                                                    22119610.194    90576103.967                          37.500                                                                  
G17  20954209.362   110115135.169                          54.500                                                                                                                                    20954217.582    85804009.749                          49.750  
G 5  23874003.522   125458711.156                          45.000                                                                                                                                    23874014.622    97760026.883                          39.500  
G20  24594709.696   129246064.795                          38.500                                                                    24594721.136   100711215.420                          19.750                                                                  
G11  25472607.412   133859471.720                          37.250                                                                    25472618.312   104306082.206                          15.500                                                                  
G15  23194885.886   121889973.975                          48.250                                                                                                                                    23194895.326    94979205.424                          44.250  
R10  21304063.540   113562648.966                          50.250                                                                                                                                    21304071.300    88326483.319                          40.000  
R 2  23752268.704   126746653.282                          35.500                                                                                                                                    23752275.644    98580730.218                          36.500  
R11  20931261.204   111850323.441                          52.000                                                                                                                                    20931267.424    86994706.803                          46.750  
R20  21536795.360   115166965.896                          43.750                                                                                                                                    21536803.220    89574314.124                          44.750  
R19  24410620.000   130580349.734                          31.000                                                                                                                                    24410621.780   101562494.306                          30.500  
R 8  21337749.840   114262682.812                          50.000                                                                                                                                    21337755.940    88870974.450                          45.750  
R 1  20818480.484   111286724.991                          51.250                                                                                                                                    20818488.704    86556352.501                          42.000  
R21  21518396.120   115149650.632                          49.750                                                                                                                                    21518402.700    89560606.389                          44.250  
R12  23867357.364   127495139.716                          40.000                                                                                                1                                                                                                 
> 2017 11 25 12 49 17.0000000  0 19                     
G30  22082446.154   116044009.891                          47.750                                                                                                                                    22082457.774    90423900.050                          47.500  
G 7  24398369.478   128214259.742                          42.000                                                                                                                                    24398382.798    99907202.817                          38.250  
G28  20658799.564   108562710.860                          51.500                                                                    20658806.784    84594323.721                          38.500                                                                  
G13  20864929.342   109645976.283                          53.250                                                                    20864936.842    85438428.600                          42.500                                                                  
G19  22119090.774   116236633.645                          49.750                                                                    22119098.454    90574006.350                          37.250                                                                  
G17  20953826.862   110113125.946                          54.250                                                                                                                                    20953835.722    85802444.125                          49.500  
G 5  23874446.942   125461042.687                          45.000                                                                                                                                    23874458.382    97761843.656                          39.500  
G20  24594857.896   129246840.175                          39.250                                                                    24594869.336   100711819.600                          19.750                                                                  
G11  25472800.432   133860488.909                          37.500                                                                    25472811.512   104306874.810                          15.500                                                                  
G15  23194340.146   121887105.404                          48.500                                                                                                                                    23194349.666    94976970.178                          44.000  
R10  21304297.800   113563897.624                          50.250                                                                                                                                    21304304.720    88327454.489                          39.750  
R 2  23751685.984   126743542.869                          35.750                                                                                                                                    23751692.784    98578311.006                          36.000  
R11  20931112.164   111849527.671                          51.750                                                                                                                                    20931118.264    86994087.873                          47.000  
R20  21536775.680   115166858.797                          44.250                                                                                                                                    21536783.200    89574230.821                          44.750  
R19  24411182.940   130583366.767                          30.500                                                                                                                                    24411186.240   101564840.887                          30.750  
R 8  21338399.040   114266157.704                          50.000                                                                                                                                    21338405.380    88873677.133                          46.000  
R 1  20818545.264   111287070.793                          51.000                                                                                                                                    20818553.364    86556621.462                          42.000  
R21  21517769.980   115146300.148                          49.750                                                                                                                                    21517776.320    89558000.461                          44.000  
R12  23866978.464   127493112.337                          40.000                                                                                                1                                                                                                 
> 2017 11 25 12 49 18.0000000  0 19                     
G30  22082731.354   116045509.269                          47.000                                                                                                                                    22082742.794    90425068.400                          47.500  
G 7  24398813.378   128216587.292                          42.000                                                                                                                                    24398826.058    99909016.490                          38.000  
G28  20659208.024   108564858.835                          51.500                                                                    20659215.944    84595997.460                          38.750                                                                  
G13  20864654.502   109644532.147                          53.500                                                                    20864662.302    85437303.297                          42.500                                                                  
G19  22118579.254   116233942.108                          49.250                                                                    22118586.454    90571909.051                          37.500                                                                  
G17  20953444.922   110111117.340                          54.250                                                                                                                                    20953453.142    85800878.977                          50.000  
G 5  23874890.842   125463374.333                          45.000                                                                                                                                    23874901.462    97763660.515                          39.750  
G20  24595005.936   129247615.984                          39.000                                                                    24595017.676   100712424.106                          19.750                                                                  
G11  25472994.332   133861506.688                          37.500                                                                    25473004.992   104307667.864                          16.250                                                                  
G15  23193794.406   121884237.200                          48.000                                                                                                                                    23193803.926    94974735.220                          44.250  
R10  21304532.120   113565146.340                          50.000                                                                                                                                    21304539.280    88328425.712                          40.000  
R 2  23751103.844   126740433.115                          36.000                                                                                                                                    23751109.364    98575892.307                          36.250  
R11  20930963.464   111848732.013                          52.000                                                                                                                                    20930970.144    86993469.026                          46.500  
R20  21536756.000   115166752.589                          44.750                                                                                                                                    21536763.520    89574148.212                          45.000  
R19  24411746.620   130586384.249                          30.500                                                                                                                                    24411750.020   101567187.797                          30.750  
R 8  21339047.980   114269633.040                          50.000                                                                                                                                    21339054.080    88876380.168                          45.750  
R 1  20818610.304   111287417.491                          51.500                                                                                                                                    20818618.284    86556891.110                          42.000  
R21  21517144.140   115142950.106                          50.000                                                                                                                                    21517150.240    89555394.873                          44.250  
R12  23866598.504   127491084.996                          40.750                                                                                                1                                                                                                 
> 2017 11 25 12 49 19.0000000  0 19                     
G30  22083016.814   116047008.848                          47.250                                                                                                                                    22083028.494    90426236.902                          47.750  
G 7  24399255.958   128218915.000                          42.000                                                                                                                                    24399268.518    99910830.282                          38.250  
G28  20659617.344   108567007.133                          51.750                                                                    20659625.384    84597671.458                          38.500                                                                  
G13  20864379.742   109643088.539                          53.500                                                                    20864388.022    85436178.411                          42.500                                                                  
G19  22118066.834   116231250.944                          49.000                                                                    22118074.234    90569812.040                          37.500                                                                  
G17  20953062.642   110109109.367                          54.500                                                                                                                                    20953070.682    85799314.323                          49.750  
G 5  23875335.222   125465706.118                          45.000                                                                                                                                    23875345.502    97765477.480                          39.750  
G20  24595154.056   129248392.187                          39.750                                                                    24595164.776   100713028.927                          20.000                                                                  
G11  25473188.792   133862524.849                          38.250                                                                    25473198.992   104308461.201                          15.500                                                                  
G15  23193248.826   121881369.359                          48.000                                                                                                                                    23193258.746    94972500.537                          44.000  
R10  21304766.020   113566395.126                          50.250                                                                                                                                    21304774.220    88329396.984                          39.750  
R 2  23750524.204   126737323.946                          36.250                                                                                                                                    23750526.084    98573474.066                          36.000  
R11  20930814.884   111847936.438                          52.000                                                                                                                                    20930820.504    86992850.252                          46.250  
R20  21536736.820   115166647.273                          44.500                                                                                                                                    21536744.800    89574066.300                          45.250  
R19  24412311.840   130589402.352                          31.750                                                                                                                                    24412315.000   101569535.200                          31.250  
R 8  21339697.920   114273108.876                          50.250                                                                                                                                    21339703.680    88879083.597                          46.000  
R 1  20818675.424   111287765.076                          51.500                                                                                                                                    20818683.524    86557161.454                          42.250  
R21  21516518.460   115139600.548                          49.750                                                                                                                                    21516523.740    89552789.665                          44.000  
R12  23866219.624   127489057.727                          40.500                                                                                                1                                                                                                 
> 2017 11 25 12 49 20.0000000  0 19                     
G30  22083301.914   116048508.512                          47.500                                                                                                                                    22083313.374    90427405.469                          47.500  
G 7  24399698.958   128221242.660                          42.500                                                                                                                                    24399711.558    99912644.035                          38.500  
G28  20660025.944   108569155.664                          51.500                                                                    20660034.104    84599345.643                          39.000                                                                  
G13  20864104.982   109641645.367                          53.500                                                                    20864112.682    85435053.862                          42.500                                                                  
G19  22117554.794   116228560.026                          49.000                                                                    22117562.074    90567715.223                          37.250                                                                  
G17  20952680.362   110107101.880                          54.250                                                                                                                                    20952688.642    85797750.048                          50.000  
G 5  23875778.282   125468037.933                          45.250                                                                                                                                    23875790.202    97767294.472                          40.250  
G20  24595301.436   129249168.671                          39.000                                                                    24595313.116   100713633.978                          18.500                                                                  
G11  25473382.852   133863543.330                          37.250                                                                    25473392.812   104309254.844                          16.250                                                                  
G15  23192702.306   121878501.754                          48.000                                                                                                                                    23192712.866    94970266.044                          43.750  
R10  21305000.000   113567643.845                          50.000                                                                                                                                    21305007.980    88330368.208                          40.000  
R 2  23749937.244   126734215.198                          35.500                                                                                                                                    23749944.404    98571056.149                          36.000  
R11  20930665.424   111847140.914                          52.000                                                                                                                                    20930671.524    86992231.509                          46.250  
R20  21536717.340   115166542.680                          45.000                                                                                                                                    21536724.140    89573984.948                          45.250  
R19  24412876.320   130592420.928                          32.250                                                                                                                                    24412878.560   101571882.992                          31.750  
R 8  21340346.720   114276585.032                          49.750                                                                                                                                    21340352.820    88881787.271                          46.000  
R 1  20818740.744   111288113.429                          51.750                                                                                                                                    20818748.384    86557432.397                          42.250  
R21  21515891.800   115136251.316                          49.500                                                                                                                                    21515898.140    89550184.711                          44.250  
R12  23865840.044   127487030.333                          40.250                                                                                                1                                                                                                 
> 2017 11 25 12 49 21.0000000  0 19                     
G30  22083587.114   116050008.451                          47.250                                                                                                                                    22083599.154    90428574.253                          47.500  
G 7  24400141.358   128223570.514                          42.500                                                                                                                                    24400154.798    99914457.943                          38.000  
G28  20660435.164   108571304.572                          51.250                                                                    20660442.844    84601020.118                          39.000                                                                  
G13  20863830.982   109640202.807                          53.750                                                                    20863838.542    85433929.787                          43.000                                                                  
G19  22117042.734   116225869.567                          48.000                                                                    22117050.014    90565618.765                          38.000                                                                  
G17  20952298.802   110105095.053                          54.500                                                                                                                                    20952307.202    85796186.286                          49.750  
G 5  23876223.662   125470369.897                          45.750                                                                                                                                    23876233.682    97769111.585                          40.250  
G20  24595449.096   129249945.586                          38.750                                                                    24595460.716   100714239.372                          18.250                                                                  
G11  25473576.532   133864562.389                          38.000                                                                    25473586.392   104310048.940                          15.500                                                                  
G15  23192157.266   121875634.568                          48.000                                                                                                                                    23192167.306    94968031.868                          44.000  
R10  21305234.060   113568892.646                          50.000                                                                                                                                    21305241.920    88331339.496                          40.000  
R 2  23749358.564   126731107.080                          35.250                                                                                                                                    23749361.964    98568638.711                          36.500  
R11  20930516.864   111846345.593                          51.500                                                                                                                                    20930522.484    86991612.922                          46.500  
R20  21536698.620   115166438.990                          44.750                                                                                                                                    21536705.080    89573904.298                          45.500  
R19  24413440.760   130595439.999                          33.000                                                                                                                                    24413443.240   101574231.154                          31.000  
R 8  21340996.100   114280061.658                          50.250                                                                                                                                    21341001.020    88884491.312                          46.000  
R 1  20818806.184   111288462.684                          51.750                                                                                                                                    20818814.164    86557704.040                          42.250  
R21  21515265.480   115132902.566                          49.250                                                                                                                                    21515271.700    89547580.128                          44.250  
R12  23865459.304   127485003.050                          40.250                                                                                                1                                                                                                 
> 2017 11 25 12 49 22.0000000  0 19                     
G30  22083872.994   116051508.507                          47.500                                                                                                                                    22083884.194    90429743.125                          47.500  
G 7  24400584.818   128225898.429                          42.500                                                                                                                                    24400597.318    99916271.903                          38.250  
G28  20660843.964   108573453.721                          51.250                                                                    20660852.124    84602694.774                          39.250                                                                  
G13  20863556.062   109638760.689                          53.500                                                                    20863563.802    85432806.052                          42.750                                                                  
G19  22116530.814   116223179.430                          48.000                                                                    22116538.514    90563522.552                          38.000                                                                  
G17  20951917.162   110103088.773                          54.500                                                                                                                                    20951925.422    85794622.953                          49.750  
G 5  23876666.842   125472701.918                          45.500                                                                                                                                    23876676.982    97770928.749                          40.500  
G20  24595597.696   129250722.811                          38.750                                                                    24595608.316   100714844.998                          17.750                                                                  
G11  25473770.412   133865581.750                          38.250                                                                    25473780.572   104310843.229                          16.250                                                                  
G15  23191611.726   121872767.644                          47.750                                                                                                                                    23191621.526    94965797.897                          44.000  
R10  21305468.740   113570141.434                          50.500                                                                                                                                    21305476.720    88332310.786                          40.000  
R 2  23748773.044   126727999.474                          36.000                                                                                                                                    23748779.504    98566221.689                          36.750  
R11  20930368.724   111845550.277                          52.000                                                                                                                                    20930374.484    86990994.345                          46.500  
R20  21536678.360   115166336.100                          44.250                                                                                                                                    21536686.460    89573824.276                          45.750  
R19  24414004.920   130598459.544                          34.500                                                                                                                                    24414007.520   101576579.681                          30.500  
R 8  21341645.220   114283538.641                          50.500                                                                                                                                    21341650.960    88887195.632                          46.000  
R 1  20818871.264   111288812.739                          51.250                                                                                                                                    20818879.024    86557976.303                          42.000  
R21  21514640.820   115129554.161                          49.250                                                                                                                                    21514646.100    89544975.819                          44.750  
R12  23865079.524   127482975.749                          40.250                                                                                                1                                                                                                 
> 2017 11 25 12 49 23.0000000  0 19                     
G30  22084158.314   116053008.782                          48.000                                                                                                                                    22084169.874    90430912.169                          47.500  
G 7  24401027.438   128228226.463                          41.500                                                                                                                                    24401040.358    99918085.947                          38.250  
G28  20661252.524   108575603.186                          51.750                                                                    20661260.924    84604369.689                          39.000                                                                  
G13  20863281.742   109637319.127                          53.500                                                                    20863289.842    85431682.760                          42.500                                                                  
G19  22116019.234   116220489.653                          48.500                                                                    22116026.454    90561426.627                          37.750                                                                  
G17  20951535.062   110101083.115                          54.250                                                                                                                                    20951543.342    85793060.101                          49.500  
G 5  23877110.102   125475034.043                          45.000                                                                                                                                    23877120.442    97772745.985                          40.250  
G20  24595745.856   129251500.475                          39.000                                                                    24595756.016   100715450.968                          19.000                                                                  
G11  25473964.232   133866601.571                          37.750                                                                    25473974.332   104311637.868                          16.250                                                                  
G15  23191066.386   121869901.085                          48.000                                                                                                                                    23191075.586    94963564.217                          44.250  
R10  21305703.080   113571390.273                          50.500                                                                                                                                    21305711.420    88333282.101                          40.000  
R 2  23748192.144   126724892.335                          36.000                                                                                                                                    23748198.484    98563805.021                          36.000  
R11  20930219.244   111844755.063                          52.000                                                                                                                                    20930225.124    86990375.843                          46.500  
R20  21536659.180   115166234.127                          44.500                                                                                                                                    21536667.040    89573744.960                          45.750  
R19  24414569.660   130601479.677                          34.000                                                                                                                                    24414572.360   101578928.663                          31.250  
R 8  21342294.440   114287016.084                          50.750                                                                                                                                    21342300.440    88889900.306                          45.750  
R 1  20818937.264   111289163.687                          51.750                                                                                                                                    20818944.664    86558249.266                          42.000  
R21  21514015.540   115126206.179                          49.000                                                                                                                                    21514020.820    89542371.831                          44.500  
R12  23864701.164   127480948.462                          40.750                                                                                                1                                                                                                 
> 2017 11 25 12 49 24.0000000  0 19                     
G30  22084443.914   116054509.295                          47.250                                                                                                                                    22084455.654    90432081.400                          47.500  
G 7  24401470.798   128230554.667                          41.750                                                                                                                                    24401483.478    99919900.128                          38.500  
G28  20661661.804   108577753.031                          51.000                                                                    20661669.784    84606044.890                          39.250                                                                  
G13  20863007.922   109635878.168                          53.250                                                                    20863015.602    85430559.932                          42.500                                                                  
G19  22115507.634   116217800.273                          49.000                                                                    22115514.794    90559331.008                          37.000                                                                  
G17  20951153.682   110099078.077                          53.500                                                                                                                                    20951161.902    85791497.733                          49.500  
G 5  23877553.802   125477366.356                          45.000                                                                                                                                    23877564.662    97774563.376                          39.500  
G20  24595893.536   129252278.530                          38.750                                                                    24595904.396   100716057.243                          19.250                                                                  
G11  25474159.532   133867621.941                          38.500                                                                    25474168.912   104312433.001                          17.250                                                                  
G15  23190521.266   121867034.925                          47.000                                                                                                                                    23190530.366    94961330.854                          44.000  
R10  21305937.300   113572639.192                          49.750                                                                                                                                    21305944.700    88334253.486                          40.000  
R 2  23747608.964   126721785.818                          36.000                                                                                                                                    23747616.124    98561388.843                          36.250  
R11  20930070.344   111843960.001                          52.000                                                                                                                                    20930076.684    86989757.457                          46.250  
R20  21536641.880   115166133.028                          44.750                                                                                                                                    21536648.580    89573666.327                          45.500  
R19  24415132.460   130604500.348                          34.000                                                                                                                                    24415137.520   101581278.075                          31.250  
R 8  21342944.880   114290494.004                          51.000                                                                                                                                    21342949.100    88892605.352                          45.750  
R 1  20819002.844   111289515.540                          51.500                                                                                                                                    20819010.944    86558522.928                          42.250  
R21  21513389.300   115122858.665                          49.500                                                                                                                                    21513394.940    89539768.211                          44.500  
R12  23864320.684   127478921.265                          40.000                                                                                                1                                                                                                 
> 2017 11 25 12 49 25.0000000  0 19                     
G30  22084729.374   116056009.933                          47.750                                                                                                                                    22084740.934    90433250.722                          47.250  
G 7  24401913.538   128232882.905                          42.000                                                                                                                                    24401926.458    99921714.331                          38.250  
G28  20662071.284   108579903.105                          51.500                                                                    20662079.564    84607720.268                          39.250                                                                  
G13  20862733.742   109634437.639                          53.750                                                                    20862741.682    85429437.446                          42.750                                                                  
G19  22114995.474   116215111.200                          49.250                                                                    22115002.814    90557235.627                          37.500                                                                  
G17  20950772.142   110097073.573                          53.750                                                                                                                                    20950780.602    85789935.784                          49.750  
G 5  23877998.222   125479698.712                          44.500                                                                                                                                    23878008.182    97776380.796                          39.500  
G20  24596041.336   129253056.879                          38.500                                                                    24596052.756   100716663.755                          19.750                                                                  
G11  25474352.632   133868642.590                          38.000                                                                    25474363.552   104313228.328                          17.250                                                                  
G15  23189975.466   121864169.008                          46.750                                                                                                                                    23189984.566    94959097.670                          44.000  
R10  21306171.640   113573888.082                          50.000                                                                                                                                    21306179.260    88335224.837                          39.750  
R 2  23747027.844   126718679.754                          35.500                                                                                                                                    23747032.784    98558973.024                          36.000  
R11  20929921.624   111843164.982                          52.000                                                                                                                                    20929927.384    86989139.111                          46.000  
R20  21536623.360   115166032.761                          44.500                                                                                                                                    21536629.220    89573588.339                          45.500  
R19  24415699.120   130607521.516                          33.750                                                                                                                                    24415701.580   101583627.891                          32.250  
R 8  21343593.980   114293972.251                          50.500                                                                                                                                    21343598.800    88895310.653                          45.500  
R 1  20819068.944   111289868.153                          51.250                                                                                                                                    20819077.384    86558797.182                          42.250  
R21  21512763.760   115119511.499                          49.250                                                                                                                                    21512769.160    89537164.858                          44.250  
R12  23863941.664   127476893.980                          41.250                                                                                                1                                                                                                 
> 2017 11 25 12 49 26.0000000  0 19                     
G30  22085015.054   116057510.787                          47.500                                                                                                                                    22085026.734    90434420.217                          47.250  
G 7  24402357.038   128235211.267                          42.000                                                                                                                                    24402369.598    99923528.635                          38.000  
G28  20662480.084   108582053.518                          51.500                                                                    20662488.484    84609395.914                          39.750                                                                  
G13  20862459.502   109632997.680                          54.000                                                                    20862467.242    85428315.403                          42.500                                                                  
G19  22114483.974   116212422.522                          49.500                                                                    22114491.374    90555140.554                          37.750                                                                  
G17  20950391.142   110095069.704                          53.500                                                                                                                                    20950399.482    85788374.328                          49.000  
G 5  23878441.742   125482031.193                          45.000                                                                                                                                    23878452.002    97778198.306                          39.500  
G20  24596189.196   129253835.678                          38.000                                                                    24596200.996   100717270.601                          18.250                                                                  
G11  25474547.832   133869663.780                          37.250                                                                    25474557.632   104314024.087                          17.250                                                                  
G15  23189430.086   121861303.466                          47.250                                                                                                                                    23189439.546    94956864.778                          43.500  
R10  21306405.580   113575137.030                          50.250                                                                                                                                    21306413.080    88336196.243                          40.000  
R 2  23746446.124   126715574.109                          35.750                                                                                                                                    23746451.304    98556557.518                          36.000  
R11  20929773.044   111842370.088                          52.000                                                                                                                                    20929778.924    86988520.858                          46.500  
R20  21536603.700   115165933.386                          44.500                                                                                                                                    21536610.280    89573511.046                          45.250  
R19  24416263.800   130610543.227                          33.000                                                                                                                                    24416265.800   101585978.126                          32.000  
R 8  21344243.560   114297450.982                          51.000                                                                                                                                    21344248.600    88898016.333                          45.500  
R 1  20819135.304   111290221.677                          51.250                                                                                                                                    20819143.284    86559072.146                          42.000  
R21  21512138.440   115116164.803                          49.000                                                                                                                                    21512144.080    89534561.881                          44.500  
R12  23863562.024   127474866.786                          41.000                                                                                                1                                                                                                 
> 2017 11 25 12 49 27.0000000  0 19                     
G30  22085301.194   116059011.835                          47.000                                                                                                                                    22085312.454    90435589.865                          47.250  
G 7  24402800.218   128237539.752                          42.250                                                                                                                                    24402812.478    99925343.030                          38.250  
G28  20662889.424   108584204.228                          51.500                                                                    20662897.744    84611071.786                          39.500                                                                  
G13  20862185.642   109631558.242                          54.250                                                                    20862193.562    85427193.760                          42.500                                                                  
G19  22113972.294   116209734.182                          49.500                                                                    22113979.574    90553045.749                          38.000                                                                  
G17  20950009.862   110093066.406                          53.500                                                                                                                                    20950018.022    85786813.318                          49.250  
G 5  23878885.702   125484363.783                          44.500                                                                                                                                    23878895.622    97780015.906                          40.000  
G20  24596337.976   129254614.845                          38.500                                                                    24596349.536   100717877.738                          18.250                                                                  
G11  25474742.072   133870685.312                          37.500                                                                    25474752.092   104314820.078                          18.250                                                                  
G15  23188884.826   121858438.234                          47.500                                                                                                                                    23188894.166    94954632.132                          43.500  
R10  21306640.100   113576386.013                          50.000                                                                                                                                    21306647.500    88337167.670                          40.250  
R 2  23745864.944   126712469.091                          36.500                                                                                                                                    23745870.004    98554142.502                          36.500  
R11  20929623.964   111841575.275                          51.500                                                                                                                                    20929630.304    86987902.670                          46.500  
R20  21536585.300   115165834.846                          45.000                                                                                                                                    21536592.460    89573434.402                          45.000  
R19  24416827.760   130613565.526                          32.250                                                                                                                                    24416831.400   101588328.807                          32.500  
R 8  21344893.480   114300930.136                          50.500                                                                                                                                    21344899.000    88900722.346                          45.500  
R 1  20819200.904   111290576.038                          51.000                                                                                                                                    20819210.524    86559347.757                          42.000  
R21  21511513.240   115112818.512                          49.250                                                                                                                                    21511518.880    89531959.212                          44.750  
R12  23863182.864   127472839.565                          41.000                                                                                                1                                                                                                 
> 2017 11 25 12 49 28.0000000  0 19                     
G30  22085586.074   116060513.120                          46.750                                                                                                                                    22085598.214    90436759.699                          47.500  
G 7  24403243.558   128239868.392                          42.000                                                                                                                                    24403255.998    99927157.545                          38.500  
G28  20663299.164   108586355.325                          51.500                                                                    20663307.324    84612747.969                          40.250                                                                  
G13  20861912.162   109630119.390                          53.750                                                                    20861919.022    85426072.579                          42.750                                                                  
G19  22113460.894   116207046.274                          49.000                                                                    22113468.054    90550951.272                          37.500                                                                  
G17  20949628.482   110091063.778                          53.500                                                                                                                                    20949637.162    85785252.831                          49.000  
G 5  23879328.202   125486696.519                          44.000                                                                                                                                    23879339.002    97781833.612                          40.250  
G20  24596486.716   129255394.422                          38.250                                                                    24596497.276   100718485.194                          18.500                                                                  
G11  25474936.352   133871707.408                          37.500                                                                    25474946.252   104315616.488                          16.750                                                                  
G15  23188339.946   121855573.430                          47.500                                                                                                                                    23188349.506    94952399.821                          43.750  
R10  21306874.300   113577635.092                          50.000                                                                                                                                    21306881.940    88338139.171                          40.000  
R 2  23745280.904   126709364.660                          35.500                                                                                                                                    23745287.604    98551727.953                          36.250  
R11  20929475.024   111840780.657                          51.750                                                                                                                                    20929481.944    86987284.640                          46.500  
R20  21536566.240   115165737.210                          44.750                                                                                                                                    21536573.640    89573358.464                          45.500  
R19  24417393.660   130616588.366                          32.750                                                                                                                                    24417396.260   101590679.901                          31.000  
R 8  21345542.800   114304409.778                          50.500                                                                                                                                    21345547.980    88903428.730                          45.500  
R 1  20819267.864   111290931.337                          51.250                                                                                                                                    20819275.364    86559624.105                          42.250  
R21  21510887.460   115109472.729                          49.500                                                                                                                                    21510892.740    89529356.940                          44.250  
R12  23862803.044   127470812.421                          40.500                                                                                                1                                                                                                 
> 2017 11 25 12 49 29.0000000  0 19                     
G30  22085872.774   116062014.581                          47.500                                                                                                                                    22085883.574    90437929.660                          47.500  
G 7  24403686.638   128242197.085                          42.000                                                                                                                                    24403698.778    99928972.103                          38.250  
G28  20663708.844   108588506.684                          51.500                                                                    20663716.704    84614424.347                          40.000                                                                  
G13  20861638.382   109628681.034                          53.500                                                                    20861646.022    85424951.778                          42.500                                                                  
G19  22112949.354   116204358.657                          48.500                                                                    22112956.574    90548857.029                          37.500                                                                  
G17  20949247.902   110089061.683                          53.750                                                                                                                                    20949256.542    85783692.751                          49.250  
G 5  23879772.942   125489029.348                          44.250                                                                                                                                    23879783.742    97783651.393                          40.500  
G20  24596634.976   129256174.316                          38.750                                                                    24596645.716   100719092.910                          18.500                                                                  
G11  25475130.192   133872729.828                          37.000                                                                    25475141.172   104316413.146                          17.750                                                                  
G15  23187794.506   121852708.937                          46.250                                                                                                                                    23187804.426    94950167.750                          44.500  
R10  21307109.060   113578884.168                          50.000                                                                                                                                    21307116.460    88339110.679                          40.000  
R 2  23744698.784   126706260.803                          34.000                                                                                                                                    23744705.944    98549313.844                          36.250  
R11  20929326.444   111839986.041                          51.500                                                                                                                                    20929332.784    86986666.599                          46.250  
R20  21536548.380   115165640.402                          44.500                                                                                                                                    21536556.360    89573283.178                          45.250  
R19  24417958.240   130619611.725                          32.500                                                                                                                                    24417961.280   101593031.393                          32.000  
R 8  21346192.760   114307889.775                          50.750                                                                                                                                    21346198.520    88906135.388                          46.000  
R 1  20819334.464   111291287.427                          51.250                                                                                                                                    20819342.684    86559901.064                          41.750  
R21  21510262.380   115106127.308                          49.000                                                                                                                                    21510268.260    89526754.948                          44.500  
R12  23862422.944   127468785.233                          40.500                                                                                                1                                                                                                 
> 2017 11 25 12 49 30.0000000  0 19                     
G30  22086157.594   116063516.192                          47.000                                                                                                                                    22086169.634    90439099.742                          47.500  
G 7  24404130.038   128244525.909                          42.000                                                                                                                                    24404142.418    99930786.769                          38.250  
G28  20664117.884   108590658.347                          51.250                                                                    20664126.324    84616100.970                          39.750                                                                  
G13  20861364.602   109627243.196                          53.500                                                                    20861372.462    85423831.387                          42.500                                                                  
G19  22112438.034   116201671.392                          47.750                                                                    22112445.374    90546763.059                          37.750                                                                  
G17  20948867.282   110087060.181                          53.750                                                                                                                                    20948875.202    85782133.144                          49.000  
G 5  23880217.082   125491362.242                          44.250                                                                                                                                    23880228.002    97785469.230                          39.750  
G20  24596783.636   129256954.592                          39.000                                                                    24596794.556   100719700.909                          18.250                                                                  
G11  25475324.692   133873752.710                          37.000                                                                    25475335.532   104317210.219                          16.750                                                                  
G15  23187249.426   121849844.735                          46.500                                                                                                                                    23187259.706    94947935.905                          44.500  
R10  21307344.220   113580133.254                          50.750                                                                                                                                    21307350.920    88340082.189                          40.000  
R 2  23744119.604   126703157.402                          35.000                                                                                                                                    23744125.124    98546900.083                          36.000  
R11  20929178.004   111839191.527                          52.250                                                                                                                                    20929183.864    86986048.644                          46.500  
R20  21536530.800   115165544.442                          44.500                                                                                                                                    21536537.960    89573208.538                          45.250  
R19  24418522.760   130622635.554                          31.500                                                                                                                                    24418526.880   101595383.252                          31.500  
R 8  21346842.640   114311370.190                          51.000                                                                                                                                    21346848.040    88908842.376                          45.500  
R 1  20819401.524   111291644.380                          51.000                                                                                                                                    20819408.924    86560178.694                          42.000  
R21  21509637.240   115102782.301                          49.000                                                                                                                                    21509643.820    89524153.280                          44.500  
R12  23862043.564   127466758.084                          40.500                                                                                                1                                                                                                 
> 2017 11 25 12 49 31.0000000  0 19                     
G30  22086443.874   116065018.018                          47.000                                                                                                                                    22086455.314    90440269.998                          47.500  
G 7  24404573.598   128246854.830                          41.500                                                                                                                                    24404585.218    99932601.507                          38.000  
G28  20664527.344   108592810.313                          51.500                                                                    20664535.564    84617777.828                          39.250                                                                  
G13  20861091.142   109625805.862                          53.500                                                                    20861098.722    85422711.380                          42.250                                                                  
G19  22111926.794   116198984.490                          47.750                                                                    22111934.534    90544669.375                          37.750                                                                  
G17  20948486.482   110085059.264                          53.750                                                                                                                                    20948495.342    85780573.985                          49.250  
G 5  23880660.562   125493695.270                          44.500                                                                                                                                    23880671.582    97787287.176                          40.250  
G20  24596932.736   129257735.275                          39.250                                                                    24596942.896   100720309.227                          19.000                                                                  
G11  25475519.972   133874776.068                          36.750                                                                    25475530.692   104318007.641                          16.250                                                                  
G15  23186704.406   121846980.882                          47.000                                                                                                                                    23186714.266    94945704.327                          44.500  
R10  21307578.380   113581382.389                          50.500                                                                                                                                    21307584.380    88341053.738                          40.250  
R 2  23743536.164   126700054.562                          34.250                                                                                                                                    23743542.864    98544486.763                          35.750  
R11  20929029.024   111838397.111                          52.000                                                                                                                                    20929035.144    86985430.771                          46.500  
R20  21536512.980   115165449.319                          44.500                                                                                                                                    21536519.780    89573134.556                          45.500  
R19  24419086.980   130625659.892                          31.500                                                                                                                                    24419092.380   101597735.527                          32.250  
R 8  21347493.060   114314851.010                          51.250                                                                                                                                    21347498.580    88911549.671                          46.000  
R 1  20819468.344   111292002.186                          51.500                                                                                                                                    20819476.664    86560456.984                          42.000  
R21  21509013.180   115099437.711                          49.000                                                                                                                                    21509018.100    89521551.935                          44.500  
R12  23861665.104   127464730.962                          40.500                                                                                                1                                                                                                 
> 2017 11 25 12 49 32.0000000  0 19                     
G30  22086729.654   116066520.036                          46.750                                                                                                                                    22086741.514    90441440.402                          47.750  
G 7  24405016.178   128249183.862                          41.750                                                                                                                                    24405028.378    99934416.337                          37.750  
G28  20664937.044   108594962.623                          51.750                                                                    20664945.144    84619454.951                          40.000                                                                  
G13  20860817.542   109624369.096                          53.500                                                                    20860824.982    85421591.822                          42.500                                                                  
G19  22111416.094   116196297.974                          48.000                                                                    22111422.714    90542575.982                          37.500                                                                  
G17  20948105.482   110083058.982                          53.750                                                                                                                                    20948114.122    85779015.321                          49.000  
G 5  23881105.382   125496028.417                          44.500                                                                                                                                    23881115.822    97789105.210                          40.250  
G20  24597080.396   129258516.338                          38.500                                                                    24597091.376   100720917.844                          18.250                                                                  
G11  25475713.272   133875799.788                          35.250                                                                    25475725.472   104318805.345                          16.750                                                                  
G15  23186159.466   121844117.393                          47.500                                                                                                                                    23186169.506    94943473.038                          43.500  
R10  21307812.520   113582631.577                          50.750                                                                                                                                    21307818.860    88342025.321                          40.000  
R 2  23742954.904   126696952.273                          34.000                                                                                                                                    23742960.184    98542073.870                          36.000  
R11  20928880.584   111837602.864                          52.000                                                                                                                                    20928886.704    86984813.015                          46.250  
R20  21536495.080   115165355.094                          44.250                                                                                                                                    21536502.820    89573061.268                          45.500  
R19  24419651.600   130628684.834                          32.000                                                                                                                                    24419658.300   101600088.273                          32.750  
R 8  21348143.400   114318332.293                          51.500                                                                                                                                    21348148.680    88914257.336                          46.250  
R 1  20819535.184   111292360.874                          51.250                                                                                                                                    20819543.164    86560735.959                          42.000  
R21  21508387.540   115096093.585                          49.000                                                                                                                                    21508393.520    89518950.951                          44.750  
R12  23861285.304   127462703.888                          40.000                                                                                                1                                                                                                 
> 2017 11 25 12 49 33.0000000  0 19                     
G30  22087014.894   116068022.279                          47.000                                                                                                                                    22087026.854    90442610.978                          48.000  
G 7  24405458.798   128251513.054                          41.500                                                                                                                                    24405471.578    99936231.289                          37.500  
G28  20665346.644   108597115.265                          51.500                                                                    20665355.084    84621132.324                          39.500                                                                  
G13  20860544.462   109622932.908                          53.500                                                                    20860552.682    85420472.713                          42.500                                                                  
G19  22110903.954   116193611.828                          48.250                                                                    22110911.634    90540482.883                          37.500                                                                  
G17  20947725.082   110081059.317                          54.000                                                                                                                                    20947733.702    85777457.141                          49.750  
G 5  23881549.542   125498361.700                          45.000                                                                                                                                    23881560.282    97790923.349                          40.000  
G20  24597229.736   129259297.781                          39.000                                                                    24597240.296   100721526.739                          19.000                                                                  
G11  25475909.152   133876823.958                          35.500                                                                    25475920.692   104319603.377                          17.750                                                                  
G15  23185614.546   121841254.268                          47.250                                                                                                                                    23185624.586    94941242.034                          43.750  
R10  21308047.280   113583880.835                          50.750                                                                                                                                    21308054.200    88342996.967                          39.750  
R 2  23742373.584   126693850.441                          34.500                                                                                                                                    23742380.164    98539661.330                          36.250  
R11  20928732.004   111836808.738                          52.000                                                                                                                                    20928738.684    86984195.369                          46.000  
R20  21536477.480   115165261.749                          44.500                                                                                                                                    21536485.120    89572988.664                          45.500  
R19  24420216.360   130631710.297                          31.500                                                                                                                                    24420222.820   101602441.432                          33.500  
R 8  21348793.320   114321814.047                          51.250                                                                                                                                    21348798.140    88916965.362                          46.000  
R 1  20819602.464   111292720.457                          51.250                                                                                                                                    20819610.904    86561015.635                          42.000  
R21  21507762.740   115092749.870                          48.500                                                                                                                                    21507767.560    89516350.282                          44.500  
R12  23860904.564   127460676.872                          40.250                                                                                                1                                                                                                 
> 2017 11 25 12 49 34.0000000  0 19                     
G30  22087301.134   116069524.665                          47.250                                                                                                                                    22087312.994    90443781.666                          47.750  
G 7  24405902.838   128253842.304                          41.750                                                                                                                                    24405914.858    99938046.281                          38.250  
G28  20665756.504   108599268.176                          51.750                                                                    20665764.664    84622809.917                          39.500                                                                  
G13  20860271.162   109621497.182                          53.500                                                                    20860279.082    85419353.968                          42.500                                                                  
G19  22110393.234   116190926.006                          48.500                                                                    22110400.154    90538390.037                          37.500                                                                  
G17  20947344.582   110079060.202                          54.000                                                                                                                                    20947353.442    85775899.389                          49.500  
G 5  23881994.502   125500695.048                          45.250                                                                                                                                    23882004.242    97792741.541                          40.250  
G20  24597377.896   129260079.591                          39.000                                                                    24597388.816   100722135.954                          18.500                                                                  
G11  25476102.812   133877848.590                          35.250                                                                    25476115.312   104320401.754                          16.750                                                                  
G15  23185070.026   121838391.440                          47.750                                                                                                                                    23185079.706    94939011.257                          44.000  
R10  21308281.800   113585130.081                          50.750                                                                                                                                    21308288.020    88343968.608                          40.000  
R 2  23741792.084   126690749.193                          35.000                                                                                                                                    23741798.544    98537249.248                          36.000  
R11  20928584.144   111836014.670                          51.750                                                                                                                                    20928590.484    86983577.759                          46.500  
R20  21536460.960   115165169.185                          44.500                                                                                                                                    21536467.760    89572916.667                          45.500  
R19  24420782.720   130634736.288                          33.750                                                                                                                                    24420788.820   101604794.986                          32.750  
R 8  21349443.340   114325296.151                          51.000                                                                                                                                    21349448.640    88919673.672                          45.750  
R 1  20819669.604   111293080.829                          51.250                                                                                                                                    20819677.944    86561295.922                          42.000  
R21  21507138.280   115089406.535                          48.750                                                                                                                                    21507143.200    89513749.915                          44.500  
R12  23860526.824   127458649.817                          39.750                                                                                                1                                                                                                 
> 2017 11 25 12 49 35.0000000  0 19                     
G30  22087586.494   116071027.306                          46.500                                                                                                                                    22087598.574    90444952.557                          47.750  
G 7  24406345.818   128256171.690                          42.000                                                                                                                                    24406358.318    99939861.383                          38.000  
G28  20666165.924   108601421.425                          51.500                                                                    20666174.664    84624487.777                          39.750                                                                  
G13  20859997.842   109620062.040                          53.000                                                                    20860005.402    85418235.677                          42.750                                                                  
G19  22109882.194   116188240.572                          48.750                                                                    22109889.234    90536297.493                          37.250                                                                  
G17  20946964.342   110077061.722                          54.000                                                                                                                                    20946972.662    85774342.132                          49.750  
G 5  23882438.102   125503028.552                          45.000                                                                                                                                    23882448.202    97794559.841                          40.250  
G20  24597526.676   129260861.779                          38.500                                                                    24597538.356   100722745.468                          18.500                                                                  
G11  25476298.532   133878873.724                          36.000                                                                    25476310.372   104321200.566                          16.250                                                                  
G15  23184525.066   121835529.007                          48.000                                                                                                                                    23184535.646    94936780.786                          44.000  
R10  21308515.780   113586379.437                          51.250                                                                                                                                    21308522.240    88344940.321                          40.500  
R 2  23741210.404   126687648.503                          34.500                                                                                                                                    23741218.384    98534837.602                          35.500  
R11  20928434.124   111835220.735                          52.000                                                                                                                                    20928441.044    86982960.252                          46.750  
R20  21536442.900   115165077.543                          44.000                                                                                                                                    21536449.940    89572845.386                          45.500  
R19  24421348.920   130637762.776                          32.250                                                                                                                                    24421354.320   101607148.925                          33.000  
R 8  21350094.520   114328778.709                          51.000                                                                                                                                    21350099.100    88922382.332                          46.000  
R 1  20819737.644   111293442.126                          51.500                                                                                                                                    20819745.744    86561576.928                          42.000  
R21  21506513.040   115086063.685                          48.500                                                                                                                                    21506518.560    89511149.925                          44.750  
R12  23860145.964   127456622.837                          38.500                                                                                                1                                                                                                 
> 2017 11 25 12 49 36.0000000  0 19                     
G30  22087872.654   116072530.088                          46.500                                                                                                                                    22087884.734    90446123.550                          48.000  
G 7  24406789.098   128258501.177                          42.000                                                                                                                                    24406801.358    99941676.557                          38.250  
G28  20666575.784   108603574.985                          51.250                                                                    20666584.344    84626165.870                          40.000                                                                  
G13  20859725.082   109618627.389                          52.750                                                                    20859732.362    85417117.765                          42.500                                                                  
G19  22109371.734   116185555.499                          49.000                                                                    22109378.474    90534205.224                          37.500                                                                  
G17  20946583.942   110075063.803                          54.250                                                                                                                                    20946592.162    85772785.314                          49.500  
G 5  23882882.022   125505362.137                          45.500                                                                                                                                    23882892.002    97796378.217                          39.750  
G20  24597675.936   129261644.377                          39.250                                                                    24597686.976   100723355.281                          19.000                                                                  
G11  25476495.172   133879899.218                          36.000                                                                    25476505.792   104321999.675                          16.750                                                                  
G15  23183980.266   121832666.883                          48.250                                                                                                                                    23183990.306    94934550.557                          43.750  
R10  21308749.360   113587628.799                          51.000                                                                                                                                    21308757.000    88345912.046                          40.250  
R 2  23740628.964   126684548.258                          35.000                                                                                                                                    23740637.404    98532426.305                          35.250  
R11  20928285.844   111834426.862                          51.750                                                                                                                                    20928292.524    86982342.802                          46.750  
R20  21536426.080   115164986.765                          44.250                                                                                                                                    21536433.120    89572774.783                          45.500  
R19  24421914.660   130640789.858                          33.500                                                                                                                                    24421920.780   101609503.324                          32.500  
R 8  21350744.400   114332261.657                          51.000                                                                                                                                    21350749.800    88925091.286                          46.000  
R 1  20819804.384   111293804.270                          50.750                                                                                                                                    20819812.704    86561858.598                          41.750  
R21  21505887.800   115082721.244                          48.250                                                                                                                                    21505893.680    89508550.252                          44.500  
R12  23859767.324   127454595.864                          38.750                                                                                                1                                                                                                 
> 2017 11 25 12 49 37.0000000  0 19                     
G30  22088158.374   116074033.076                          46.500                                                                                                                                    22088171.294    90447294.711                          48.250  
G 7  24407232.058   128260830.760                          42.000                                                                                                                                    24407244.678    99943491.805                          38.500  
G28  20666985.864   108605728.812                          51.000                                                                    20666994.664    84627844.183                          40.000                                                                  
G13  20859452.122   109617193.274                          52.750                                                                    20859459.862    85416000.277                          42.500                                                                  
G19  22108860.894   116182870.746                          49.250                                                                    22108867.714    90532113.211                          37.500                                                                  
G17  20946204.222   110073066.482                          54.750                                                                                                                                    20946212.622    85771228.958                          49.500  
G 5  23883326.002   125507695.828                          45.000                                                                                                                                    23883336.202    97798196.679                          39.500  
G20  24597824.416   129262427.301                          39.000                                                                    24597836.276   100723965.348                          19.500                                                                  
G11  25476690.292   133880925.121                          35.750                                                                    25476700.312   104322799.097                          15.500                                                                  
G15  23183435.806   121829805.093                          48.250                                                                                                                                    23183446.206    94932320.589                          44.250  
R10  21308983.940   113588878.186                          51.000                                                                                                                                    21308991.220    88346883.792                          40.500  
R 2  23740048.984   126681448.635                          33.250                                                                                                                                    23740057.204    98530015.479                          35.000  
R11  20928137.144   111833633.064                          51.500                                                                                                                                    20928143.264    86981725.403                          47.000  
R20  21536409.720   115164896.780                          44.500                                                                                                                                    21536416.640    89572704.795                          45.000  
R19  24422481.540   130643817.472                          32.750                                                                                                                                    24422486.820   101611858.131                          31.750  
R 8  21351394.720   114335745.044                          51.000                                                                                                                                    21351399.880    88927800.581                          46.000  
R 1  20819872.964   111294167.231                          51.000                                                                                                                                    20819881.064    86562140.897                          42.000  
R21  21505263.380   115079379.239                          48.500                                                                                                                                    21505270.060    89505950.919                          44.000  
R12  23859386.864   127452568.926                          39.000                                                                                                1                                                                                                 
> 2017 11 25 12 49 38.0000000  0 19                     
G30  22088444.734   116075536.229                          46.500                                                                                                                                    22088456.634    90448465.997                          47.500  
G 7  24407676.118   128263160.433                          42.750                                                                                                                                    24407688.258    99945307.130                          39.000  
G28  20667395.904   108607882.969                          51.250                                                                    20667403.824    84629522.741                          40.000                                                                  
G13  20859179.282   109615759.664                          53.000                                                                    20859187.322    85414883.176                          42.000                                                                  
G19  22108349.894   116180186.350                          49.500                                                                    22108357.054    90530021.480                          37.500                                                                  
G17  20945824.142   110071069.731                          54.500                                                                                                                                    20945831.842    85769673.050                          49.750  
G 5  23883770.062   125510029.615                          44.750                                                                                                                                    23883780.462    97800015.221                          40.000  
G20  24597974.136   129263210.627                          39.250                                                                    24597984.976   100724575.742                          19.500                                                                  
G11  25476884.332   133881951.435                          36.250                                                                    25476895.752   104323598.855                          16.250                                                                  
G15  23182891.726   121826943.613                          48.500                                                                                                                                    23182901.006    94930090.869                          43.750  
R10  21309219.140   113590127.596                          50.500                                                                                                                                    21309225.700    88347855.549                          40.250  
R 2  23739468.884   126678349.573                          34.750                                                                                                                                    23739475.444    98527605.090                          34.750  
R11  20927989.424   111832839.375                          51.500                                                                                                                                    20927995.184    86981108.088                          46.500  
R20  21536392.100   115164807.663                          44.250                                                                                                                                    21536400.440    89572635.481                          45.250  
R19  24423044.760   130646845.578                          30.500                                                                                                                                    24423052.860   101614213.342                          31.500  
R 8  21352045.180   114339228.868                          51.000                                                                                                                                    21352050.580    88930510.221                          45.500  
R 1  20819940.564   111294531.051                          51.250                                                                                                                                    20819948.664    86562423.868                          42.000  
R21  21504639.700   115076037.609                          48.500                                                                                                                                    21504645.580    89503351.874                          44.500  
R12  23859008.344   127450541.943                          39.000                                                                                                1                                                                                                 
> 2017 11 25 12 49 39.0000000  0 19                     
G30  22088730.614   116077039.610                          46.750                                                                                                                                    22088742.754    90449637.461                          47.750  
G 7  24408120.078   128265490.266                          41.500                                                                                                                                    24408132.098    99947122.582                          39.000  
G28  20667805.204   108610037.460                          51.250                                                                    20667813.304    84631201.571                          39.250                                                                  
G13  20858906.682   109614326.616                          53.250                                                                    20858914.662    85413766.521                          42.000                                                                  
G19  22107838.794   116177502.338                          49.500                                                                    22107846.114    90527930.046                          37.500                                                                  
G17  20945444.302   110069073.622                          54.750                                                                                                                                    20945452.882    85768117.645                          49.750  
G 5  23884213.502   125512363.521                          44.750                                                                                                                                    23884224.362    97801833.840                          40.500  
G20  24598122.936   129263994.327                          39.250                                                                    24598134.136   100725186.412                          18.250                                                                  
G11  25477080.152   133882978.256                          36.500                                                                    25477091.532   104324398.964                          16.250                                                                  
G15  23182346.946   121824082.515                          48.250                                                                                                                                    23182357.206    94927861.447                          44.250  
R10  21309453.440   113591377.066                          50.500                                                                                                                                    21309460.000    88348827.361                          40.500  
R 2  23738888.584   126675251.030                          34.750                                                                                                                                    23738894.324    98525195.105                          34.250  
R11  20927841.524   111832045.834                          51.750                                                                                                                                    20927846.444    86980490.887                          47.000  
R20  21536375.540   115164719.416                          44.250                                                                                                                                    21536382.940    89572566.841                          45.250  
R19  24423609.960   130649874.200                          31.000                                                                                                                                    24423619.120   101616568.962                          30.500  
R 8  21352696.580   114342713.144                          51.000                                                                                                                                    21352700.920    88933220.212                          45.750  
R 1  20820009.064   111294895.750                          51.250                                                                                                                                    20820017.504    86562707.523                          41.750  
R21  21504014.960   115072696.417                          49.000                                                                                                                                    21504020.720    89500753.167                          44.250  
R12  23858628.344   127448515.000                          39.000                                                                                                1                                                                                                 
> 2017 11 25 12 49 40.0000000  0 19                     
G30  22089016.874   116078543.100                          46.500                                                                                                                                    22089028.974    90450809.011                          47.500  
G 7  24408562.678   128267820.112                          41.750                                                                                                                                    24408575.758    99948938.041                          38.750  
G28  20668215.564   108612192.166                          51.500                                                                    20668224.004    84632880.561                          39.750                                                                  
G13  20858633.762   109612894.027                          53.500                                                                    20858641.282    85412650.214                          42.000                                                                  
G19  22107328.434   116174818.600                          49.000                                                                    22107335.414    90525838.819                          37.500                                                                  
G17  20945064.542   110067078.038                          54.750                                                                                                                                    20945073.222    85766562.646                          50.000  
G 5  23884657.442   125514697.437                          44.500                                                                                                                                    23884668.942    97803652.477                          40.500  
G20  24598272.256   129264778.323                          39.500                                                                    24598283.156   100725797.306                          18.500                                                                  
G11  25477275.852   133884005.366                          36.750                                                                    25477286.592   104325199.312                          16.250                                                                  
G15  23181802.406   121821221.681                          48.000                                                                                                                                    23181812.326    94925632.227                          44.000  
R10  21309687.400   113592626.484                          50.500                                                                                                                                    21309694.220    88349799.124                          40.000  
R 2  23738307.924   126672152.907                          33.500                                                                                                                                    23738313.204    98522785.453                          34.500  
R11  20927692.224   111831252.273                          51.750                                                                                                                                    20927698.564    86979873.675                          46.750  
R20  21536359.340   115164631.985                          44.250                                                                                                                                    21536367.080    89572498.839                          45.000  
R19  24424179.000   130652903.360                          31.500                                                                                                                                    24424184.160   101618924.973                          30.750  
R 8  21353346.700   114346197.736                          51.000                                                                                                                                    21353352.320    88935930.450                          45.500  
R 1  20820077.344   111295261.224                          51.250                                                                                                                                    20820085.804    86562991.783                          41.750  
R21  21503390.680   115069355.557                          48.750                                                                                                                                    21503396.320    89498154.723                          44.500  
R12  23858248.944   127446488.030                          39.000                                                                                                1                                                                                                 
> 2017 11 25 12 49 41.0000000  0 19                     
G30  22089303.054   116080046.925                          46.750                                                                                                                                    22089314.834    90451980.819                          47.500  
G 7  24409007.038   128270150.205                          41.750                                                                                                                                    24409019.478    99950753.686                          39.750  
G28  20668625.564   108614347.338                          51.500                                                                    20668633.904    84634559.915                          39.500                                                                  
G13  20858361.462   109611462.098                          53.250                                                                    20858369.382    85411534.417                          42.000                                                                  
G19  22106817.494   116172135.389                          48.500                                                                    22106824.654    90523748.010                          37.750                                                                  
G17  20944685.002   110065083.213                          54.500                                                                                                                                    20944693.342    85765008.233                          50.000  
G 5  23885101.562   125517031.653                          43.750                                                                                                                                    23885113.242    97805471.346                          40.250  
G20  24598421.816   129265562.881                          39.000                                                                    24598432.736   100726408.632                          17.750                                                                  
G11  25477470.932   133885033.151                          36.750                                                                    25477481.792   104326000.185                          16.750                                                                  
G15  23181258.026   121818361.321                          48.250                                                                                                                                    23181268.486    94923403.370                          44.000  
R10  21309921.920   113593876.087                          50.500                                                                                                                                    21309928.620    88350771.042                          40.000  
R 2  23737724.824   126669055.368                          34.500                                                                                                                                    23737732.924    98520376.271                          35.500  
R11  20927543.964   111830458.980                          52.000                                                                                                                                    20927550.304    86979256.671                          46.750  
R20  21536343.280   115164545.523                          44.250                                                                                                                                    21536350.200    89572431.586                          45.000  
R19  24424746.020   130655933.119                          32.000                                                                                                                                    24424751.420   101621281.438                          31.750  
R 8  21353997.740   114349682.888                          50.750                                                                                                                                    21354003.260    88938641.124                          45.500  
R 1  20820145.784   111295627.693                          51.000                                                                                                                                    20820153.644    86563276.812                          41.750  
R21  21502767.080   115066015.291                          48.750                                                                                                                                    21502772.840    89495556.740                          44.750  
R12  23857870.644   127444461.237                          39.000                                                                                                1                                                                                                 
> 2017 11 25 12 49 42.0000000  0 19                     
G30  22089589.374   116081550.874                          47.000                                                                                                                                    22089601.234    90453152.727                          47.500  
G 7  24409449.838   128272480.336                          42.250                                                                                                                                    24409462.098    99952569.367                          39.000  
G28  20669035.784   108616502.735                          51.500                                                                    20669044.364    84636239.438                          39.750                                                                  
G13  20858089.002   109610030.635                          53.000                                                                    20858097.042    85410418.997                          42.250                                                                  
G19  22106307.234   116169452.446                          48.500                                                                    22106313.934    90521657.405                          37.750                                                                  
G17  20944305.762   110063088.888                          55.000                                                                                                                                    20944314.382    85763454.222                          50.000  
G 5  23885545.302   125519365.866                          43.500                                                                                                                                    23885557.282    97807290.211                          40.750  
G20  24598570.976   129266347.715                          39.500                                                                    24598581.356   100727020.185                          18.500                                                                  
G11  25477667.192   133886061.209                          36.250                                                                    25477678.392   104326801.247                          17.250                                                                  
G15  23180714.326   121815501.226                          48.500                                                                                                                                    23180723.886    94921174.725                          44.000  
R10  21310156.480   113595125.638                          50.250                                                                                                                                    21310162.600    88351742.911                          40.000  
R 2  23737144.224   126665958.408                          33.750                                                                                                                                    23737151.744    98517967.549                          35.000  
R11  20927395.844   111829665.716                          52.500                                                                                                                                    20927401.604    86978639.693                          47.000  
R20  21536327.000   115164459.891                          44.500                                                                                                                                    21536334.880    89572364.984                          45.000  
R19  24425312.780   130658963.338                          31.750                                                                                                                                    24425317.600   101623638.291                          31.750  
R 8  21354649.180   114353168.382                          51.000                                                                                                                                    21354653.760    88941352.060                          45.500  
R 1  20820214.444   111295994.950                          51.250                                                                                                                                    20820222.304    86563562.458                          42.250  
R21  21502142.740   115062675.398                          49.000                                                                                                                                    21502148.600    89492959.049                          44.500  
R12  23857490.824   127442434.371                          39.000                                                                                                1                                                                                                 
> 2017 11 25 12 49 43.0000000  0 19                     
G30  22089875.674   116083055.034                          46.750                                                                                                                                    22089887.994    90454324.791                          47.250  
G 7  24409893.398   128274810.639                          42.500                                                                                                                                    24409905.558    99954385.182                          40.000  
G28  20669446.324   108618658.482                          51.250                                                                    20669454.404    84637919.244                          40.000                                                                  
G13  20857816.662   109608599.720                          53.250                                                                    20857824.302    85409303.995                          42.500                                                                  
G19  22105796.594   116166769.901                          49.250                                                                    22105803.874    90519567.108                          37.250                                                                  
G17  20943926.342   110061095.209                          55.000                                                                                                                                    20943934.382    85761900.708                          50.000  
G 5  23885990.182   125521700.219                          44.250                                                                                                                                    23886001.382    97809109.173                          40.500  
G20  24598720.756   129267132.936                          39.000                                                                    24598731.136   100727632.066                          18.500                                                                  
G11  25477862.332   133887089.717                          37.000                                                                    25477873.352   104327602.676                          16.750                                                                  
G15  23180170.286   121812641.496                          48.750                                                                                                                                    23180179.726    94918946.366                          44.500  
R10  21310390.240   113596375.260                          50.000                                                                                                                                    21310397.180    88352714.835                          40.250  
R 2  23736565.104   126662861.984                          34.500                                                                                                                                    23736572.384    98515559.213                          35.000  
R11  20927247.184   111828872.581                          52.250                                                                                                                                    20927253.304    86978022.811                          46.750  
R20  21536311.540   115164375.147                          44.250                                                                                                                                    21536319.280    89572299.076                          45.000  
R19  24425880.980   130661994.119                          31.500                                                                                                                                    24425884.040   101625995.572                          32.000  
R 8  21355299.600   114356654.332                          51.250                                                                                                                                    21355304.660    88944063.349                          45.500  
R 1  20820283.984   111296363.086                          51.500                                                                                                                                    20820292.444    86563848.786                          42.000  
R21  21501519.380   115059335.940                          49.000                                                                                                                                    21501524.200    89490361.697                          44.250  
R12  23857111.804   127440407.492                          39.000                                                                                                1                                                                                                 
> 2017 11 25 12 49 44.0000000  0 19                     
G30  22090162.294   116084559.374                          47.250                                                                                                                                    22090173.674    90455497.005                          47.000  
G 7  24410338.018   128277140.990                          42.750                                                                                                                                    24410349.058    99956201.031                          40.500  
G28  20669856.444   108620814.531                          50.750                                                                    20669864.764    84639599.281                          40.500                                                                  
G13  20857544.342   109607169.331                          53.500                                                                    20857552.322    85408189.408                          42.500                                                                  
G19  22105286.234   116164087.675                          49.250                                                                    22105292.874    90517477.070                          37.500                                                                  
G17  20943546.682   110059102.084                          54.250                                                                                                                                    20943555.422    85760347.626                          50.000  
G 5  23886434.462   125524034.663                          44.500                                                                                                                                    23886446.142    97810928.221                          41.000  
G20  24598870.956   129267918.506                          39.750                                                                    24598880.536   100728244.176                          18.500                                                                  
G11  25478059.232   133888118.695                          37.750                                                                    25478069.612   104328404.460                          16.250                                                                  
G15  23179626.186   121809782.086                          49.000                                                                                                                                    23179635.926    94916718.255                          44.250  
R10  21310625.180   113597624.878                          50.000                                                                                                                                    21310631.640    88353686.762                          39.750  
R 2  23735985.384   126659766.048                          34.500                                                                                                                                    23735992.784    98513151.265                          35.250  
R11  20927098.464   111828079.502                          52.000                                                                                                                                    20927104.564    86977405.966                          46.500  
R20  21536295.560   115164291.238                          44.500                                                                                                                                    21536303.540    89572233.816                          45.000  
R19  24426449.220   130665025.430                          33.500                                                                                                                                    24426451.340   101628353.270                          32.000  
R 8  21355950.340   114360140.707                          51.000                                                                                                                                    21355955.280    88946774.971                          45.500  
R 1  20820352.804   111296732.067                          51.500                                                                                                                                    20820360.664    86564135.776                          41.750  
R21  21500894.480   115055996.851                          48.750                                                                                                                                    21500900.460    89487764.641                          44.750  
R12  23856730.464   127438380.696                          38.750                                                                                                1                                                                                                 
> 2017 11 25 12 49 45.0000000  0 19                     
G30  22090448.114   116086063.825                          47.000                                                                                                                                    22090460.374    90456669.300                          47.250  
G 7  24410780.878   128279471.377                          42.500                                                                                                                                    24410792.558    99958016.910                          39.500  
G28  20670266.964   108622970.796                          51.000                                                                    20670274.944    84641279.487                          40.000                                                                  
G13  20857272.022   109605739.394                          53.250                                                                    20857280.582    85407075.171                          42.500                                                                  
G19  22104775.854   116161405.765                          49.000                                                                    22104782.894    90515387.268                          37.750                                                                  
G17  20943167.402   110057109.498                          54.000                                                                                                                                    20943176.022    85758794.961                          50.000  
G 5  23886878.402   125526369.139                          44.000                                                                                                                                    23886890.662    97812747.287                          41.000  
G20  24599019.976   129268704.407                          39.250                                                                    24599030.256   100728856.586                          19.000                                                                  
G11  25478254.772   133889147.993                          37.000                                                                    25478265.272   104329206.513                          16.750                                                                  
G15  23179082.366   121806922.950                          48.750                                                                                                                                    23179091.286    94914490.352                          44.500  
R10  21310859.940   113598874.476                          50.750                                                                                                                                    21310865.580    88354658.670                          39.750  
R 2  23735405.464   126656670.617                          33.750                                                                                                                                    23735412.984    98510743.699                          34.750  
R11  20926949.944   111827286.460                          52.000                                                                                                                                    20926956.404    86976789.159                          46.500  
R20  21536280.860   115164208.112                          44.500                                                                                                                                    21536287.800    89572169.160                          45.250  
R19  24427013.740   130668057.238                          34.750                                                                                                                                    24427017.960   101630711.343                          32.500  
R 8  21356602.320   114363627.436                          50.750                                                                                                                                    21356607.140    88949486.871                          45.500  
R 1  20820421.764   111297101.855                          51.500                                                                                                                                    20820429.644    86564423.384                          41.500  
R21  21500270.400   115052658.113                          49.000                                                                                                                                    21500276.280    89485167.838                          44.500  
R12  23856351.164   127436353.793                          38.500                                                                                                1                                                                                                 
> 2017 11 25 12 49 46.0000000  0 19                     
G30  22090734.974   116087568.518                          46.750                                                                                                                                    22090746.754    90457841.784                          47.500  
G 7  24411223.918   128281801.893                          41.500                                                                                                                                    24411236.578    99959832.894                          39.000  
G28  20670677.384   108625127.428                          51.000                                                                    20670684.964    84642959.973                          39.250                                                                  
G13  20857000.102   109604310.021                          53.250                                                                    20857008.382    85405961.379                          42.500                                                                  
G19  22104265.534   116158724.234                          49.250                                                                    22104272.754    90513297.763                          37.250                                                                  
G17  20942788.382   110055117.540                          54.250                                                                                                                                    20942797.122    85757242.784                          50.250  
G 5  23887322.482   125528703.754                          44.250                                                                                                                                    23887335.082    97814566.463                          40.250  
G20  24599170.076   129269490.721                          39.250                                                                    24599179.996   100729469.298                          18.500                                                                  
G11  25478450.912   133890177.733                          36.500                                                                    25478461.052   104330008.933                          16.750                                                                  
G15  23178538.006   121804064.177                          48.000                                                                                                                                    23178548.106    94912262.743                          44.500  
R10  21311093.540   113600124.139                          50.500                                                                                                                                    21311100.580    88355630.625                          39.750  
R 2  23734822.964   126653575.738                          33.500                                                                                                                                    23734833.184    98508336.564                          35.250  
R11  20926802.644   111826493.554                          52.250                                                                                                                                    20926807.564    86976172.459                          46.250  
R20  21536265.560   115164125.844                          44.500                                                                                                                                    21536272.620    89572105.172                          45.000  
R19  24427580.700   130671089.532                          33.750                                                                                                                                    24427584.580   101633069.805                          33.000  
R 8  21357252.880   114367114.577                          50.500                                                                                                                                    21357258.160    88952199.087                          45.250  
R 1  20820490.624   111297472.509                          51.250                                                                                                                                    20820499.424    86564711.667                          41.750  
R21  21499646.500   115049319.846                          49.250                                                                                                                                    21499653.320    89482571.415                          44.250  
R12  23855971.024   127434326.981                          38.250                                                                                                1                                                                                                 
> 2017 11 25 12 49 47.0000000  0 19                     
G30  22091021.334   116089073.444                          46.250                                                                                                                                    22091033.054    90459014.456                          47.250  
G 7  24411667.218   128284132.591                          41.750                                                                                                                                    24411679.418    99961649.014                          38.500  
G28  20671087.404   108627284.400                          51.000                                                                    20671095.204    84644640.730                          39.000                                                                  
G13  20856728.302   109602881.248                          52.750                                                                    20856736.162    85404848.049                          42.750                                                                  
G19  22103755.634   116156043.125                          49.000                                                                    22103762.334    90511208.590                          37.500                                                                  
G17  20942409.482   110053126.242                          54.500                                                                                                                                    20942417.702    85755691.125                          50.000  
G 5  23887767.262   125531038.524                          44.750                                                                                                                                    23887778.762    97816385.763                          40.500  
G20  24599319.136   129270277.460                          39.000                                                                    24599329.756   100730082.330                          19.250                                                                  
G11  25478647.352   133891208.049                          36.750                                                                    25478657.092   104330811.778                          16.750                                                                  
G15  23177994.326   121801205.813                          48.500                                                                                                                                    23178003.186    94910035.453                          44.000  
R10  21311328.320   113601373.916                          50.750                                                                                                                                    21311335.000    88356602.674                          40.250  
R 2  23734246.024   126650481.456                          33.500                                                                                                                                    23734252.244    98505929.893                          35.000  
R11  20926653.424   111825700.832                          52.500                                                                                                                                    20926658.944    86975555.900                          46.250  
R20  21536250.160   115164044.504                          44.250                                                                                                                                    21536257.200    89572041.909                          44.750  
R19  24428145.760   130674122.514                          32.250                                                                                                                                    24428151.640   101635428.789                          33.750  
R 8  21357903.880   114370602.208                          50.750                                                                                                                                    21357909.280    88954911.693                          45.250  
R 1  20820559.864   111297844.114                          51.250                                                                                                                                    20820568.664    86565000.691                          41.750  
R21  21499023.000   115045982.090                          49.500                                                                                                                                    21499028.520    89479975.380                          44.750  
R12  23855591.224   127432300.246                          37.500                                                                                                1                                                                                                 
> 2017 11 25 12 49 48.0000000  0 19                     
G30  22091307.554   116090578.513                          46.500                                                                                                                                    22091319.054    90460187.241                          47.250  
G 7  24412110.978   128286463.357                          41.500                                                                                                                                    24412123.178    99963465.199                          39.250  
G28  20671498.264   108629441.655                          51.500                                                                    20671506.064    84646321.704                          39.500                                                                  
G13  20856456.342   109601452.943                          53.000                                                                    20856464.802    85403735.086                          42.500                                                                  
G19  22103245.294   116153362.340                          49.000                                                                    22103252.614    90509119.672                          37.500                                                                  
G17  20942030.822   110051135.487                          54.500                                                                                                                                    20942039.382    85754139.888                          49.750  
G 5  23888211.922   125533373.387                          44.250                                                                                                                                    23888223.362    97818205.134                          40.250  
G20  24599468.696   129271064.535                          39.500                                                                    24599478.976   100730695.617                          19.500                                                                  
G11  25478843.812   133892238.729                          37.500                                                                    25478853.012   104331614.908                          16.750                                                                  
G15  23177450.346   121798347.749                          48.500                                                                                                                                    23177459.386    94907808.390                          44.250  
R10  21311562.780   113602623.661                          50.750                                                                                                                                    21311569.940    88357574.700                          40.500  
R 2  23733664.584   126647387.668                          33.250                                                                                                                                    23733672.344    98503523.618                          35.500  
R11  20926505.624   111824908.164                          52.500                                                                                                                                    20926510.904    86974939.383                          46.000  
R20  21536233.640   115163963.966                          44.000                                                                                                                                    21536242.220    89571979.271                          45.000  
R19  24428713.220   130677155.884                          32.750                                                                                                                                    24428718.260   101637788.049                          33.500  
R 8  21358555.040   114374090.200                          50.000                                                                                                                                    21358561.040    88957624.574                          45.500  
R 1  20820630.284   111298216.516                          51.500                                                                                                                                    20820638.384    86565290.339                          41.500  
R21  21498398.660   115042644.741                          49.250                                                                                                                                    21498405.700    89477379.662                          44.500  
R12  23855213.164   127430273.466                          39.000                                                                                                1                                                                                                 
> 2017 11 25 12 49 49.0000000  0 19                     
G30  22091593.934   116092083.802                          47.000                                                                                                                                    22091605.434    90461360.191                          47.500  
G 7  24412554.418   128288794.233                          42.000                                                                                                                                    24412566.498    99965281.473                          39.000  
G28  20671908.704   108631599.217                          51.250                                                                    20671917.084    84648002.918                          39.000                                                                  
G13  20856184.622   109600025.184                          53.250                                                                    20856192.722    85402622.542                          42.250                                                                  
G19  22102734.894   116150681.914                          49.250                                                                    22102741.814    90507031.031                          37.250                                                                  
G17  20941652.102   110049145.340                          54.250                                                                                                                                    20941660.682    85752589.125                          49.500  
G 5  23888655.302   125535708.341                          44.000                                                                                                                                    23888667.802    97820024.574                          40.250  
G20  24599619.136   129271851.984                          39.500                                                                    24599628.876   100731309.221                          19.500                                                                  
G11  25479039.212   133893269.851                          37.000                                                                    25479049.652   104332418.385                          16.750                                                                  
G15  23176906.726   121795490.027                          47.750                                                                                                                                    23176916.226    94905581.591                          44.250  
R10  21311797.380   113603873.459                          50.750                                                                                                                                    21311804.540    88358546.762                          40.500  
R 2  23733084.864   126644294.457                          33.750                                                                                                                                    23733092.624    98501117.776                          35.250  
R11  20926356.964   111824115.569                          52.500                                                                                                                                    20926362.824    86974322.917                          46.500  
R20  21536219.220   115163884.294                          44.250                                                                                                                                    21536227.800    89571917.304                          45.500  
R19  24429280.820   130680189.784                          34.250                                                                                                                                    24429286.220   101640147.728                          34.000  
R 8  21359207.060   114377578.629                          50.500                                                                                                                                    21359212.460    88960337.799                          45.500  
R 1  20820700.284   111298589.760                          51.500                                                                                                                                    20820708.964    86565580.636                          41.500  
R21  21497775.980   115039307.774                          49.500                                                                                                                                    21497782.100    89474784.247                          44.500  
R12  23854833.824   127428246.696                          38.500                                                                                                1                                                                                                 
> 2017 11 25 12 49 50.0000000  0 19                     
G30  22091880.334   116093589.270                          47.000                                                                                                                                    22091892.234    90462533.279                          47.250  
G 7  24412997.418   128291125.214                          41.500                                                                                                                                    24413010.518    99967097.816                          39.000  
G28  20672319.864   108633757.079                          51.500                                                                    20672327.364    84649684.373                          39.500                                                                  
G13  20855912.982   109598597.955                          53.500                                                                    20855921.182    85401510.416                          42.250                                                                  
G19  22102225.334   116148001.841                          49.000                                                                    22102231.674    90504942.666                          37.500                                                                  
G17  20941273.502   110047155.765                          53.500                                                                                                                                    20941281.782    85751038.809                          49.500  
G 5  23889099.742   125538043.389                          44.500                                                                                                                                    23889111.002    97821844.091                          40.000  
G20  24599768.616   129272639.811                          39.000                                                                    24599779.776   100731923.111                          19.000                                                                  
G11  25479236.472   133894301.354                          37.250                                                                    25479245.872   104333222.152                          16.250                                                                  
G15  23176362.966   121792632.633                          46.250                                                                                                                                    23176372.246    94903355.050                          44.000  
R10  21312031.480   113605123.284                          50.500                                                                                                                                    21312038.180    88359518.844                          40.500  
R 2  23732505.404   126641201.646                          33.500                                                                                                                                    23732514.084    98498712.250                          34.750  
R11  20926208.044   111823323.066                          52.250                                                                                                                                    20926214.264    86973706.522                          46.500  
R20  21536204.440   115163805.484                          44.000                                                                                                                                    21536212.420    89571856.005                          44.750  
R19  24429847.840   130683224.234                          33.500                                                                                                                                    24429852.880   101642507.842                          34.500  
R 8  21359859.320   114381067.489                          50.000                                                                                                                                    21359864.020    88963051.349                          45.500  
R 1  20820769.564   111298963.857                          51.250                                                                                                                                    20820778.124    86565871.602                          41.750  
R21  21497151.900   115035971.265                          49.500                                                                                                                                    21497158.720    89472189.191                          44.500  
R12  23854454.964   127426219.996                          39.500                                                                                                1                                                                                                 
> 2017 11 25 12 49 51.0000000  0 19                     
G30  22092166.954   116095094.914                          46.500                                                                                                                                    22092178.694    90463706.508                          47.750  
G 7  24413442.058   128293456.311                          42.500                                                                                                                                    24413454.138    99968914.249                          39.000  
G28  20672730.124   108635915.244                          51.500                                                                    20672737.644    84651366.059                          39.000                                                                  
G13  20855641.722   109597171.255                          53.000                                                                    20855649.762    85400398.702                          42.750                                                                  
G19  22101715.194   116145322.143                          49.500                                                                    22101721.954    90502854.586                          37.500                                                                  
G17  20940895.142   110045166.800                          53.500                                                                                                                                    20940903.302    85749488.964                          49.500  
G 5  23889543.522   125540378.543                          44.250                                                                                                                                    23889555.442    97823663.701                          40.250  
G20  24599918.756   129273428.006                          39.750                                                                    24599929.436   100732537.293                          18.500                                                                  
G11  25479431.472   133895333.301                          37.250                                                                    25479442.552   104334026.242                          16.750                                                                  
G15  23175819.246   121789775.580                          45.750                                                                                                                                    23175828.926    94901128.776                          44.500  
R10  21312266.100   113606373.149                          50.000                                                                                                                                    21312273.020    88360490.955                          40.250  
R 2  23731923.944   126638109.496                          33.500                                                                                                                                    23731934.164    98496307.245                          35.500  
R11  20926060.904   111822530.671                          52.500                                                                                                                                    20926066.184    86973090.209                          46.500  
R20  21536190.420   115163727.563                          44.250                                                                                                                                    21536198.400    89571795.396                          45.250  
R19  24430414.320   130686259.185                          34.000                                                                                                                                    24430420.780   101644868.355                          33.750  
R 8  21360510.120   114384556.767                          50.250                                                                                                                                    21360515.640    88965765.231                          45.000  
R 1  20820839.844   111299338.814                          51.250                                                                                                                                    20820848.184    86566163.235                          41.750  
R21  21496529.120   115032635.146                          49.500                                                                                                                                    21496534.640    89469594.432                          44.750  
R12  23854075.744   127424193.299                          39.500                                                                                                1                                                                                                 
> 2017 11 25 12 49 52.0000000  0 19                     
G30  22092453.814   116096600.626                          45.750                                                                                                                                    22092465.554    90464879.788                          47.250  
G 7  24413885.398   128295787.377                          42.250                                                                                                                                    24413897.718    99970730.663                          39.000  
G28  20673141.244   108638073.602                          51.500                                                                    20673148.644    84653047.897                          39.750                                                                  
G13  20855370.282   109595744.957                          52.750                                                                    20855378.622    85399287.305                          42.750                                                                  
G19  22101205.714   116142642.666                          49.500                                                                    22101212.234    90500766.678                          37.500                                                                  
G17  20940516.142   110043178.297                          53.500                                                                                                                                    20940524.602    85747939.482                          49.500  
G 5  23889988.202   125542713.700                          44.250                                                                                                                                    23890000.002    97825483.306                          40.250  
G20  24600068.536   129274216.453                          39.250                                                                    24600079.556   100733151.665                          18.250                                                                  
G11  25479627.912   133896365.511                          37.500                                                                    25479638.692   104334830.553                          16.250                                                                  
G15  23175275.086   121786918.759                          46.250                                                                                                                                    23175285.406    94898902.683                          44.000  
R10  21312501.060   113607622.900                          50.500                                                                                                                                    21312507.880    88361462.985                          40.000  
R 2  23731345.524   126635017.739                          33.250                                                                                                                                    23731354.224    98493902.536                          35.250  
R11  20925912.704   111821738.243                          52.000                                                                                                                                    20925917.884    86972473.884                          46.500  
R20  21536176.280   115163650.357                          44.250                                                                                                                                    21536183.220    89571735.350                          45.000  
R19  24430982.520   130689294.561                          34.250                                                                                                                                    24430988.040   101647229.228                          33.250  
R 8  21361162.180   114388046.339                          50.500                                                                                                                                    21361166.520    88968479.341                          45.000  
R 1  20820910.884   111299714.493                          51.250                                                                                                                                    20820918.984    86566455.430                          41.750  
R21  21495905.360   115029299.303                          49.250                                                                                                                                    21495910.880    89466999.887                          44.750  
R12  23853696.304   127422166.433                          39.000                                                                                                1                                                                                                 
