     3.01           OBSERVATION DATA    M: Mixed            RINEX VERSION / TYPE
CONVBIN 2.4.3 Emlid                     20171125 153450 UTC PGM / RUN BY / DATE 
log: /home/reach/logs/ref_201711251257.rtcm3                COMMENT             
format: RTCM 3, station ID: 0                               COMMENT             
                                                            MARKER NAME         
                                                            MARKER NUMBER       
                                                            MARKER TYPE         
                                                            OBSERVER / AGENCY   
                    TRIMBLE NETR8       48.01,21/DEC/2016   REC # / TYPE / VERS 
4951353663          TRM59800.00     NONE                    ANT # / TYPE        
  3467519.4064 -4300378.5382 -3177517.7346                  APPROX POSITION XYZ 
        0.0069        0.0000        0.0000                  ANTENNA: DELTA H/E/N
G   16 C1C L1C D1C S1C C1W L1W D1W S1W C2W L2W D2W S2W C2X  SYS / # / OBS TYPES 
       L2X D2X S2X                                          SYS / # / OBS TYPES 
R   16 C1C L1C D1C S1C C1P L1P D1P S1P C2C L2C D2C S2C C2P  SYS / # / OBS TYPES 
       L2P D2P S2P                                          SYS / # / OBS TYPES 
E    4 C1X L1X D1X S1X                                      SYS / # / OBS TYPES 
J    8 C1C L1C D1C S1C C2X L2X D2X S2X                      SYS / # / OBS TYPES 
S    4 C1C L1C D1C S1C                                      SYS / # / OBS TYPES 
C    4 C1I L1I D1I S1I                                      SYS / # / OBS TYPES 
  2017    11    25    12    57   14.0000000     GPS         TIME OF FIRST OBS   
  2017    11    25    12    59   35.0000000     GPS         TIME OF LAST OBS    
                                                            END OF HEADER       
> 2017 11 25 12 57 14.0000000  0  8                     
R10  21416817.280   114163680.576                          50.500                                                                                                                                    21416822.460    88793951.721                          39.500  
R 2  23485418.444   125322681.809                          43.500                                                                                                                                    23485425.024    97473196.280                          39.000  
R11  20862146.704   111480991.151                          52.250                                                                                                                                    20862152.104    86707448.333                          47.250  
R20  21545587.980   115213980.901                          44.000                                                                                                                                    21545595.740    89610881.435                          45.500  
R 8  21656395.436   115969005.046                          49.000                                                                                                                                    21656401.196    90198112.868                          44.500  
R 1  20867537.044   111548963.292                          51.250                                                                                                                                    20867545.504    86760315.220                          41.750  
R21  21228619.700   113599009.937                          48.750                                                                                                                                    21228627.440    88354553.348                          45.750  
R12  23686257.524   126527742.136                          41.000                                                                                                1                                                                                                 
> 2017 11 25 12 57 15.0000000  0 19                     
G30  22223030.832   116782782.986                          47.500                                                                                                                                    22223042.112    90999566.543                          47.000  
G 7  24612454.336   129339253.881                          39.250                                                                                                                                    24612465.496   100783819.097                          39.000  
G28  20860633.982   109623357.123                          51.000                                                                    20860642.322    85420800.844                          37.750                                                                  
G13  20745261.602   109017118.073                          53.000                                                                    20745269.282    84948409.240                          42.750                                                                  
G19  21882359.656   114992605.407                          48.250                                                                    21882367.216    89604634.256                          37.500                                                                  
G 1  25758565.430   135362185.238                          34.750                                                                                                                                    25758582.270   105477026.365                          34.250  
G17  20784298.742   109222249.862                          54.000                                                                                                                                    20784306.442    85108255.275                          50.000  
G 5  24088509.180   126585939.883                          41.000                                                                                                                                    24088521.460    98638385.583                          41.250  
G20  24673376.596   129659446.216                          38.000                                                                    24673387.336   101033329.405                          19.500                                                                  
G11  25574706.290   134396009.664                          32.500                                                                    25574718.550   104724163.852                          15.500                                                                  
G15  22941083.988   120556234.430                          48.000                                                                                                                                    22941093.788    93939928.178                          45.000  
R10  21417054.840   114164947.011                          50.750                                                                                                                                    21417060.360    88794936.724                          39.500  
R 2  23484883.984   125319839.375                          43.750                                                                                                                                    23484890.904    97470985.498                          39.000  
R11  20862005.644   111480240.990                          52.250                                                                                                                                    20862011.984    86706864.872                          47.000  
R20  21545645.560   115214286.363                          43.750                                                                                                                                    21545652.720    89611119.015                          45.500  
R 8  21657078.036   115972663.340                          48.750                                                                                                                                    21657083.896    90200958.212                          44.750  
R 1  20867678.144   111549713.460                          51.000                                                                                                                                    20867686.584    86760898.689                          41.250  
R21  21228035.220   113595879.374                          48.750                                                                                                                                    21228042.740    88352118.467                          45.750  
R12  23685877.864   126525720.614                          41.250                                                                                                1                                                                                                 
> 2017 11 25 12 57 16.0000000  0 19                     
G30  22223333.792   116784375.582                          47.250                                                                                                                                    22223345.412    91000807.523                          47.500  
G 7  24612906.656   129341633.760                          39.000                                                                                                                                    24612918.516   100785673.537                          39.250  
G28  20861069.402   109625644.096                          51.000                                                                    20861077.862    85422582.899                          37.750                                                                  
G13  20745035.902   109015934.240                          53.250                                                                    20745044.522    84947486.772                          42.500                                                                  
G19  21881882.216   114990095.901                          48.000                                                                    21881889.076    89602678.797                          37.500                                                                  
G 1  25758397.650   135361298.572                          35.000                                                                                                                                    25758412.970   105476335.462                          33.750  
G17  20783972.002   109220534.821                          53.500                                                                                                                                    20783980.562    85106918.886                          49.750  
G 5  24088960.620   126588310.840                          39.750                                                                                                                                    24088972.000    98640233.081                          41.250  
G20  24673556.216   129660394.311                          38.000                                                                    24673568.016   101034068.197                          19.000                                                                  
G11  25574939.670   134397232.464                          32.500                                                                    25574950.630   104725116.658                          13.750                                                                  
G15  22940570.508   120553538.106                          48.000                                                                                                                                    22940580.408    93937827.148                          44.500  
R10  21417292.000   114166213.532                          50.750                                                                                                                                    21417298.000    88795921.793                          39.750  
R 2  23484351.784   125316997.594                          43.750                                                                                                                                    23484359.184    97468775.224                          39.250  
R11  20861864.864   111479490.914                          52.000                                                                                                                                    20861870.964    86706281.479                          47.000  
R20  21545701.300   115214592.711                          43.000                                                                                                                                    21545710.700    89611357.287                          45.500  
R 8  21657760.776   115976322.005                          48.750                                                                                                                                    21657766.996    90203803.832                          44.750  
R 1  20867819.344   111550464.462                          50.750                                                                                                                                    20867826.624    86761482.797                          42.000  
R21  21227450.120   113592749.312                          48.750                                                                                                                                    21227457.880    88349683.974                          45.250  
R12  23685501.664   126523699.080                          41.000                                                                                                1                                                                                                 
> 2017 11 25 12 57 17.0000000  0 19                     
G30  22223636.792   116785968.339                          47.500                                                                                                                                    22223648.112    91002048.638                          47.500  
G 7  24613359.936   129344013.729                          39.500                                                                                                                                    24613371.256   100787528.045                          39.250  
G28  20861504.242   109627931.282                          51.000                                                                    20861512.342    85424365.124                          37.750                                                                  
G13  20744810.982   109014750.934                          53.000                                                                    20744818.902    84946564.714                          42.500                                                                  
G19  21881404.816   114987586.759                          48.250                                                                    21881411.556    89600723.627                          37.500                                                                  
G 1  25758228.750   135360412.237                          34.000                                                                                                                                    25758244.750   105475644.816                          33.500  
G17  20783645.962   109218820.415                          54.000                                                                                                                                    20783654.462    85105582.985                          50.000  
G 5  24089411.080   126590681.791                          40.250                                                                                                                                    24089423.060    98642080.565                          40.750  
G20  24673736.596   129661342.780                          37.000                                                                    24673748.396   101034807.257                          18.250                                                                  
G11  25575171.870   134398455.650                          32.000                                                                    25575184.190   104726069.773                          16.250                                                                  
G15  22940057.688   120550842.120                          48.000                                                                                                                                    22940067.148    93935726.380                          44.750  
R10  21417530.160   114167480.028                          50.500                                                                                                                                    21417536.500    88796906.848                          39.250  
R 2  23483820.304   125314156.411                          43.750                                                                                                                                    23483826.404    97466565.414                          38.750  
R11  20861725.464   111478740.891                          52.000                                                                                                                                    20861731.924    86705698.131                          47.000  
R20  21545760.460   115214899.884                          43.000                                                                                                                                    21545767.520    89611596.196                          45.500  
R 8  21658444.696   115979980.982                          49.250                                                                                                                                    21658450.216    90206649.703                          44.750  
R 1  20867959.724   111551216.285                          50.500                                                                                                                                    20867968.184    86762067.553                          41.750  
R21  21226865.120   113589619.715                          48.750                                                                                                                                    21226873.100    88347249.845                          45.250  
R12  23685121.244   126521677.548                          40.500                                                                                                1                                                                                                 
> 2017 11 25 12 57 18.0000000  0 19                     
G30  22223940.072   116787561.266                          47.000                                                                                                                                    22223951.572    91003289.880                          47.500  
G 7  24613812.356   129346393.814                          40.000                                                                                                                                    24613824.556   100789382.655                          38.750  
G28  20861939.982   109630218.757                          50.750                                                                    20861947.902    85426147.574                          37.750                                                                  
G13  20744585.702   109013568.163                          53.000                                                                    20744593.862    84945643.074                          43.000                                                                  
G19  21880927.416   114985078.018                          48.000                                                                    21880934.396    89598768.764                          37.500                                                                  
G 1  25758060.550   135359526.227                          34.250                                                                                                                                    25758075.870   105474954.419                          34.000  
G17  20783319.882   109217106.575                          54.250                                                                                                                                    20783328.642    85104247.525                          50.000  
G 5  24089862.900   126593052.784                          40.500                                                                                                                                    24089874.460    98643928.090                          40.000  
G20  24673916.916   129662291.524                          37.500                                                                    24673928.836   101035546.536                          18.250                                                                  
G11  25575404.050   134399679.298                          31.750                                                                    25575416.310   104727023.233                          15.500                                                                  
G15  22939544.428   120548146.510                          47.750                                                                                                                                    22939554.648    93933625.905                          44.500  
R10  21417766.800   114168746.533                          50.250                                                                                                                                    21417773.740    88797891.905                          39.750  
R 2  23483288.824   125311315.788                          43.500                                                                                                                                    23483294.824    97464356.039                          39.000  
R11  20861584.124   111477990.973                          52.000                                                                                                                                    20861589.404    86705114.865                          46.750  
R20  21545816.720   115215207.916                          43.000                                                                                                                                    21545826.000    89611835.776                          45.000  
R 8  21659128.216   115983640.274                          49.000                                                                                                                                    21659133.736    90209495.815                          44.500  
R 1  20868101.084   111551968.888                          51.000                                                                                                                                    20868108.244    86762652.906                          41.500  
R21  21226280.760   113586490.613                          48.750                                                                                                                                    21226288.500    88344816.106                          45.250  
R12  23684742.424   126519656.000                          41.000                                                                                                1                                                                                                 
> 2017 11 25 12 57 19.0000000  0 19                     
G30  22224243.332   116789154.504                          46.500                                                                                                                                    22224254.732    91004531.362                          47.750  
G 7  24614265.216   129348774.082                          40.250                                                                                                                                    24614276.776   100791237.405                          39.000  
G28  20862375.462   109632506.576                          50.500                                                                    20862383.162    85427930.288                          38.500                                                                  
G13  20744360.702   109012386.034                          52.750                                                                    20744369.342    84944721.937                          43.000                                                                  
G19  21880450.076   114982569.750                          47.750                                                                    21880457.056    89596814.264                          37.750                                                                  
G 1  25757890.890   135358640.675                          34.000                                                                                                                                    25757907.310   105474264.372                          34.000  
G17  20782993.862   109215393.483                          54.250                                                                                                                                    20783002.062    85102912.651                          50.250  
G 5  24090313.460   126595423.929                          40.250                                                                                                                                    24090325.020    98645775.732                          40.000  
G20  24674097.656   129663240.717                          37.750                                                                    24674109.276   101036286.169                          17.750                                                                  
G11  25575638.350   134400903.408                          32.250                                                                    25575649.610   104727977.161                          14.750                                                                  
G15  22939032.448   120545451.347                          47.750                                                                                                                                    22939041.188    93931525.778                          44.750  
R10  21418004.660   114170013.170                          50.500                                                                                                                                    21418011.480    88798877.070                          40.000  
R 2  23482755.324   125308475.818                          43.750                                                                                                                                    23482761.664    97462147.172                          39.250  
R11  20861444.604   111477241.244                          52.250                                                                                                                                    20861450.004    86704531.738                          46.500  
R20  21545874.280   115215516.878                          43.000                                                                                                                                    21545882.720    89612076.076                          45.250  
R 8  21659811.336   115987300.029                          49.000                                                                                                                                    21659817.436    90212342.285                          44.500  
R 1  20868241.744   111552722.422                          51.250                                                                                                                                    20868249.144    86763238.988                          41.750  
R21  21225696.400   113583362.099                          49.000                                                                                                                                    21225703.320    88342382.818                          45.500  
R12  23684365.124   126517634.554                          40.500                                                                                                1                                                                                                 
> 2017 11 25 12 57 20.0000000  0 19                     
G30  22224546.472   116790747.901                          46.500                                                                                                                                    22224557.972    91005772.966                          47.250  
G 7  24614718.296   129351154.421                          39.750                                                                                                                                    24614729.976   100793092.209                          39.250  
G28  20862810.482   109634794.624                          50.500                                                                    20862818.922    85429713.176                          39.000                                                                  
G13  20744136.262   109011204.445                          52.500                                                                    20744144.122    84943801.218                          42.750                                                                  
G19  21879972.736   114980061.879                          47.750                                                                    21879979.836    89594860.083                          37.500                                                                  
G 1  25757722.090   135357755.401                          33.000                                                                                                                                    25757738.690   105473574.552                          34.000  
G17  20782667.802   109213680.990                          54.500                                                                                                                                    20782676.422    85101578.241                          50.000  
G 5  24090765.160   126597795.101                          40.250                                                                                                                                    24090776.140    98647623.405                          39.750  
G20  24674279.276   129664190.252                          37.500                                                                    24674290.016   101037026.050                          18.500                                                                  
G11  25575871.390   134402127.934                          32.000                                                                    25575881.910   104728931.331                          15.500                                                                  
G15  22938519.128   120542756.555                          47.750                                                                                                                                    22938528.408    93929425.943                          45.000  
R10  21418242.120   114171279.845                          50.250                                                                                                                                    21418249.160    88799862.259                          40.000  
R 2  23482222.704   125305636.354                          44.000                                                                                                                                    23482230.324    97459938.695                          38.750  
R11  20861304.064   111476491.558                          52.250                                                                                                                                    20861309.924    86703948.643                          46.250  
R20  21545932.020   115215826.728                          43.250                                                                                                                                    21545940.360    89612317.070                          45.250  
R 8  21660495.196   115990960.074                          49.250                                                                                                                                    21660500.356    90215188.986                          45.000  
R 1  20868382.404   111553476.741                          51.000                                                                                                                                    20868390.264    86763825.677                          41.250  
R21  21225112.440   113580234.041                          49.000                                                                                                                                    21225119.240    88339949.877                          45.750  
R12  23683986.484   126515613.057                          40.750                                                                                                1                                                                                                 
> 2017 11 25 12 57 21.0000000  0 19                     
G30  22224849.312   116792341.446                          46.500                                                                                                                                    22224860.412    91007014.688                          47.000  
G 7  24615170.256   129353534.831                          39.500                                                                                                                                    24615182.736   100794947.074                          38.500  
G28  20863245.982   109637082.911                          50.500                                                                    20863254.022    85431496.255                          38.000                                                                  
G13  20743911.282   109010023.378                          52.500                                                                    20743919.382    84942880.904                          42.750                                                                  
G19  21879495.296   114977554.352                          48.000                                                                    21879502.276    89592906.165                          37.500                                                                  
G 1  25757553.530   135356870.521                          33.500                                                                                                                                    25757570.730   105472885.039                          33.500  
G17  20782342.042   109211969.107                          54.250                                                                                                                                    20782349.922    85100244.302                          50.250  
G 5  24091215.700   126600166.268                          40.500                                                                                                                                    24091227.440    98649471.067                          40.000  
G20  24674459.516   129665140.066                          38.000                                                                    24674470.296   101037766.169                          17.250                                                                  
G11  25576103.690   134403352.867                          32.250                                                                    25576115.250   104729885.810                          14.750                                                                  
G15  22938006.388   120540062.114                          47.750                                                                                                                                    22938015.548    93927326.381                          44.750  
R10  21418479.260   114172546.515                          50.000                                                                                                                                    21418486.080    88800847.442                          40.000  
R 2  23481691.704   125302797.412                          44.250                                                                                                                                    23481698.044    97457730.637                          39.000  
R11  20861163.404   111475741.912                          52.500                                                                                                                                    20861169.384    86703365.587                          46.250  
R20  21545989.780   115216137.369                          43.250                                                                                                                                    21545998.920    89612558.676                          44.500  
R 8  21661178.476   115994620.397                          48.750                                                                                                                                    21661184.576    90218035.902                          45.000  
R 1  20868524.444   111554231.856                          51.000                                                                                                                                    20868531.484    86764412.997                          41.250  
R21  21224526.720   113577106.453                          48.750                                                                                                                                    21224534.000    88337517.313                          45.500  
R12  23683609.244   126513591.522                          41.000                                                                                                1                                                                                                 
> 2017 11 25 12 57 22.0000000  0 19                     
G30  22225152.532   116793935.246                          46.750                                                                                                                                    22225163.792    91008256.609                          47.500  
G 7  24615623.856   129355915.397                          39.500                                                                                                                                    24615636.356   100796802.060                          38.250  
G28  20863681.602   109639371.502                          50.750                                                                    20863689.802    85433279.575                          38.000                                                                  
G13  20743686.522   109008842.924                          52.250                                                                    20743694.902    84941961.068                          42.500                                                                  
G19  21879019.096   114975047.277                          48.500                                                                    21879025.956    89590952.596                          38.000                                                                  
G 1  25757385.230   135355986.036                          33.250                                                                                                                                    25757402.070   105472195.832                          34.250  
G17  20782016.622   109210257.897                          54.000                                                                                                                                    20782024.562    85098910.891                          50.000  
G 5  24091667.320   126602537.561                          41.000                                                                                                                                    24091678.760    98651318.836                          40.000  
G20  24674641.016   129666090.242                          38.250                                                                    24674651.176   101038506.545                          17.250                                                                  
G11  25576337.230   134404578.252                          31.500                                                                    25576348.310   104730840.645                          15.500                                                                  
G15  22937493.888   120537368.083                          47.750                                                                                                                                    22937503.228    93925227.137                          44.500  
R10  21418717.120   114173813.259                          50.000                                                                                                                                    21418724.860    88801832.694                          40.250  
R 2  23481159.624   125299959.126                          43.750                                                                                                                                    23481165.844    97455523.082                          39.500  
R11  20861023.144   111474992.400                          52.500                                                                                                                                    20861029.484    86702782.631                          46.000  
R20  21546048.940   115216448.960                          43.500                                                                                                                                    21546057.740    89612801.022                          44.500  
R 8  21661862.316   115998281.116                          49.250                                                                                                                                    21661867.956    90220883.124                          45.250  
R 1  20868665.284   111554987.857                          51.000                                                                                                                                    20868673.504    86765000.993                          41.250  
R21  21223942.820   113573979.449                          49.000                                                                                                                                    21223950.220    88335085.194                          45.500  
R12  23683229.724   126511570.057                          40.750                                                                                                1                                                                                                 
> 2017 11 25 12 57 23.0000000  0 19                     
G30  22225455.932   116795529.227                          47.000                                                                                                                                    22225467.432    91009498.673                          46.500  
G 7  24616077.156   129358296.059                          40.000                                                                                                                                    24616088.896   100798657.125                          38.250  
G28  20864117.082   109641660.359                          51.000                                                                    20864125.402    85435063.104                          37.750                                                                  
G13  20743462.222   109007663.016                          52.500                                                                    20743470.262    84941041.659                          42.500                                                                  
G19  21878542.016   114972540.604                          49.000                                                                    21878548.696    89588999.347                          37.500                                                                  
G 1  25757216.690   135355101.889                          33.000                                                                                                                                    25757234.070   105471506.893                          34.000  
G17  20781691.022   109208547.312                          54.500                                                                                                                                    20781699.302    85097577.970                          50.000  
G 5  24092118.800   126604908.882                          40.750                                                                                                                                    24092129.720    98653166.621                          40.750  
G20  24674821.136   129667040.749                          38.250                                                                    24674832.416   101039247.176                          17.250                                                                  
G11  25576569.850   134405804.002                          31.500                                                                    25576581.330   104731795.758                          14.750                                                                  
G15  22936980.928   120534674.423                          47.750                                                                                                                                    22936990.368    93923128.183                          44.500  
R10  21418954.940   114175080.030                          50.500                                                                                                                                    21418962.120    88802817.960                          39.750  
R 2  23480627.404   125297121.446                          43.750                                                                                                                                    23480634.444    97453315.995                          39.500  
R11  20860883.644   111474242.997                          52.500                                                                                                                                    20860889.864    86702199.762                          46.250  
R20  21546107.140   115216761.369                          43.750                                                                                                                                    21546116.300    89613044.009                          44.750  
R 8  21662546.356   116001942.213                          49.250                                                                                                                                    21662552.576    90223730.637                          45.250  
R 1  20868806.844   111555744.702                          51.000                                                                                                                                    20868815.404    86765589.648                          41.500  
R21  21223357.760   113570852.915                          49.000                                                                                                                                    21223365.380    88332653.446                          45.750  
R12  23682850.144   126509548.563                          40.250                                                                                                1                                                                                                 
> 2017 11 25 12 57 24.0000000  0 19                     
G30  22225759.112   116797123.531                          47.000                                                                                                                                    22225771.032    91010740.990                          46.750  
G 7  24616529.896   129360676.950                          40.000                                                                                                                                    24616542.336   100800512.359                          38.500  
G28  20864552.422   109643949.610                          50.500                                                                    20864560.862    85436846.932                          37.500                                                                  
G13  20743237.522   109006483.773                          52.250                                                                    20743245.442    84940122.768                          42.500                                                                  
G19  21878064.596   114970034.441                          48.750                                                                    21878071.636    89587046.497                          38.000                                                                  
G 1  25757049.010   135354218.239                          32.250                                                                                                                                    25757065.370   105470818.345                          33.750  
G17  20781365.742   109206837.465                          54.000                                                                                                                                    20781374.202    85096245.618                          50.250  
G 5  24092569.620   126607280.354                          40.500                                                                                                                                    24092581.000    98655014.508                          40.250  
G20  24675001.216   129667991.740                          37.750                                                                    24675013.056   101039988.224                          16.750                                                                  
G11  25576803.450   134407009.3441                         31.500                                                                    25576814.770   104732734.3251                         13.750                                                                  
G15  22936468.348   120531981.280                          48.000                                                                                                                                    22936477.848    93921029.628                          44.500  
R10  21419192.520   114176346.972                          50.000                                                                                                                                    21419199.340    88803803.355                          39.750  
R 2  23480095.684   125294284.529                          43.750                                                                                                                                    23480102.964    97451109.502                          39.000  
R11  20860742.824   111473493.787                          52.500                                                                                                                                    20860749.384    86701617.043                          46.250  
R20  21546165.460   115217074.767                          43.750                                                                                                                                    21546173.560    89613287.765                          44.750  
R 8  21663229.776   116005603.765                          48.500                                                                                                                                    21663235.176    90226578.513                          45.000  
R 1  20868948.424   111556502.455                          51.250                                                                                                                                    20868956.424    86766179.014                          41.750  
R21  21222774.560   113567726.965                          48.750                                                                                                                                    21222781.380    88330222.156                          45.750  
R12  23682473.084   126507527.183                          40.750                                                                                                1                                                                                                 
> 2017 11 25 12 57 25.0000000  0 19                     
G30  22226062.972   116798717.864                          47.000                                                                                                                                    22226074.772    91011983.321                          47.000  
G 7  24616982.676   129363057.807                          40.250                                                                                                                                    24616994.776   100802367.558                          37.750  
G28  20864987.842   109646238.959                          50.750                                                                    20864996.642    85438630.835                          37.750                                                                  
G13  20743013.222   109005304.953                          52.500                                                                    20743021.422    84939204.207                          42.500                                                                  
G19  21877587.696   114967528.530                          49.250                                                                    21877594.556    89585093.835                          37.500                                                                  
G 1  25756880.730   135353334.807                          34.000                                                                                                                                    25756897.450   105470129.954                          33.750  
G17  20781040.422   109205128.115                          54.500                                                                                                                                    20781048.882    85094913.655                          50.000  
G 5  24093021.260   126609651.749                          40.500                                                                                                                                    24093032.700    98656862.332                          40.000  
G20  24675183.656   129668942.909                          37.500                                                                    24675193.856   101040729.407                          17.250                                                                  
G11  25577037.010   134408235.935                          32.000                                                                    25577048.210   104733690.114                          13.750                                                                  
G15  22935956.068   120529288.351                          48.500                                                                                                                                    22935965.388    93918931.245                          44.250  
R10  21419430.200   114177613.769                          50.250                                                                                                                                    21419437.120    88804788.638                          39.750  
R 2  23479563.564   125291448.074                          44.000                                                                                                                                    23479570.724    97448903.373                          39.250  
R11  20860602.544   111472744.520                          52.500                                                                                                                                    20860609.344    86701034.280                          46.500  
R20  21546224.820   115217388.860                          43.500                                                                                                                                    21546232.800    89613532.055                          45.250  
R 8  21663913.376   116009265.491                          48.500                                                                                                                                    21663919.496    90229426.520                          44.750  
R 1  20869090.004   111557260.904                          51.500                                                                                                                                    20869098.224    86766768.915                          41.750  
R21  21222190.480   113564601.403                          49.000                                                                                                                                    21222195.880    88327791.165                          46.000  
R12  23682094.664   126505505.702                          40.250                                                                                                1                                                                                                 
> 2017 11 25 12 57 26.0000000  0 19                     
G30  22226366.032   116800312.449                          47.000                                                                                                                                    22226377.772    91013225.857                          46.500  
G 7  24617436.516   129365438.803                          39.500                                                                                                                                    24617447.856   100804222.875                          38.250  
G28  20865423.882   109648528.599                          51.000                                                                    20865432.082    85440414.974                          38.250                                                                  
G13  20742789.262   109004126.732                          52.750                                                                    20742797.182    84938286.117                          42.750                                                                  
G19  21877111.256   114965023.055                          49.250                                                                    21877118.016    89583141.525                          37.500                                                                  
G 1  25756712.870   135352451.785                          33.250                                                                                                                                    25756729.590   105469441.893                          34.500  
G17  20780715.062   109203419.428                          54.500                                                                                                                                    20780723.822    85093582.216                          49.750  
G 5  24093472.640   126612023.223                          40.750                                                                                                                                    24093483.500    98658710.224                          40.500  
G20  24675363.196   129669894.414                          37.000                                                                    24675375.276   101041470.870                          16.250                                                                  
G11  25577270.150   134409463.010                          32.000                                                                    25577281.650   104734646.282                          13.750                                                                  
G15  22935443.148   120526595.831                          48.250                                                                                                                                    22935452.728    93916833.178                          44.500  
R10  21419667.400   114178880.665                          50.000                                                                                                                                    21419675.140    88805774.004                          40.250  
R 2  23479033.624   125288612.232                          44.250                                                                                                                                    23479039.144    97446697.716                          39.000  
R11  20860462.504   111471995.398                          52.000                                                                                                                                    20860468.844    86700451.632                          46.750  
R20  21546283.500   115217703.859                          43.500                                                                                                                                    21546292.080    89613777.057                          45.500  
R 8  21664597.876   116012927.549                          49.000                                                                                                                                    21664603.276    90232274.785                          44.750  
R 1  20869232.344   111558020.219                          51.250                                                                                                                                    20869239.984    86767359.491                          41.750  
R21  21221605.660   113561476.381                          48.500                                                                                                                                    21221613.280    88325360.597                          46.000  
R12  23681716.024   126503484.237                          40.000                                                                                                1                                                                                                 
> 2017 11 25 12 57 27.0000000  0 19                     
G30  22226669.452   116801907.258                          47.000                                                                                                                                    22226681.252    91014468.559                          47.000  
G 7  24617888.996   129367819.952                          40.000                                                                                                                                    24617900.556   100806078.312                          38.000  
G28  20865859.422   109650818.567                          51.000                                                                    20865868.922    85442199.361                          38.000                                                                  
G13  20742564.982   109002949.100                          52.500                                                                    20742573.262    84937368.477                          43.000                                                                  
G19  21876634.616   114962518.024                          49.000                                                                    21876641.656    89581189.547                          37.500                                                                  
G 1  25756544.590   135351569.113                          33.000                                                                                                                                    25756561.530   105468754.096                          34.500  
G17  20780390.482   109201711.399                          54.750                                                                                                                                    20780398.522    85092251.281                          49.750  
G 5  24093924.260   126614394.791                          41.750                                                                                                                                    24093934.480    98660558.200                          40.000  
G20  24675543.356   129670846.388                          36.500                                                                    24675556.136   101042212.662                          16.250                                                                  
G11  25577504.470   134410690.478                          31.750                                                                    25577515.310   104735602.770                          14.750                                                                  
G15  22934931.208   120523903.729                          48.000                                                                                                                                    22934940.888    93914735.438                          44.750  
R10  21419904.700   114180147.628                          49.750                                                                                                                                    21419912.440    88806759.419                          39.500  
R 2  23478502.304   125285776.972                          44.250                                                                                                                                    23478508.164    97444492.507                          38.750  
R11  20860322.264   111471246.372                          52.000                                                                                                                                    20860328.144    86699869.052                          46.750  
R20  21546342.760   115218019.765                          43.500                                                                                                                                    21546351.220    89614022.762                          45.750  
R 8  21665281.396   116016589.992                          49.500                                                                                                                                    21665286.796    90235123.350                          44.750  
R 1  20869374.164   111558780.391                          51.000                                                                                                                                    20869382.384    86767950.740                          42.000  
R21  21221022.780   113558351.890                          48.750                                                                                                                                    21221029.120    88322930.436                          46.000  
R12  23681336.044   126501462.814                          40.750                                                                                                1                                                                                                 
> 2017 11 25 12 57 28.0000000  0 19                     
G30  22226973.272   116803502.282                          47.500                                                                                                                                    22226984.772    91015711.431                          47.250  
G 7  24618341.656   129370201.216                          39.000                                                                                                                                    24618354.156   100807933.844                          38.250  
G28  20866296.262   109653108.806                          51.000                                                                    20866304.062    85443983.963                          38.000                                                                  
G13  20742340.982   109001772.043                          52.750                                                                    20742349.262    84936451.292                          43.500                                                                  
G19  21876158.056   114960013.409                          49.000                                                                    21876164.556    89579237.900                          38.000                                                                  
G 1  25756376.290   135350686.848                          32.750                                                                                                                                    25756394.130   105468066.623                          34.500  
G17  20780065.202   109200004.041                          54.250                                                                                                                                    20780073.762    85090920.878                          49.750  
G 5  24094375.080   126616766.426                          42.000                                                                                                                                    24094386.040    98662406.230                          40.250  
G20  24675724.956   129671798.611                          36.750                                                                    24675737.576   101042954.660                          16.250                                                                  
G11  25577737.650   134411918.478                          31.750                                                                    25577749.430   104736559.646                          14.750                                                                  
G15  22934419.128   120521212.036                          48.000                                                                                                                                    22934428.388    93912638.022                          44.500  
R10  21420142.700   114181414.634                          50.000                                                                                                                                    21420149.620    88807744.864                          39.750  
R 2  23477971.484   125282942.272                          44.500                                                                                                                                    23477976.544    97442287.737                          38.750  
R11  20860182.064   111470497.416                          52.000                                                                                                                                    20860188.164    86699286.532                          46.000  
R20  21546401.580   115218336.540                          43.750                                                                                                                                    21546410.380    89614269.138                          45.500  
R 8  21665965.376   116020252.816                          49.750                                                                                                                                    21665971.016    90237972.205                          45.250  
R 1  20869517.264   111559541.408                          51.250                                                                                                                                    20869525.004    86768542.644                          42.000  
R21  21220438.180   113555227.898                          48.750                                                                                                                                    21220445.100    88320500.669                          46.000  
R12  23680959.024   126499441.419                          40.500                                                                                                1                                                                                                 
> 2017 11 25 12 57 29.0000000  0 18                     
G30  22227276.952   116805097.464                          47.000                                                                                                                                    22227288.292    91016954.432                          47.250  
G 7  24618794.976   129372582.540                          39.750                                                                                                                                    24618807.296   100809789.426                          38.500  
G28  20866732.082   109655399.277                          50.750                                                                    20866739.062    85445768.747                          38.000                                                                  
G13  20742117.242   109000595.498                          52.500                                                                    20742125.322    84935534.504                          43.750                                                                  
G19  21875681.636   114957509.161                          49.000                                                                    21875688.676    89577286.534                          37.750                                                                  
G 1  25756208.450   135349804.861                          33.000                                                                                                                                    25756226.110   105467379.371                          34.250  
G17  20779740.282   109198297.255                          54.250                                                                                                                                    20779749.142    85089590.911                          50.000  
G 5  24094826.840   126619138.076                          42.000                                                                                                                                    24094837.460    98664254.276                          40.500  
G20  24675907.236   129672751.217                          37.500                                                                    24675918.796   101043696.936                          16.750                                                                  
G15  22933907.328   120518520.662                          47.750                                                                                                                                    22933916.948    93910540.843                          44.500  
R10  21420380.860   114182681.626                          50.000                                                                                                                                    21420387.900    88808730.302                          39.750  
R 2  23477439.264   125280108.098                          44.500                                                                                                                                    23477445.484    97440083.373                          38.500  
R11  20860041.544   111469748.521                          52.250                                                                                                                                    20860047.884    86698704.061                          46.500  
R20  21546462.040   115218654.157                          44.250                                                                                                                                    21546469.780    89614516.180                          45.500  
R 8  21666649.516   116023915.921                          49.250                                                                                                                                    21666655.036    90240821.284                          45.000  
R 1  20869659.824   111560303.206                          51.000                                                                                                                                    20869667.344    86769135.147                          41.750  
R21  21219854.560   113552104.353                          48.500                                                                                                                                    21219861.840    88318071.248                          45.250  
R12  23680579.964   126497419.962                          40.250                                                                                                1                                                                                                 
> 2017 11 25 12 57 30.0000000  0 18                     
G30  22227580.472   116806692.906                          47.000                                                                                                                                    22227591.972    91018197.639                          47.000  
G 7  24619248.136   129374964.051                          39.000                                                                                                                                    24619260.156   100811645.145                          38.500  
G28  20867167.302   109657690.080                          51.000                                                                    20867175.802    85447553.793                          37.500                                                                  
G13  20741893.402   108999419.605                          53.000                                                                    20741901.682    84934618.221                          43.250                                                                  
G19  21875205.176   114955005.386                          48.750                                                                    21875211.676    89575335.539                          37.250                                                                  
G 1  25756040.930   135348923.394                          31.750                                                                                                                                    25756058.170   105466692.524                          33.750  
G17  20779416.042   109196591.179                          55.000                                                                                                                                    20779424.202    85088261.503                          50.000  
G 5  24095278.280   126621509.852                          41.750                                                                                                                                    24095289.380    98666102.411                          41.000  
G20  24676088.696   129673704.213                          37.500                                                                    24676100.536   101044439.528                          17.250                                                                  
G15  22933395.128   120515829.748                          48.000                                                                                                                                    22933404.288    93908444.030                          44.500  
R10  21420619.020   114183948.740                          50.500                                                                                                                                    21420625.240    88809715.840                          39.500  
R 2  23476908.224   125277274.629                          44.000                                                                                                                                    23476914.564    97437879.561                          38.500  
R11  20859901.764   111468999.810                          52.500                                                                                                                                    20859908.344    86698121.730                          46.500  
R20  21546520.800   115218972.713                          43.500                                                                                                                                    21546529.260    89614763.935                          45.500  
R 8  21667333.756   116027579.446                          49.500                                                                                                                                    21667338.936    90243670.689                          45.500  
R 1  20869801.664   111561065.910                          51.250                                                                                                                                    20869809.764    86769728.366                          42.000  
R21  21219271.440   113548981.434                          48.500                                                                                                                                    21219277.440    88315642.317                          45.500  
R12  23680202.024   126495398.566                          40.500                                                                                                1                                                                                                 
> 2017 11 25 12 57 31.0000000  0 19                     
G30  22227883.752   116808288.498                          47.500                                                                                                                                    22227895.672    91019440.955                          47.250  
G 7  24619701.616   129377345.602                          38.750                                                                                                                                    24619713.116   100813500.892                          38.500  
G28  20867603.382   109659981.105                          51.500                                                                    20867611.082    85449338.999                          37.750                                                                  
G13  20741670.022   108998244.172                          52.500                                                                    20741678.122    84933702.302                          43.000                                                                  
G19  21874728.876   114952501.935                          49.250                                                                    21874735.696    89573384.801                          38.000                                                                  
G 1  25755874.470   135348042.177                          31.750                                                                                                                                    25755890.650   105466005.874                          33.750  
G17  20779091.642   109194885.662                          54.500                                                                                                                                    20779100.382    85086932.533                          50.000  
G 5  24095729.280   126623881.602                          40.000                                                                                                                                    24095740.720    98667950.521                          40.500  
G20  24676269.956   129674657.455                          36.750                                                                    24676281.796   101045182.300                          17.250                                                                  
G11  25578438.750   134415602.8651                         30.500                                                                    25578450.770   104739431.1411                         15.500                                                                  
G15  22932883.288   120513139.167                          48.500                                                                                                                                    22932892.328    93906347.476                          45.000  
R10  21420856.260   114185215.818                          50.500                                                                                                                                    21420863.420    88810701.343                          39.750  
R 2  23476377.624   125274441.719                          44.000                                                                                                                                    23476383.624    97435676.191                          38.500  
R11  20859762.284   111468251.166                          52.500                                                                                                                                    20859767.564    86697539.447                          47.250  
R20  21546578.980   115219292.068                          43.500                                                                                                                                    21546589.080    89615012.326                          45.500  
R 8  21668017.996   116031243.212                          49.500                                                                                                                                    21668023.396    90246520.285                          45.000  
R 1  20869944.884   111561829.362                          51.000                                                                                                                                    20869953.224    86770322.160                          41.750  
R21  21218688.660   113545858.933                          49.000                                                                                                                                    21218695.120    88313213.701                          46.000  
R12  23679823.484   126493377.109                          40.000                                                                                                1                                                                                                 
> 2017 11 25 12 57 32.0000000  0 19                     
G30  22228187.472   116809884.284                          47.500                                                                                                                                    22228199.272    91020684.425                          47.000  
G 7  24620154.856   129379727.308                          38.750                                                                                                                                    24620166.416   100815356.759                          38.000  
G28  20868039.942   109662272.411                          51.500                                                                    20868047.862    85451124.434                          37.500                                                                  
G13  20741446.042   108997069.345                          52.750                                                                    20741454.142    84932786.850                          43.000                                                                  
G19  21874252.256   114949998.914                          49.500                                                                    21874259.116    89571434.394                          37.750                                                                  
G 1  25755705.330   135347161.415                          32.250                                                                                                                                    25755722.710   105465319.564                          33.750  
G17  20778767.202   109193180.795                          54.250                                                                                                                                    20778775.602    85085604.059                          50.000  
G 5  24096181.040   126626253.431                          40.500                                                                                                                                    24096191.940    98669798.691                          40.750  
G20  24676451.596   129675611.084                          36.750                                                                    24676463.736   101045925.373                          18.250                                                                  
G11  25578672.470   134416832.438                          31.000                                                                    25578684.730   104740389.269                          14.750                                                                  
G15  22932371.168   120510448.949                          48.500                                                                                                                                    22932380.448    93904251.200                          44.500  
R10  21421094.400   114186482.935                          50.750                                                                                                                                    21421100.860    88811686.874                          39.000  
R 2  23475846.904   125271609.426                          44.250                                                                                                                                    23475852.644    97433473.297                          38.750  
R11  20859621.804   111467502.584                          51.750                                                                                                                                    20859627.904    86696957.216                          47.000  
R20  21546640.100   115219612.316                          44.250                                                                                                                                    21546648.900    89615261.404                          45.500  
R 8  21668702.076   116034907.367                          49.250                                                                                                                                    21668707.836    90249370.183                          44.500  
R 1  20870087.964   111562593.680                          51.500                                                                                                                                    20870095.364    86770916.625                          41.750  
R21  21218103.840   113542736.924                          48.750                                                                                                                                    21218111.460    88310785.474                          45.750  
R12  23679446.344   126491355.689                          40.000                                                                                                1                                                                                                 
> 2017 11 25 12 57 33.0000000  0 19                     
G30  22228491.652   116811480.330                          47.000                                                                                                                                    22228502.972    91021928.091                          47.000  
G 7  24620607.396   129382109.131                          38.500                                                                                                                                    24620619.076   100817212.725                          37.500  
G28  20868475.442   109664564.022                          51.500                                                                    20868483.382    85452910.109                          37.500                                                                  
G13  20741222.962   108995895.113                          52.750                                                                    20741230.642    84931871.870                          43.000                                                                  
G19  21873776.056   114947496.353                          49.000                                                                    21873783.156    89569484.348                          37.500                                                                  
G 1  25755538.130   135346280.947                          32.500                                                                                                                                    25755555.250   105464633.489                          34.250  
G17  20778442.902   109191476.597                          54.000                                                                                                                                    20778450.302    85084276.117                          49.750  
G 5  24096632.160   126628625.338                          40.000                                                                                                                                    24096643.180    98671646.923                          40.750  
G20  24676632.916   129676565.093                          37.250                                                                    24676644.356   101046668.737                          17.750                                                                  
G11  25578906.650   134418062.529                          31.500                                                                    25578918.510   104741347.785                          15.500                                                                  
G15  22931859.388   120507759.174                          48.000                                                                                                                                    22931868.308    93902155.278                          44.500  
R10  21421331.540   114187750.157                          50.250                                                                                                                                    21421338.220    88812672.493                          39.000  
R 2  23475315.904   125268777.795                          43.500                                                                                                                                    23475322.244    97431270.917                          38.500  
R11  20859481.704   111466754.132                          51.750                                                                                                                                    20859487.804    86696375.081                          46.500  
R20  21546700.240   115219933.460                          44.000                                                                                                                                    21546709.040    89615511.186                          45.000  
R 8  21669385.996   116038571.912                          49.500                                                                                                                                    21669391.516    90252220.383                          45.000  
R 1  20870231.064   111563358.891                          51.000                                                                                                                                    20870238.804    86771511.781                          41.750  
R21  21217520.640   113539615.410                          49.000                                                                                                                                    21217527.320    88308357.632                          46.000  
R12  23679066.704   126489334.275                          39.750                                                                                                1                                                                                                 
> 2017 11 25 12 57 34.0000000  0 19                     
G30  22228795.152   116813076.479                          47.500                                                                                                                                    22228806.892    91023171.839                          47.000  
G 7  24621060.536   129384490.981                          38.750                                                                                                                                    24621072.556   100819068.704                          37.500  
G28  20868911.602   109666855.792                          51.250                                                                    20868920.002    85454695.903                          37.250                                                                  
G13  20740999.302   108994721.361                          52.750                                                                    20741007.102    84930957.255                          42.750                                                                  
G19  21873299.936   114944994.105                          49.250                                                                    21873307.036    89567534.542                          38.000                                                                  
G 1  25755371.550   135345400.823                          33.000                                                                                                                                    25755388.090   105463947.672                          34.750  
G17  20778118.802   109189772.978                          53.750                                                                                                                                    20778127.202    85082948.619                          50.000  
G 5  24097083.760   126630997.256                          40.500                                                                                                                                    24097094.440    98673495.161                          41.000  
G20  24676814.876   129677519.332                          37.500                                                                    24676826.256   101047412.285                          17.750                                                                  
G11  25579141.450   134419292.977                          31.250                                                                    25579153.190   104742306.598                          15.500                                                                  
G15  22931347.368   120505069.718                          47.000                                                                                                                                    22931356.828    93900059.604                          44.500  
R10  21421569.960   114189017.333                          50.000                                                                                                                                    21421576.300    88813658.074                          39.250  
R 2  23474785.124   125265946.635                          43.500                                                                                                                                    23474791.924    97429068.898                          38.250  
R11  20859341.724   111466005.659                          51.750                                                                                                                                    20859347.944    86695792.938                          47.000  
R20  21546760.980   115220255.368                          44.000                                                                                                                                    21546769.780    89615761.560                          45.250  
R 8  21670071.156   116042236.709                          49.250                                                                                                                                    21670076.916    90255070.774                          44.750  
R 1  20870374.504   111564124.831                          51.000                                                                                                                                    20870382.844    86772107.510                          42.000  
R21  21216938.300   113536494.346                          49.000                                                                                                                                    21216943.580    88305930.139                          45.500  
R12  23678688.404   126487312.826                          40.750                                                                                                1                                                                                                 
> 2017 11 25 12 57 35.0000000  0 19                     
G30  22229099.152   116814672.948                          46.750                                                                                                                                    22229110.532    91024415.842                          47.000  
G 7  24621514.656   129386873.105                          39.000                                                                                                                                    24621526.276   100820924.894                          37.000  
G28  20869348.042   109669147.984                          51.250                                                                    20869355.902    85456482.026                          37.500                                                                  
G13  20740776.062   108993548.277                          52.750                                                                    20740784.102    84930043.167                          43.000                                                                  
G19  21872823.836   114942492.390                          49.250                                                                    21872830.696    89565585.162                          37.750                                                                  
G 1  25755204.330   135344521.180                          33.250                                                                                                                                    25755220.930   105463262.229                          34.000  
G17  20777794.482   109188070.084                          53.500                                                                                                                                    20777802.422    85081621.682                          49.500  
G 5  24097535.040   126633369.290                          40.750                                                                                                                                    24097545.780    98675343.494                          40.500  
G20  24676996.896   129678474.035                          38.250                                                                    24677007.736   101048156.228                          17.750                                                                  
G11  25579374.230   134420523.940                          31.250                                                                    25579388.130   104743265.797                          15.500                                                                  
G15  22930835.488   120502380.743                          47.250                                                                                                                                    22930845.168    93897964.301                          44.500  
R10  21421807.200   114190284.655                          50.500                                                                                                                                    21421814.000    88814643.770                          39.250  
R 2  23474256.884   125263116.141                          44.000                                                                                                                                    23474261.104    97426867.404                          38.500  
R11  20859201.444   111465257.421                          52.000                                                                                                                                    20859207.784    86695210.979                          47.250  
R20  21546820.960   115220578.276                          43.500                                                                                                                                    21546830.120    89616012.713                          45.250  
R 8  21670755.136   116045901.969                          48.750                                                                                                                                    21670760.436    90257921.530                          45.000  
R 1  20870518.824   111564891.720                          51.000                                                                                                                                    20870525.764    86772703.975                          42.000  
R21  21216355.180   113533373.926                          48.750                                                                                                                                    21216361.400    88303503.146                          45.250  
R12  23678309.904   126485291.473                          40.750                                                                                                1                                                                                                 
> 2017 11 25 12 57 36.0000000  0 19                     
G30  22229402.772   116816269.467                          47.000                                                                                                                                    22229414.272    91025659.882                          47.250  
G 7  24621967.376   129389255.178                          38.750                                                                                                                                    24621979.056   100822781.049                          37.000  
G28  20869784.402   109671440.288                          51.000                                                                    20869791.902    85458268.237                          37.500                                                                  
G13  20740553.202   108992375.640                          52.250                                                                    20740561.302    84929129.422                          42.750                                                                  
G19  21872348.016   114939990.933                          49.250                                                                    21872354.196    89563635.969                          38.250                                                                  
G 1  25755037.070   135343641.760                          33.750                                                                                                                                    25755053.610   105462576.971                          34.500  
G17  20777470.642   109186367.704                          53.500                                                                                                                                    20777479.222    85080295.155                          49.750  
G 5  24097986.500   126635741.295                          40.000                                                                                                                                    24097997.060    98677191.808                          40.750  
G20  24677178.736   129679428.964                          38.500                                                                    24677189.936   101048900.328                          19.000                                                                  
G11  25579609.610   134421755.208                          31.500                                                                    25579621.470   104744225.314                          13.750                                                                  
G15  22930323.948   120499692.025                          47.250                                                                                                                                    22930333.348    93895869.196                          44.500  
R10  21422044.700   114191551.895                          50.250                                                                                                                                    21422051.980    88815629.401                          39.000  
R 2  23473724.764   125260286.078                          44.000                                                                                                                                    23473730.864    97424666.242                          38.500  
R11  20859061.944   111464509.154                          52.500                                                                                                                                    20859067.704    86694628.989                          47.000  
R20  21546881.680   115220901.907                          43.750                                                                                                                                    21546890.480    89616264.423                          45.000  
R 8  21671439.416   116049567.412                          48.500                                                                                                                                    21671445.296    90260772.425                          45.250  
R 1  20870661.724   111565659.275                          51.000                                                                                                                                    20870669.484    86773300.962                          42.000  
R21  21215771.700   113530253.916                          48.500                                                                                                                                    21215778.620    88301076.478                          45.750  
R12  23677932.204   126483270.046                          40.750                                                                                                1                                                                                                 
> 2017 11 25 12 57 37.0000000  0 19                     
G30  22229706.312   116817866.265                          47.250                                                                                                                                    22229718.872    91026904.138                          47.500  
G 7  24622420.836   129391637.409                          38.750                                                                                                                                    24622432.576   100824637.327                          37.000  
G28  20870220.222   109673732.926                          51.000                                                                    20870228.382    85460054.702                          37.750                                                                  
G13  20740329.982   108991203.604                          52.000                                                                    20740338.142    84928216.143                          42.500                                                                  
G19  21871872.116   114937489.938                          49.500                                                                    21871878.756    89561687.150                          38.000                                                                  
G 1  25754869.770   135342762.764                          33.500                                                                                                                                    25754886.030   105461892.043                          34.500  
G17  20777146.922   109184666.008                          53.750                                                                                                                                    20777154.962    85078969.158                          50.000  
G 5  24098437.500   126638113.376                          40.500                                                                                                                                    24098448.540    98679040.176                          41.000  
G20  24677360.876   129680384.269                          38.500                                                                    24677371.776   101049644.710                          18.250                                                                  
G11  25579843.510   134422984.9651                         30.750                                                                    25579855.590   104745183.1201                         14.750                                                                  
G15  22929812.888   120497003.751                          47.750                                                                                                                                    22929821.688    93893774.435                          44.500  
R10  21422283.040   114192819.237                          50.500                                                                                                                                    21422289.620    88816615.107                          39.500  
R 2  23473194.504   125257456.653                          43.250                                                                                                                                    23473200.024    97422465.576                          38.500  
R11  20858921.504   111463761.058                          52.250                                                                                                                                    20858927.724    86694047.141                          47.000  
R20  21546942.360   115221226.476                          43.750                                                                                                                                    21546950.940    89616516.861                          45.000  
R 8  21672124.216   116053233.232                          48.750                                                                                                                                    21672130.196    90263623.616                          45.000  
R 1  20870805.924   111566427.736                          51.000                                                                                                                                    20870813.324    86773898.654                          42.250  
R21  21215188.820   113527134.470                          49.000                                                                                                                                    21215195.280    88298650.248                          45.500  
R12  23677554.044   126481248.637                          40.250                                                                                                1                                                                                                 
> 2017 11 25 12 57 38.0000000  0 19                     
G30  22230010.092   116819463.170                          47.500                                                                                                                                    22230022.412    91028148.478                          47.500  
G 7  24622874.336   129394019.674                          38.500                                                                                                                                    24622885.656   100826493.631                          37.000  
G28  20870657.082   109676025.758                          50.750                                                                    20870664.402    85461841.329                          37.500                                                                  
G13  20740107.262   108990032.054                          52.250                                                                    20740114.602    84927303.253                          42.500                                                                  
G19  21871396.076   114934989.261                          48.500                                                                    21871402.296    89559738.564                          38.000                                                                  
G 1  25754703.590   135341884.051                          33.500                                                                                                                                    25754718.710   105461207.336                          34.000  
G17  20776823.222   109182964.893                          54.000                                                                                                                                    20776830.842    85077643.620                          49.750  
G 5  24098889.100   126640485.451                          41.000                                                                                                                                    24098900.180    98680888.541                          40.500  
G20  24677541.836   129681339.861                          38.500                                                                    24677553.156   101050389.316                          17.750                                                                  
G11  25580078.030   134424217.074                          31.000                                                                    25580090.230   104746143.172                          14.750                                                                  
G15  22929301.388   120494315.777                          47.750                                                                                                                                    22929310.488    93891679.910                          45.000  
R10  21422520.320   114194086.554                          50.750                                                                                                                                    21422526.900    88817600.802                          39.750  
R 2  23472664.324   125254627.781                          43.250                                                                                                                                    23472670.444    97420265.338                          39.250  
R11  20858781.584   111463012.951                          52.250                                                                                                                                    20858787.564    86693465.280                          47.000  
R20  21547003.000   115221551.836                          44.000                                                                                                                                    21547011.560    89616769.919                          45.000  
R 8  21672808.776   116056899.306                          48.500                                                                                                                                    21672814.636    90266475.003                          44.750  
R 1  20870949.104   111567196.929                          51.000                                                                                                                                    20870956.604    86774496.918                          42.250  
R21  21214606.220   113524015.404                          48.500                                                                                                                                    21214612.440    88296224.314                          45.000  
R12  23677175.504   126479227.182                          40.500                                                                                                1                                                                                                 
> 2017 11 25 12 57 39.0000000  0 19                     
G30  22230314.632   116821060.349                          47.500                                                                                                                                    22230326.432    91029393.035                          47.500  
G 7  24623327.836   129396402.121                          39.250                                                                                                                                    24623339.036   100828350.077                          36.500  
G28  20871093.082   109678318.919                          51.000                                                                    20871100.602    85463628.205                          37.500                                                                  
G13  20739884.202   108988861.130                          52.250                                                                    20739892.242    84926390.838                          42.500                                                                  
G19  21870920.596   114932489.067                          48.500                                                                    21870927.276    89557790.366                          38.000                                                                  
G 1  25754536.110   135341005.798                          33.500                                                                                                                                    25754552.230   105460522.989                          34.250  
G17  20776499.822   109181264.450                          53.750                                                                                                                                    20776507.922    85076318.599                          50.000  
G 5  24099340.460   126642857.640                          41.000                                                                                                                                    24099351.260    98682737.000                          40.500  
G20  24677723.676   129682295.878                          38.000                                                                    24677735.776   101051134.273                          18.500                                                                  
G11  25580313.330   134425449.653                          30.750                                                                    25580324.990   104747103.564                          14.750                                                                  
G15  22928790.028   120491628.244                          48.000                                                                                                                                    22928799.768    93889585.734                          45.000  
R10  21422758.540   114195353.967                          50.500                                                                                                                                    21422764.760    88818586.562                          39.750  
R 2  23472135.364   125251799.647                          43.250                                                                                                                                    23472140.304    97418065.678                          39.000  
R11  20858641.064   111462264.965                          52.250                                                                                                                                    20858647.164    86692883.509                          47.250  
R20  21547064.280   115221878.140                          44.750                                                                                                                                    21547072.620    89617023.701                          45.500  
R 8  21673494.096   116060565.766                          48.750                                                                                                                                    21673499.616    90269326.692                          45.500  
R 1  20871093.224   111567967.023                          51.250                                                                                                                                    20871101.204    86775095.880                          42.250  
R21  21214021.760   113520896.898                          48.500                                                                                                                                    21214028.700    88293798.805                          44.750  
R12  23676795.784   126477205.824                          40.000                                                                                                1                                                                                                 
> 2017 11 25 12 57 40.0000000  0 19                     
G30  22230618.112   116822657.735                          47.500                                                                                                                                    22230630.392    91030637.752                          47.000  
G 7  24623781.876   129398784.709                          39.500                                                                                                                                    24623792.916   100830206.629                          37.000  
G28  20871529.602   109680612.382                          50.500                                                                    20871537.702    85465415.317                          37.750                                                                  
G13  20739661.442   108987690.815                          52.250                                                                    20739669.782    84925478.903                          42.750                                                                  
G19  21870444.976   114929989.302                          49.000                                                                    21870451.436    89555842.497                          38.250                                                                  
G 1  25754368.470   135340127.910                          32.500                                                                                                                                    25754384.770   105459838.925                          34.500  
G17  20776176.002   109179564.691                          53.500                                                                                                                                    20776184.642    85074994.113                          50.000  
G 5  24099790.760   126645229.892                          40.250                                                                                                                                    24099802.860    98684585.505                          40.500  
G20  24677906.916   129683252.255                          38.000                                                                    24677916.836   101051879.516                          18.250                                                                  
G11  25580547.350   134426682.715                          30.500                                                                    25580560.190   104748064.341                          14.750                                                                  
G15  22928278.588   120488941.145                          48.000                                                                                                                                    22928287.408    93887491.893                          45.000  
R10  21422996.060   114196621.450                          50.750                                                                                                                                    21423002.160    88819572.377                          40.000  
R 2  23471605.284   125248972.119                          43.250                                                                                                                                    23471610.804    97415866.490                          39.250  
R11  20858501.024   111461517.106                          52.000                                                                                                                                    20858507.124    86692301.839                          47.000  
R20  21547126.100   115222205.332                          44.250                                                                                                                                    21547134.080    89617278.181                          45.250  
R 8  21674178.136   116064232.584                          48.500                                                                                                                                    21674184.236    90272178.660                          44.750  
R 1  20871237.444   111568738.007                          51.000                                                                                                                                    20871245.784    86775695.534                          42.250  
R21  21213440.720   113517778.958                          49.000                                                                                                                                    21213446.940    88291373.739                          44.750  
R12  23676418.124   126475184.444                          40.500                                                                                                1                                                                                                 
> 2017 11 25 12 57 41.0000000  0 19                     
G30  22230922.332   116824255.298                          47.500                                                                                                                                    22230934.292    91031882.605                          47.000  
G 7  24624234.936   129401167.348                          38.500                                                                                                                                    24624246.436   100832063.220                          37.500  
G28  20871965.902   109682906.050                          51.000                                                                    20871974.242    85467202.587                          38.000                                                                  
G13  20739438.822   108986520.999                          52.250                                                                    20739446.462    84924567.362                          42.500                                                                  
G19  21869968.916   114927489.889                          49.000                                                                    21869975.616    89553894.904                          38.000                                                                  
G 1  25754202.030   135339250.345                          32.500                                                                                                                                    25754218.150   105459155.118                          34.750  
G17  20775852.982   109177865.527                          53.750                                                                                                                                    20775860.902    85073670.088                          50.500  
G 5  24100243.420   126647602.175                          40.500                                                                                                                                    24100254.340    98686434.034                          40.500  
G20  24678088.276   129684208.871                          37.500                                                                    24678099.476   101052624.921                          16.750                                                                  
G11  25580782.210   134427916.130                          30.500                                                                    25580794.350   104749025.455                          14.750                                                                  
G15  22927767.308   120486254.371                          48.250                                                                                                                                    22927777.008    93885398.307                          45.000  
R10  21423234.280   114197888.914                          50.500                                                                                                                                    21423240.740    88820558.178                          39.500  
R 2  23471075.604   125246145.146                          44.000                                                                                                                                    23471081.364    97413667.731                          38.750  
R11  20858361.084   111460769.312                          52.250                                                                                                                                    20858367.544    86691720.227                          47.000  
R20  21547186.000   115222533.333                          44.250                                                                                                                                    21547195.740    89617533.294                          45.000  
R 8  21674863.736   116067899.713                          48.500                                                                                                                                    21674868.536    90275030.867                          45.000  
R 1  20871381.904   111569509.764                          51.500                                                                                                                                    20871389.664    86776295.787                          42.000  
R21  21212857.820   113514661.471                          49.500                                                                                                                                    21212863.340    88288949.029                          45.000  
R12  23676039.804   126473163.041                          40.250                                                                                                1                                                                                                 
> 2017 11 25 12 57 42.0000000  0 19                     
G30  22231226.272   116825853.094                          47.500                                                                                                                                    22231238.772    91033127.641                          47.250  
G 7  24624687.996   129403550.191                          39.000                                                                                                                                    24624698.916   100833919.969                          37.500  
G28  20872402.942   109685200.065                          51.250                                                                    20872410.502    85468990.137                          38.500                                                                  
G13  20739216.642   108985351.807                          51.750                                                                    20739224.982    84923656.299                          42.500                                                                  
G19  21869494.096   114924990.949                          48.750                                                                    21869500.256    89551947.674                          38.500                                                                  
G 1  25754033.710   135338373.212                          33.500                                                                                                                                    25754051.590   105458471.633                          34.250  
G17  20775529.582   109176167.034                          53.750                                                                                                                                    20775537.442    85072346.583                          50.250  
G 5  24100694.000   126649974.550                          40.500                                                                                                                                    24100706.200    98688282.638                          40.500  
G20  24678269.696   129685165.918                          37.500                                                                    24678281.496   101053370.692                          16.750                                                                  
G11  25581016.170   134429150.012                          30.500                                                                    25581029.850   104749986.887                          13.750                                                                  
G15  22927255.968   120483568.031                          48.000                                                                                                                                    22927265.948    93883305.055                          45.000  
R10  21423471.380   114199156.468                          50.500                                                                                                                                    21423478.540    88821544.054                          39.750  
R 2  23470545.584   125243318.763                          43.500                                                                                                                                    23470551.344    97411469.435                          38.750  
R11  20858221.664   111460021.691                          52.500                                                                                                                                    20858227.524    86691138.743                          47.000  
R20  21547248.020   115222862.290                          43.750                                                                                                                                    21547256.360    89617789.155                          45.000  
R 8  21675547.976   116071567.268                          48.500                                                                                                                                    21675553.496    90277883.410                          45.000  
R 1  20871525.744   111570282.410                          51.500                                                                                                                                    20871533.844    86776896.736                          41.750  
R21  21212275.720   113511544.559                          49.500                                                                                                                                    21212281.240    88286524.768                          44.750  
R12  23675661.724   126471141.680                          40.500                                                                                                1                                                                                                 
> 2017 11 25 12 57 43.0000000  0 19                     
G30  22231530.652   116827451.076                          47.500                                                                                                                                    22231542.272    91034372.819                          47.500  
G 7  24625141.116   129405933.076                          38.750                                                                                                                                    24625152.776   100835776.754                          37.250  
G28  20872839.042   109687494.314                          51.000                                                                    20872847.422    85470777.859                          38.250                                                                  
G13  20738993.742   108984183.158                          52.500                                                                    20739001.722    84922745.667                          42.500                                                                  
G19  21869018.616   114922492.387                          48.500                                                                    21869025.016    89550000.747                          38.500                                                                  
G 1  25753868.150   135337496.425                          34.000                                                                                                                                    25753884.110   105457788.425                          34.500  
G17  20775206.202   109174469.172                          53.750                                                                                                                                    20775214.702    85071023.577                          50.250  
G 5  24101146.320   126652346.970                          40.500                                                                                                                                    24101157.220    98690131.275                          40.500  
G20  24678452.296   129686123.272                          37.750                                                                    24678463.976   101054116.666                          17.750                                                                  
G11  25581252.070   134430384.281                          31.000                                                                    25581264.030   104750950.6511                         13.750                                                                  
G15  22926744.428   120480882.056                          48.500                                                                                                                                    22926753.928    93881212.094                          45.250  
R10  21423709.400   114200424.063                          50.250                                                                                                                                    21423716.100    88822529.965                          39.500  
R 2  23470015.524   125240492.961                          44.000                                                                                                                                    23470021.864    97409271.598                          38.750  
R11  20858081.884   111459274.154                          53.000                                                                                                                                    20858087.524    86690557.324                          46.750  
R20  21547310.140   115223192.072                          44.250                                                                                                                                    21547317.780    89618045.655                          45.000  
R 8  21676232.796   116075235.150                          48.500                                                                                                                                    21676237.956    90280736.201                          45.000  
R 1  20871670.744   111571055.850                          51.500                                                                                                                                    20871678.244    86777498.294                          41.750  
R21  21211693.060   113508428.089                          49.500                                                                                                                                    21211698.820    88284100.847                          45.000  
R12  23675283.264   126469120.327                          40.500                                                                                                1                                                                                                 
> 2017 11 25 12 57 44.0000000  0 19                     
G30  22231834.232   116829049.301                          47.500                                                                                                                                    22231846.552    91035618.186                          48.000  
G 7  24625594.876   129408316.104                          37.750                                                                                                                                    24625606.256   100837633.655                          37.500  
G28  20873276.002   109689788.864                          50.500                                                                    20873283.982    85472565.812                          38.000                                                                  
G13  20738772.082   108983015.092                          52.250                                                                    20738780.002    84921835.484                          43.000                                                                  
G19  21868543.276   114919994.248                          48.750                                                                    21868549.436    89548054.147                          38.250                                                                  
G 1  25753701.030   135336620.037                          34.000                                                                                                                                    25753717.450   105457105.534                          35.500  
G17  20774883.242   109172771.958                          53.500                                                                                                                                    20774891.802    85069701.073                          50.250  
G 5  24101597.700   126654719.456                          41.000                                                                                                                                    24101608.600    98691979.961                          40.250  
G20  24678634.976   129687081.005                          37.500                                                                    24678646.116   101054862.950                          17.750                                                                  
G11  25581487.310   134431619.004                          30.500                                                                    25581499.270   104751912.849                          12.500                                                                  
G15  22926233.948   120478196.497                          47.500                                                                                                                                    22926242.868    93879119.448                          45.250  
R10  21423947.480   114201691.718                          50.500                                                                                                                                    21423953.820    88823515.915                          39.250  
R 2  23469487.884   125237667.755                          44.250                                                                                                                                    23469492.224    97407074.215                          38.500  
R11  20857942.084   111458526.664                          53.000                                                                                                                                    20857947.604    86689975.941                          46.750  
R20  21547372.080   115223522.745                          44.500                                                                                                                                    21547380.300    89618302.847                          45.000  
R 8  21676917.696   116078903.371                          48.750                                                                                                                                    21676924.156    90283589.262                          44.750  
R 1  20871815.844   111571830.151                          51.250                                                                                                                                    20871823.724    86778100.522                          42.000  
R21  21211110.920   113505312.135                          49.500                                                                                                                                    21211116.320    88281677.329                          45.250  
R12  23674903.544   126467098.990                          40.500                                                                                                1                                                                                                 
> 2017 11 25 12 57 45.0000000  0 19                     
G30  22232138.292   116830647.704                          46.500                                                                                                                                    22232149.892    91036863.693                          47.500  
G 7  24626048.516   129410699.302                          38.000                                                                                                                                    24626059.676   100839490.692                          37.750  
G28  20873712.442   109692083.662                          50.750                                                                    20873720.422    85474353.971                          38.250                                                                  
G13  20738549.742   108981847.586                          52.250                                                                    20738557.482    84920925.741                          42.750                                                                  
G19  21868067.656   114917496.533                          48.250                                                                    21868074.056    89546107.875                          38.000                                                                  
G 1  25753534.110   135335743.970                          33.750                                                                                                                                    25753550.530   105456422.892                          35.000  
G17  20774560.602   109171075.388                          53.750                                                                                                                                    20774568.642    85068379.077                          50.500  
G 5  24102048.540   126657092.005                          40.750                                                                                                                                    24102059.860    98693828.696                          40.250  
G20  24678816.876   129688039.056                          37.250                                                                    24678828.256   101055609.487                          17.750                                                                  
G11  25581722.570   134432854.190                          29.500                                                                    25581733.710   104752875.364                          12.500                                                                  
G15  22925722.948   120475511.334                          48.000                                                                                                                                    22925732.468    93877027.115                          45.250  
R10  21424185.200   114202959.417                          50.250                                                                                                                                    21424191.660    88824501.905                          39.500  
R 2  23468957.544   125234843.122                          44.250                                                                                                                                    23468963.184    97404877.270                          38.750  
R11  20857802.444   111457779.273                          52.750                                                                                                                                    20857807.844    86689394.640                          47.250  
R20  21547434.720   115223854.295                          44.750                                                                                                                                    21547442.000    89618560.711                          44.750  
R 8  21677603.236   116082571.927                          49.000                                                                                                                                    21677608.756    90286442.583                          44.750  
R 1  20871960.644   111572605.294                          51.500                                                                                                                                    20871968.504    86778703.417                          41.500  
R21  21210530.840   113502196.750                          49.750                                                                                                                                    21210535.420    88279254.261                          45.250  
R12  23674526.224   126465077.626                          41.000                                                                                                1                                                                                                 
> 2017 11 25 12 57 46.0000000  0 19                     
G30  22232443.072   116832246.325                          47.000                                                                                                                                    22232454.872    91038109.374                          47.000  
G 7  24626501.616   129413082.571                          37.750                                                                                                                                    24626513.276   100841347.778                          37.500  
G28  20874149.462   109694378.762                          51.000                                                                    20874157.622    85476142.358                          38.500                                                                  
G13  20738327.562   108980680.655                          52.250                                                                    20738335.602    84920016.445                          43.000                                                                  
G19  21867592.196   114914999.229                          48.500                                                                    21867599.296    89544161.929                          38.250                                                                  
G 1  25753368.290   135334868.334                          34.500                                                                                                                                    25753384.290   105455740.576                          34.000  
G17  20774237.682   109169379.449                          53.500                                                                                                                                    20774246.262    85067057.564                          50.500  
G 5  24102500.320   126659464.582                          40.500                                                                                                                                    24102511.820    98695677.451                          40.250  
G20  24678999.296   129688997.477                          37.750                                                                    24679010.676   101056356.327                          17.750                                                                  
G11  25581957.630   134434089.782                          30.750                                                                    25581969.610   104753838.207                          12.500                                                                  
G15  22925211.728   120472826.560                          48.250                                                                                                                                    22925221.348    93874935.086                          45.000  
R10  21424423.200   114204227.171                          50.000                                                                                                                                    21424429.540    88825487.936                          39.500  
R 2  23468428.444   125232019.132                          44.000                                                                                                                                    23468434.424    97402680.821                          39.000  
R11  20857662.824   111457032.003                          52.500                                                                                                                                    20857668.344    86688813.429                          46.750  
R20  21547497.720   115224186.701                          44.500                                                                                                                                    21547504.660    89618819.250                          45.250  
R 8  21678287.936   116086240.832                          48.750                                                                                                                                    21678293.456    90289296.171                          44.750  
R 1  20872106.524   111573381.250                          51.000                                                                                                                                    20872114.624    86779306.936                          41.500  
R21  21209946.940   113499081.877                          49.750                                                                                                                                    21209952.920    88276831.582                          45.000  
R12  23674148.584   126463056.298                          40.750                                                                                                1                                                                                                 
> 2017 11 25 12 57 47.0000000  0 19                     
G30  22232747.032   116833845.104                          47.000                                                                                                                                    22232758.712    91039355.174                          46.750  
G 7  24626955.556   129415465.903                          38.250                                                                                                                                    24626966.936   100843204.910                          37.500  
G28  20874586.042   109696674.062                          51.000                                                                    20874593.982    85477930.903                          38.250                                                                  
G13  20738105.682   108979514.240                          52.500                                                                    20738113.542    84919107.545                          43.000                                                                  
G19  21867117.316   114912502.299                          48.500                                                                    21867123.996    89542216.269                          38.250                                                                  
G 1  25753201.870   135333993.037                          34.750                                                                                                                                    25753217.650   105455058.529                          34.000  
G17  20773914.882   109167684.117                          53.250                                                                                                                                    20773922.982    85065736.528                          50.500  
G 5  24102952.120   126661837.210                          40.500                                                                                                                                    24102963.260    98697526.248                          40.750  
G20  24679181.896   129689956.224                          38.000                                                                    24679192.796   101057103.378                          18.500                                                                  
G11  25582192.230   134435325.767                          30.500                                                                    25582204.710   104754801.324                          13.750                                                                  
G15  22924700.768   120470142.114                          48.250                                                                                                                                    22924710.268    93872843.308                          45.000  
R10  21424660.380   114205494.910                          49.500                                                                                                                                    21424667.420    88826473.953                          39.500  
R 2  23467899.304   125229195.726                          44.000                                                                                                                                    23467905.524    97400484.834                          39.000  
R11  20857522.344   111456284.780                          52.500                                                                                                                                    20857527.644    86688232.250                          47.000  
R20  21547558.640   115224519.938                          44.750                                                                                                                                    21547566.520    89619078.433                          45.250  
R 8  21678972.936   116089910.036                          48.750                                                                                                                                    21678978.336    90292149.999                          44.750  
R 1  20872250.784   111574158.015                          50.750                                                                                                                                    20872259.124    86779911.087                          41.000  
R21  21209365.180   113495967.459                          50.000                                                                                                                                    21209369.640    88274409.258                          45.000  
R12  23673770.424   126461034.931                          40.500                                                                                                1                                                                                                 
> 2017 11 25 12 57 48.0000000  0 19                     
G30  22233050.892   116835444.075                          47.000                                                                                                                                    22233062.972    91040601.127                          46.750  
G 7  24627409.196   129417849.326                          38.500                                                                                                                                    24627420.916   100845062.119                          37.500  
G28  20875022.782   109698969.637                          51.000                                                                    20875031.122    85479719.668                          38.500                                                                  
G13  20737883.822   108978348.376                          53.000                                                                    20737891.682    84918199.084                          42.750                                                                  
G19  21866641.876   114910005.758                          49.000                                                                    21866648.736    89540270.912                          38.500                                                                  
G 1  25753035.630   135333118.047                          34.250                                                                                                                                    25753051.590   105454376.723                          34.000  
G17  20773592.142   109165989.397                          53.000                                                                                                                                    20773600.702    85064415.968                          50.000  
G 5  24103402.900   126664209.866                          40.750                                                                                                                                    24103414.520    98699375.067                          40.500  
G20  24679364.876   129690915.271                          38.750                                                                    24679376.076   101057850.677                          17.750                                                                  
G11  25582426.390   134436558.1781                         29.750                                                                    25582439.930   104755759.7441                         13.750                                                                  
G15  22924190.028   120467458.063                          47.500                                                                                                                                    22924200.168    93870751.839                          45.250  
R10  21424897.940   114206762.659                          50.000                                                                                                                                    21424904.040    88827459.976                          39.250  
R 2  23467370.164   125226372.940                          44.250                                                                                                                                    23467376.624    97398289.323                          39.250  
R11  20857382.564   111455537.622                          52.000                                                                                                                                    20857388.444    86687651.129                          47.000  
R20  21547621.500   115224853.998                          44.500                                                                                                                                    21547629.720    89619338.259                          45.250  
R 8  21679658.596   116093579.556                          48.750                                                                                                                                    21679664.236    90295004.066                          45.000  
R 1  20872396.324   111574935.598                          50.750                                                                                                                                    20872404.644    86780515.872                          41.500  
R21  21208783.940   113492853.506                          49.500                                                                                                                                    21208788.400    88271987.289                          45.000  
R12  23673391.744   126459013.554                          41.000                                                                                                1                                                                                                 
> 2017 11 25 12 57 49.0000000  0 19                     
G30  22233355.752   116837043.166                          47.250                                                                                                                                    22233367.372    91041847.164                          46.750  
G 7  24627862.996   129420232.874                          38.000                                                                                                                                    24627873.736   100846919.429                          37.250  
G28  20875459.942   109701265.415                          51.000                                                                    20875468.142    85481508.583                          38.500                                                                  
G13  20737662.122   108977183.027                          52.750                                                                    20737670.522    84917291.016                          43.250                                                                  
G19  21866167.216   114907509.564                          49.000                                                                    21866173.736    89538325.819                          38.500                                                                  
G 1  25752868.730   135332243.410                          34.500                                                                                                                                    25752884.690   105453695.189                          33.250  
G17  20773270.022   109164295.265                          53.500                                                                                                                                    20773278.702    85063095.862                          50.250  
G 5  24103854.660   126666582.536                          40.500                                                                                                                                    24103866.640    98701223.896                          40.750  
G20  24679547.516   129691874.593                          38.500                                                                    24679558.596   101058598.193                          17.250                                                                  
G11  25582661.990   134437794.932                          29.000                                                                    25582675.590   104756723.410                          13.750                                                                  
G15  22923679.548   120464774.314                          48.000                                                                                                                                    22923689.408    93868660.606                          45.000  
R10  21425135.600   114208030.410                          50.000                                                                                                                                    21425143.480    88828446.007                          39.250  
R 2  23466840.564   125223550.692                          43.750                                                                                                                                    23466847.244    97396094.238                          38.750  
R11  20857242.564   111454790.506                          52.250                                                                                                                                    20857248.544    86687070.037                          47.000  
R20  21547684.580   115225188.882                          44.750                                                                                                                                    21547691.260    89619598.723                          45.000  
R 8  21680344.516   116097249.387                          49.500                                                                                                                                    21680349.436    90297858.373                          44.750  
R 1  20872542.244   111575713.959                          51.000                                                                                                                                    20872550.104    86781121.257                          41.750  
R21  21208202.100   113489740.014                          49.250                                                                                                                                    21208206.440    88269565.684                          45.000  
R12  23673011.184   126456992.145                          41.250                                                                                                1                                                                                                 
> 2017 11 25 12 57 50.0000000  0 19                     
G30  22233660.012   116838642.502                          47.250                                                                                                                                    22233672.152    91043093.398                          47.000  
G 7  24628316.276   129422616.511                          37.750                                                                                                                                    24628327.496   100848776.800                          37.750  
G28  20875896.542   109703561.498                          50.750                                                                    20875904.982    85483297.733                          38.250                                                                  
G13  20737440.262   108976018.259                          52.500                                                                    20737448.302    84916383.407                          42.500                                                                  
G19  21865692.016   114905013.792                          49.000                                                                    21865698.536    89536381.073                          38.250                                                                  
G 1  25752702.070   135331369.098                          34.750                                                                                                                                    25752718.250   105453013.905                          34.000  
G17  20772947.942   109162601.791                          53.500                                                                                                                                    20772956.222    85061776.273                          50.500  
G 5  24104306.120   126668955.216                          40.500                                                                                                                                    24104318.440    98703072.734                          40.750  
G20  24679730.416   129692834.276                          38.250                                                                    24679741.036   101059345.993                          17.250                                                                  
G11  25582897.370   134439032.135                          30.000                                                                    25582911.150   104757687.440                          12.500                                                                  
G15  22923168.608   120462090.969                          48.500                                                                                                                                    22923178.068    93866569.692                          44.500  
R10  21425373.780   114209298.210                          49.750                                                                                                                                    21425380.720    88829432.076                          39.500  
R 2  23466312.644   125220729.002                          44.250                                                                                                                                    23466318.164    97393899.594                          39.250  
R11  20857103.124   111454043.471                          52.000                                                                                                                                    20857108.284    86686489.013                          47.000  
R20  21547747.900   115225524.646                          44.500                                                                                                                                    21547754.000    89619859.870                          45.250  
R 8  21681029.156   116100919.563                          49.500                                                                                                                                    21681035.376    90300712.948                          44.750  
R 1  20872688.244   111576493.132                          50.750                                                                                                                                    20872696.104    86781727.285                          41.750  
R21  21207620.540   113486627.048                          49.750                                                                                                                                    21207624.880    88267144.490                          45.000  
R12  23672633.564   126454970.736                          41.000                                                                                                1                                                                                                 
> 2017 11 25 12 57 51.0000000  0 19                     
G30  22233964.472   116840242.032                          47.000                                                                                                                                    22233976.372    91044339.785                          47.000  
G 7  24628769.836   129425000.247                          37.500                                                                                                                                    24628781.156   100850634.241                          37.500  
G28  20876333.662   109705857.820                          50.500                                                                    20876341.702    85485087.080                          38.750                                                                  
G13  20737218.282   108974854.035                          52.000                                                                    20737226.902    84915476.217                          42.750                                                                  
G19  21865217.156   114902518.436                          49.500                                                                    21865223.796    89534436.637                          38.250                                                                  
G 1  25752536.330   135330495.254                          34.500                                                                                                                                    25752552.230   105452333.002                          34.000  
G17  20772625.542   109160908.928                          53.500                                                                                                                                    20772633.922    85060457.158                          50.500  
G 5  24104757.440   126671327.980                          40.250                                                                                                                                    24104769.600    98704921.639                          40.500  
G20  24679912.796   129693794.287                          38.250                                                                    24679923.476   101060094.041                          18.250                                                                  
G11  25583132.510   134440269.775                          29.000                                                                                                                                                                1                                 
G15  22922658.168   120459408.021                          48.500                                                                                                                                    22922667.908    93864479.082                          44.750  
R10  21425611.900   114210566.042                          49.750                                                                                                                                    21425618.580    88830418.163                          40.000  
R 2  23465783.164   125217907.845                          44.000                                                                                                                                    23465789.964    97391705.365                          39.250  
R11  20856963.464   111453296.537                          52.250                                                                                                                                    20856969.344    86685908.061                          47.000  
R20  21547809.900   115225861.294                          44.250                                                                                                                                    21547816.940    89620121.708                          45.500  
R 8  21681714.516   116104590.095                          49.250                                                                                                                                    21681720.156    90303567.812                          45.000  
R 1  20872834.004   111577273.145                          51.000                                                                                                                                    20872842.104    86782333.957                          42.000  
R21  21207037.460   113483514.578                          49.750                                                                                                                                    21207042.640    88264723.682                          45.000  
R12  23672255.104   126452949.349                          40.750                                                                                                1                                                                                                 
> 2017 11 25 12 57 52.0000000  0 19                     
G30  22234269.032   116841841.875                          46.750                                                                                                                                    22234280.692    91045586.414                          47.000  
G 7  24629223.256   129427384.220                          38.000                                                                                                                                    24629234.976   100852491.878                          38.000  
G28  20876770.522   109708154.551                          50.000                                                                    20876779.082    85486876.735                          38.500                                                                  
G13  20736997.322   108973690.510                          52.250                                                                    20737005.422    84914569.576                          42.750                                                                  
G19  21864742.676   114900023.613                          49.000                                                                    21864748.896    89532492.623                          38.500                                                                  
G 1  25752369.190   135329621.815                          35.000                                                                                                                                    25752386.190   105451652.398                          33.500  
G17  20772303.782   109159216.854                          53.750                                                                                                                                    20772312.422    85059138.656                          50.500  
G 5  24105208.880   126673700.938                          40.500                                                                                                                                    24105220.960    98706770.696                          40.500  
G20  24680094.616   129694754.779                          38.250                                                                    24680106.056   101060842.499                          17.750                                                                  
G11  25583368.170   134441508.032                          29.750                                                                                                                                                                1                                 
G15  22922148.268   120456725.581                          48.000                                                                                                                                    22922157.428    93862388.870                          45.000  
R10  21425850.020   114211834.031                          50.000                                                                                                                                    21425857.300    88831404.374                          39.750  
R 2  23465254.864   125215087.401                          43.750                                                                                                                                    23465260.724    97389511.693                          39.250  
R11  20856823.544   111452549.865                          52.250                                                                                                                                    20856829.064    86685327.322                          46.750  
R20  21547873.300   115226198.927                          44.000                                                                                                                                    21547880.460    89620384.313                          45.000  
R 8  21682400.176   116108261.072                          49.000                                                                                                                                    21682405.816    90306423.014                          45.000  
R 1  20872979.484   111578054.128                          50.750                                                                                                                                    20872988.304    86782941.391                          42.000  
R21  21206456.740   113480402.774                          50.000                                                                                                                                    21206461.660    88262303.392                          44.750  
R12  23671876.724   126450928.105                          40.750                                                                                                1                                                                                                 
> 2017 11 25 12 57 53.0000000  0 19                     
G30  22234573.412   116843441.866                          47.000                                                                                                                                    22234585.212    91046833.159                          47.000  
G 7  24629677.216   129429768.265                          37.750                                                                                                                                    24629688.256   100854349.563                          38.250  
G28  20877207.962   109710451.493                          50.000                                                                    20877216.062    85488666.560                          38.500                                                                  
G13  20736775.942   108972527.481                          52.750                                                                    20736784.522    84913663.320                          42.750                                                                  
G19  21864267.916   114897529.114                          49.000                                                                    21864274.616    89530548.853                          38.750                                                                  
G 1  25752204.050   135328748.669                          35.000                                                                                                                                    25752219.650   105450972.027                          33.000  
G17  20771981.822   109157525.335                          53.750                                                                                                                                    20771990.402    85057820.595                          50.250  
G 5  24105660.540   126676073.884                          40.750                                                                                                                                    24105673.040    98708619.742                          40.500  
G20  24680278.276   129695715.559                          38.000                                                                    24680289.436   101061591.159                          17.750                                                                  
G11  25583603.670   134442746.513                          29.250                                                                                                                                                                1                                 
G15  22921637.548   120454043.479                          48.000                                                                                                                                    22921647.888    93860298.923                          44.750  
R10  21426087.840   114213102.001                          50.000                                                                                                                                    21426094.760    88832390.580                          39.500  
R 2  23464725.664   125212267.485                          43.500                                                                                                                                    23464731.884    97387318.425                          39.750  
R11  20856683.844   111451803.198                          52.750                                                                                                                                    20856689.484    86684746.579                          46.250  
R20  21547936.220   115226537.354                          44.000                                                                                                                                    21547943.500    89620647.536                          45.250  
R 8  21683086.136   116111932.273                          49.500                                                                                                                                    21683091.196    90309278.395                          45.250  
R 1  20873126.324   111578835.864                          50.750                                                                                                                                    20873134.544    86783549.414                          41.750  
R21  21205875.460   113477291.384                          50.500                                                                                                                                    21205879.440    88259883.426                          45.000  
R12  23671498.744   126448906.758                          40.500                                                                                                1                                                                                                 
> 2017 11 25 12 57 54.0000000  0 19                     
G30  22234878.052   116845042.008                          46.750                                                                                                                                    22234889.892    91048080.022                          47.250  
G 7  24630131.316   129432152.369                          38.000                                                                                                                                    24630142.416   100856207.296                          37.500  
G28  20877644.822   109712748.669                          50.250                                                                    20877652.982    85490456.569                          38.500                                                                  
G13  20736554.742   108971365.007                          52.750                                                                    20736562.722    84912757.494                          42.250                                                                  
G19  21863793.296   114895035.016                          49.000                                                                    21863799.696    89528605.401                          38.250                                                                  
G 1  25752038.470   135327875.895                          35.500                                                                                                                                    25752053.890   105450291.943                          32.250  
G17  20771660.002   109155834.435                          54.250                                                                                                                                    20771668.402    85056503.011                          50.500  
G 5  24106111.840   126678446.876                          41.250                                                                                                                                    24106124.320    98710468.825                          39.750  
G20  24680460.736   129696676.632                          38.750                                                                    24680472.116   101062340.039                          17.750                                                                  
G11  25583839.410   134443985.461                          29.500                                                                                                                                                                1                                 
G15  22921127.328   120451361.740                          48.250                                                                                                                                    22921136.128    93858209.258                          45.000  
R10  21426325.480   114214370.001                          50.000                                                                                                                                    21426332.880    88833376.798                          39.250  
R 2  23464197.624   125209448.191                          43.500                                                                                                                                    23464203.964    97385125.634                          39.500  
R11  20856544.264   111451056.595                          52.500                                                                                                                                    20856549.784    86684165.884                          46.250  
R20  21548000.040   115226876.665                          44.250                                                                                                                                    21548007.440    89620911.449                          45.250  
R 8  21683771.336   116115603.799                          49.500                                                                                                                                    21683777.196    90312134.022                          45.250  
R 1  20873272.284   111579618.405                          50.500                                                                                                                                    20873280.384    86784158.057                          42.250  
R21  21205293.160   113474180.497                          50.000                                                                                                                                    21205299.260    88257463.848                          45.000  
R12  23671120.024   126446885.442                          40.500                                                                                                1                                                                                                 
> 2017 11 25 12 57 55.0000000  0 19                     
G30  22235182.152   116846642.411                          46.750                                                                                                                                    22235194.232    91049327.091                          47.500  
G 7  24630584.996   129434536.621                          38.000                                                                                                                                    24630596.616   100858065.144                          37.500  
G28  20878082.002   109715046.141                          50.000                                                                    20878090.202    85492246.805                          38.250                                                                  
G13  20736333.782   108970203.100                          52.750                                                                    20736342.002    84911852.110                          42.500                                                                  
G19  21863318.596   114892541.352                          48.750                                                                    21863325.056    89526662.290                          38.250                                                                  
G 1  25751873.070   135327003.554                          36.000                                                                                                                                    25751887.910   105449612.198                          32.750  
G17  20771338.382   109154144.211                          53.750                                                                                                                                    20771347.062    85055185.955                          50.000  
G 5  24106563.800   126680819.911                          41.250                                                                                                                                    24106575.820    98712317.943                          39.750  
G20  24680643.616   129697638.093                          38.000                                                                    24680654.696   101063089.213                          17.750                                                                  
G11  25584075.590   134445224.822                          30.250                                                                                                                                                                1                                 
G15  22920617.008   120448680.395                          48.250                                                                                                                                    22920625.628    93856119.902                          45.000  
R10  21426562.720   114215638.102                          50.000                                                                                                                                    21426570.480    88834363.104                          39.500  
R 2  23463669.764   125206629.596                          43.500                                                                                                                                    23463676.104    97382933.394                          39.000  
R11  20856404.764   111450310.116                          52.750                                                                                                                                    20856409.924    86683585.291                          46.000  
R20  21548063.120   115227216.830                          44.500                                                                                                                                    21548070.740    89621176.024                          45.250  
R 8  21684457.796   116119275.699                          48.750                                                                                                                                    21684462.616    90314989.947                          44.750  
R 1  20873419.344   111580401.799                          50.750                                                                                                                                    20873427.324    86784767.364                          42.000  
R21  21204713.280   113471070.159                          50.000                                                                                                                                    21204717.740    88255044.698                          44.500  
R12  23670742.764   126444864.089                          40.250                                                                                                1                                                                                                 
> 2017 11 25 12 57 56.0000000  0 19                     
G30  22235487.012   116848243.008                          46.250                                                                                                                                    22235498.752    91050574.307                          47.500  
G 7  24631038.636   129436921.012                          37.750                                                                                                                                    24631050.256   100859923.101                          37.500  
G28  20878519.142   109717343.906                          49.750                                                                    20878527.762    85494037.269                          38.250                                                                  
G13  20736112.682   108969041.795                          52.750                                                                    20736120.782    84910947.199                          42.500                                                                  
G19  21862844.436   114890048.092                          48.500                                                                    21862850.656    89524719.484                          38.250                                                                  
G 1  25751706.190   135326131.580                          35.500                                                                                                                                    25751721.430   105448932.747                          33.500  
G17  20771016.862   109152454.617                          53.500                                                                                                                                    20771025.502    85053869.387                          49.750  
G 5  24107015.200   126683193.030                          42.000                                                                                                                                    24107027.280    98714167.124                          40.000  
G20  24680826.476   129698599.867                          37.500                                                                    24680838.136   101063838.655                          18.250                                                                  
G11  25584311.690   134446464.632                          29.500                                                                                                                                                                1                                 
G15  22920106.248   120445999.441                          47.500                                                                                                                                    22920116.328    93854030.851                          45.000  
R10  21426800.720   114216906.216                          49.750                                                                                                                                    21426808.700    88835349.411                          39.500  
R 2  23463141.384   125203811.601                          43.500                                                                                                                                    23463148.184    97380741.622                          39.500  
R11  20856264.704   111449563.727                          52.750                                                                                                                                    20856270.564    86683004.768                          45.750  
R20  21548127.240   115227557.890                          44.500                                                                                                                                    21548134.280    89621441.287                          45.250  
R 8  21685142.696   116122947.945                          48.750                                                                                                                                    21685148.676    90317846.125                          45.000  
R 1  20873565.844   111581186.054                          50.500                                                                                                                                    20873573.944    86785377.335                          42.250  
R21  21204131.400   113467960.311                          49.500                                                                                                                                    21204137.380    88252625.934                          44.250  
R12  23670364.244   126442842.785                          40.000                                                                                                1                                                                                                 
> 2017 11 25 12 57 57.0000000  0 19                     
G30  22235791.732   116849843.818                          46.500                                                                                                                                    22235803.752    91051821.687                          47.250  
G 7  24631493.216   129439305.489                          38.000                                                                                                                                    24631503.896   100861781.123                          38.000  
G28  20878956.222   109719641.935                          49.500                                                                    20878965.142    85495827.941                          37.750                                                                  
G13  20735891.862   108967881.031                          52.500                                                                    20735900.082    84910042.708                          42.500                                                                  
G19  21862370.376   114887555.256                          49.000                                                                    21862376.656    89522777.016                          38.750                                                                  
G 1  25751540.930   135325259.951                          36.000                                                                                                                                    25751555.890   105448253.566                          33.000  
G17  20770695.162   109150765.675                          53.750                                                                                                                                    20770704.022    85052553.334                          49.750  
G 5  24107466.300   126685566.191                          41.500                                                                                                                                    24107479.220    98716016.343                          40.000  
G20  24681009.576   129699562.025                          37.500                                                                    24681021.016   101064588.384                          17.750                                                                  
G11  25584547.690   134447704.888                          28.750                                                                                                                                                                1                                 
G15  22919596.788   120443318.900                          47.500                                                                                                                                    22919605.828    93851942.116                          44.500  
R10  21427038.720   114218174.397                          50.000                                                                                                                                    21427045.400    88836335.768                          39.500  
R 2  23462612.704   125200994.220                          43.750                                                                                                                                    23462620.564    97378550.322                          39.250  
R11  20856124.904   111448817.469                          52.500                                                                                                                                    20856130.524    86682424.347                          46.250  
R20  21548190.460   115227899.817                          44.250                                                                                                                                    21548199.260    89621707.232                          45.500  
R 8  21685828.356   116126620.558                          49.000                                                                                                                                    21685834.356    90320702.600                          45.000  
R 1  20873712.224   111581971.142                          50.500                                                                                                                                    20873721.264    86785987.961                          42.250  
R21  21203551.880   113464850.998                          50.000                                                                                                                                    21203555.760    88250207.571                          44.000  
R12  23669985.924   126440821.496                          40.250                                                                                                1                                                                                                 
> 2017 11 25 12 57 58.0000000  0 19                     
G30  22236096.392   116851444.838                          46.500                                                                                                                                    22236108.372    91053069.234                          47.500  
G 7  24631946.896   129441690.090                          38.000                                                                                                                                    24631957.636   100863639.246                          37.500  
G28  20879393.942   109721940.259                          49.750                                                                    20879402.322    85497618.839                          38.000                                                                  
G13  20735670.962   108966720.859                          52.750                                                                    20735679.122    84909138.679                          42.500                                                                  
G19  21861896.076   114885062.853                          49.000                                                                    21861902.716    89520834.892                          39.000                                                                  
G 1  25751374.450   135324388.753                          36.000                                                                                                                                    25751390.510   105447574.716                          33.500  
G17  20770373.842   109149077.392                          53.750                                                                                                                                    20770382.942    85051237.781                          50.000  
G 5  24107918.260   126687939.391                          41.250                                                                                                                                    24107930.640    98717865.594                          40.000  
G20  24681192.656   129700524.526                          37.500                                                                    24681204.816   101065338.406                          17.250                                                                  
G11  25584783.850   134448945.547                          30.000                                                                                                                                                                1                                 
G15  22919085.928   120440638.743                          47.750                                                                                                                                    22919096.308    93849853.680                          44.500  
R10  21427276.920   114219442.620                          50.000                                                                                                                                    21427284.560    88837322.166                          39.250  
R 2  23462084.984   125198177.405                          43.750                                                                                                                                    23462092.844    97376359.467                          39.000  
R11  20855985.404   111448071.283                          52.750                                                                                                                                    20855990.924    86681843.980                          46.250  
R20  21548255.380   115228242.634                          43.500                                                                                                                                    21548262.540    89621973.869                          45.500  
R 8  21686514.556   116130293.542                          49.000                                                                                                                                    21686520.536    90323559.357                          44.750  
R 1  20873859.944   111582757.080                          50.750                                                                                                                                    20873868.044    86786599.240                          42.250  
R21  21202969.520   113461742.188                          50.000                                                                                                                                    21202973.040    88247789.609                          44.000  
R12  23669606.764   126438800.191                          40.000                                                                                                1                                                                                                 
> 2017 11 25 12 57 59.0000000  0 19                     
G30  22236401.132   116853045.934                          47.000                                                                                                                                    22236413.032    91054316.839                          47.500  
G 7  24632400.216   129444074.712                          37.750                                                                                                                                    24632411.616   100865497.391                          37.500  
G28  20879830.862   109724238.699                          49.500                                                                    20879840.062    85499409.827                          38.500                                                                  
G13  20735450.382   108965561.128                          52.500                                                                    20735458.482    84908234.986                          42.500                                                                  
G19  21861421.616   114882570.731                          49.500                                                                    21861427.956    89518892.973                          38.250                                                                  
G 1  25751209.130   135323517.765                          36.250                                                                                                                                    25751224.730   105446896.024                          33.000  
G17  20770053.162   109147389.609                          54.000                                                                                                                                    20770061.382    85049922.631                          50.000  
G 5  24108370.160   126690312.570                          41.000                                                                                                                                    24108382.660    98719714.824                          40.500  
G20  24681376.256   129701487.252                          37.750                                                                    24681387.396   101066088.569                          17.250                                                                  
G11  25585020.890   134450186.589                          30.250                                                                                                                                                                1                                 
G15  22918576.628   120437958.874                          48.000                                                                                                                                    22918586.328    93847765.479                          44.500  
R10  21427515.080   114220710.758                          50.000                                                                                                                                    21427522.000    88838308.498                          39.500  
R 2  23461557.584   125195361.024                          43.750                                                                                                                                    23461564.984    97374168.951                          38.750  
R11  20855845.564   111447325.062                          52.500                                                                                                                                    20855851.664    86681263.583                          46.500  
R20  21548319.200   115228586.154                          43.750                                                                                                                                    21548326.720    89622241.050                          45.250  
R 8  21687199.876   116133966.712                          48.500                                                                                                                                    21687206.336    90326416.269                          44.500  
R 1  20874007.124   111583543.713                          50.750                                                                                                                                    20874015.344    86787211.068                          42.000  
R21  21202388.440   113458633.808                          50.000                                                                                                                                    21202392.660    88245371.981                          44.000  
R12  23669229.184   126436778.774                          40.250                                                                                                1                                                                                                 
> 2017 11 25 12 58  0.0000000  0 19                     
G30  22236706.192   116854647.285                          47.500                                                                                                                                    22236717.992    91055564.641                          47.000  
G 7  24632854.556   129446459.458                          37.750                                                                                                                                    24632865.476   100867355.640                          37.500  
G28  20880268.762   109726537.464                          49.750                                                                    20880277.502    85501201.075                          38.500                                                                  
G13  20735229.802   108964401.993                          52.750                                                                    20735237.782    84907331.771                          42.500                                                                  
G19  21860947.476   114880079.051                          49.250                                                                    21860953.696    89516951.408                          38.500                                                                  
G 1  25751043.010   135322647.184                          37.000                                                                                                                                    25751058.550   105446217.652                          33.500  
G17  20769732.162   109145702.522                          54.000                                                                                                                                    20769740.602    85048608.016                          50.500  
G 5  24108821.020   126692685.839                          41.000                                                                                                                                    24108834.100    98721564.121                          40.500  
G20  24681559.236   129702450.347                          38.000                                                                    24681570.856   101066839.035                          17.750                                                                  
G11  25585257.310   134451428.036                          30.500                                                                                                                                                                1                                 
G15  22918066.328   120435279.408                          48.250                                                                                                                                    22918076.248    93845677.585                          45.000  
R10  21427752.340   114221978.985                          49.750                                                                                                                                    21427759.860    88839294.896                          39.250  
R 2  23461030.064   125192545.201                          44.000                                                                                                                                    23461036.864    97371978.866                          39.250  
R11  20855706.344   111446578.975                          52.500                                                                                                                                    20855712.224    86680683.293                          46.500  
R20  21548383.000   115228930.645                          44.000                                                                                                                                    21548391.220    89622508.985                          44.750  
R 8  21687886.236   116137640.232                          49.250                                                                                                                                    21687891.636    90329273.454                          44.500  
R 1  20874155.004   111584331.234                          50.250                                                                                                                                    20874162.284    86787823.580                          42.000  
R21  21201807.680   113455525.934                          50.000                                                                                                                                    21201813.420    88242954.746                          44.250  
R12  23668849.484   126434757.421                          40.000                                                                                                1                                                                                                 
> 2017 11 25 12 58  1.0000000  0 19                     
G30  22237010.912   116856248.842                          47.750                                                                                                                                    22237022.412    91056812.603                          47.000  
G 7  24633307.576   129448844.364                          37.750                                                                                                                                    24633319.236   100869214.007                          37.500  
G28  20880706.122   109728836.519                          49.500                                                                    20880714.702    85502992.544                          38.500                                                                  
G13  20735009.302   108963243.460                          52.500                                                                    20735017.002    84906429.013                          42.500                                                                  
G19  21860473.216   114877587.796                          49.000                                                                    21860479.896    89515010.171                          38.000                                                                  
G 1  25750877.510   135321777.003                          36.000                                                                                                                                    25750893.050   105445539.582                          33.500  
G17  20769411.302   109144016.091                          54.250                                                                                                                                    20769419.742    85047293.914                          50.500  
G 5  24109273.480   126695059.152                          41.250                                                                                                                                    24109285.860    98723413.456                          40.500  
G20  24681741.616   129703413.805                          36.750                                                                    24681754.396   101067589.788                          18.250                                                                  
G11  25585493.870   134452669.972                          30.500                                                                                                                                                                1                                 
G15  22917557.208   120432600.349                          48.250                                                                                                                                    22917566.408    93843590.006                          45.000  
R10  21427990.420   114223247.259                          50.250                                                                                                                                    21427997.120    88840281.331                          39.250  
R 2  23460502.784   125189730.019                          43.500                                                                                                                                    23460508.784    97369789.280                          39.000  
R11  20855567.584   111445832.993                          52.500                                                                                                                                    20855572.644    86680103.084                          46.500  
R20  21548448.700   115229276.013                          43.500                                                                                                                                    21548455.280    89622777.610                          45.000  
R 8  21688571.936   116141314.114                          49.250                                                                                                                                    21688577.456    90332130.917                          44.750  
R 1  20874301.724   111585119.577                          50.500                                                                                                                                    20874310.184    86788436.736                          42.250  
R21  21201226.480   113452418.572                          50.000                                                                                                                                    21201232.120    88240537.908                          44.250  
R12  23668471.464   126432736.074                          40.000                                                                                                1                                                                                                 
> 2017 11 25 12 58  2.0000000  0 19                     
G30  22237315.732   116857850.663                          47.500                                                                                                                                    22237326.892    91058060.780                          46.750  
G 7  24633761.616   129451229.438                          37.750                                                                                                                                    24633773.236   100871072.500                          37.500  
G28  20881143.522   109731135.907                          49.750                                                                    20881152.322    85504784.270                          38.250                                                                  
G13  20734789.022   108962085.536                          52.000                                                                    20734796.462    84905526.735                          42.750                                                                  
G19  21859999.276   114875097.017                          49.250                                                                    21860005.676    89513069.304                          38.000                                                                  
G 1  25750711.770   135320907.245                          36.250                                                                                                                                    25750727.370   105444861.850                          33.750  
G17  20769090.162   109142330.371                          54.000                                                                                                                                    20769098.442    85045980.368                          50.250  
G 5  24109724.920   126697432.605                          41.000                                                                                                                                    24109737.360    98725262.901                          40.500  
G20  24681925.576   129704377.642                          37.000                                                                    24681937.656   101068340.824                          17.750                                                                  
G11  25585729.990   134453912.373                          30.000                                                                                                                                                                1                                 
G15  22917047.208   120429921.741                          48.250                                                                                                                                    22917056.368    93841502.780                          45.000  
R10  21428228.860   114224515.663                          50.000                                                                                                                                    21428235.200    88841267.869                          39.250  
R 2  23459974.724   125186915.527                          43.500                                                                                                                                    23459981.424    97367600.231                          38.500  
R11  20855427.204   111445087.218                          52.500                                                                                                                                    20855433.084    86679523.043                          46.500  
R20  21548513.140   115229622.292                          43.750                                                                                                                                    21548521.000    89623046.939                          45.250  
R 8  21689259.176   116144988.419                          48.750                                                                                                                                    21689263.996    90334988.704                          44.750  
R 1  20874450.004   111585908.811                          50.750                                                                                                                                    20874457.504    86789050.587                          42.250  
R21  21200646.140   113449311.784                          49.500                                                                                                                                    21200650.600    88238121.526                          44.500  
R12  23668093.704   126430714.825                          39.500                                                                                                1                                                                                                 
> 2017 11 25 12 58  3.0000000  0 19                     
G30  22237620.592   116859452.671                          47.500                                                                                                                                    22237631.372    91059309.095                          47.000  
G 7  24634215.416   129453614.604                          37.750                                                                                                                                    24634226.976   100872931.068                          37.500  
G28  20881581.322   109733435.547                          49.750                                                                    20881590.122    85506576.198                          38.250                                                                  
G13  20734568.782   108960928.191                          51.750                                                                    20734576.582    84904624.908                          43.000                                                                  
G19  21859525.476   114872606.638                          49.250                                                                    21859532.636    89511128.752                          38.000                                                                  
G 1  25750546.370   135320037.838                          36.500                                                                                                                                    25750561.910   105444184.391                          34.000  
G17  20768769.402   109140645.267                          53.500                                                                                                                                    20768777.682    85044667.298                          50.000  
G 5  24110175.780   126699806.118                          41.500                                                                                                                                    24110188.500    98727112.384                          40.250  
G20  24682109.276   129705341.862                          37.500                                                                    24682120.936   101069092.166                          18.250                                                                  
G11  25585966.790   134455155.217                          30.250                                                                                                                                                                1                                 
G15  22916537.408   120427243.521                          48.250                                                                                                                                    22916546.908    93839415.857                          44.750  
R10  21428466.340   114225784.073                          50.000                                                                                                                                    21428473.260    88842254.406                          39.000  
R 2  23459447.344   125184101.729                          44.000                                                                                                                                    23459454.624    97365411.722                          38.500  
R11  20855287.644   111444341.527                          52.000                                                                                                                                    20855293.744    86678943.055                          46.750  
R20  21548578.120   115229969.459                          43.750                                                                                                                                    21548585.640    89623316.951                          45.500  
R 8  21689945.196   116148663.061                          48.750                                                                                                                                    21689951.056    90337846.759                          44.750  
R 1  20874597.604   111586698.895                          50.500                                                                                                                                    20874605.364    86789665.094                          42.000  
R21  21200064.620   113446205.543                          49.500                                                                                                                                    21200070.860    88235705.562                          44.500  
R12  23667715.684   126428693.555                          39.750                                                                                                1                                                                                                 
> 2017 11 25 12 58  4.0000000  0 19                     
G30  22237925.672   116861054.803                          47.250                                                                                                                                    22237936.832    91060557.510                          46.500  
G 7  24634669.636   129455999.780                          38.000                                                                                                                                    24634681.836   100874789.641                          37.500  
G28  20882018.762   109735735.368                          49.750                                                                    20882027.622    85508368.265                          38.250                                                                  
G13  20734348.722   108959771.303                          51.750                                                                    20734356.282    84903723.441                          43.000                                                                  
G19  21859051.256   114870116.550                          49.000                                                                    21859058.476    89509188.420                          37.500                                                                  
G 1  25750380.350   135319168.727                          36.750                                                                                                                                    25750396.190   105443507.169                          33.500  
G17  20768449.082   109138960.708                          53.750                                                                                                                                    20768457.362    85043354.656                          50.250  
G 5  24110627.900   126702179.552                          42.000                                                                                                                                    24110640.520    98728961.809                          40.750  
G20  24682292.916   129706306.274                          37.500                                                                    24682304.536   101069843.623                          17.750                                                                  
G11  25586202.950   134456398.343                          30.750                                                                                                                                                                1                                 
G15  22916027.348   120424565.575                          48.750                                                                                                                                    22916037.148    93837329.142                          45.250  
R10  21428705.360   114227052.430                          50.250                                                                                                                                    21428712.280    88843240.901                          39.250  
R 2  23458920.324   125181288.428                          43.250                                                                                                                                    23458927.604    97363223.600                          38.500  
R11  20855148.124   111443595.809                          52.500                                                                                                                                    20855153.884    86678363.054                          46.750  
R20  21548643.160   115230317.359                          44.000                                                                                                                                    21548650.920    89623587.542                          45.250  
R 8  21690631.796   116152337.922                          49.000                                                                                                                                    21690636.836    90340704.974                          45.250  
R 1  20874745.224   111587489.695                          50.750                                                                                                                                    20874752.964    86790280.163                          41.500  
R21  21199484.600   113443099.700                          49.500                                                                                                                                    21199490.360    88233289.898                          45.000  
R12  23667336.224   126426672.189                          40.500                                                                                                1                                                                                                 
> 2017 11 25 12 58  5.0000000  0 19                     
G30  22238230.312   116862657.142                          47.000                                                                                                                                    22238241.872    91061806.088                          46.500  
G 7  24635123.416   129458385.101                          37.500                                                                                                                                    24635135.456   100876648.329                          37.500  
G28  20882456.962   109738035.466                          49.750                                                                    20882465.162    85510160.546                          38.500                                                                  
G13  20734128.922   108958614.993                          52.000                                                                    20734136.482    84902822.412                          43.000                                                                  
G19  21858577.676   114867626.919                          49.000                                                                    21858584.596    89507248.454                          38.250                                                                  
G 1  25750215.510   135318300.038                          36.500                                                                                                                                    25750230.710   105442830.269                          33.250  
G17  20768128.462   109137276.808                          53.750                                                                                                                                    20768137.162    85042042.529                          50.000  
G 5  24111079.640   126704553.083                          41.250                                                                                                                                    24111092.140    98730811.318                          40.250  
G20  24682476.016   129707271.067                          37.500                                                                    24682487.816   101070595.379                          19.000                                                                  
G11  25586439.130   134457641.958                          32.000                                                                                                                                                                1                                 
G15  22915518.248   120421888.067                          48.750                                                                                                                                    22915527.328    93835242.772                          45.250  
R10  21428943.280   114228320.840                          50.000                                                                                                                                    21428949.160    88844227.438                          39.250  
R 2  23458393.424   125178475.769                          43.500                                                                                                                                    23458400.244    97361035.971                          38.500  
R11  20855008.584   111442850.171                          52.500                                                                                                                                    20855014.924    86677783.113                          46.750  
R20  21548709.100   115230666.178                          44.000                                                                                                                                    21548715.660    89623858.846                          44.750  
R 8  21691318.536   116156013.146                          49.000                                                                                                                                    21691323.476    90343563.479                          45.250  
R 1  20874893.844   111588281.358                          51.000                                                                                                                                    20874900.884    86790895.893                          41.750  
R21  21198904.000   113439994.402                          49.500                                                                                                                                    21198910.700    88230874.667                          44.750  
R12  23666956.724   126424650.892                          39.750                                                                                                1                                                                                                 
> 2017 11 25 12 58  6.0000000  0 19                     
G30  22238535.712   116864259.641                          47.250                                                                                                                                    22238546.792    91063054.780                          47.000  
G 7  24635576.116   129460770.493                          37.750                                                                                                                                    24635588.616   100878507.068                          38.250  
G28  20882894.282   109740335.800                          49.500                                                                    20882903.322    85511953.014                          37.750                                                                  
G13  20733908.942   108957459.219                          52.250                                                                    20733916.862    84901921.811                          43.250                                                                  
G19  21858104.056   114865137.640                          49.000                                                                    21858110.996    89505308.752                          38.000                                                                  
G 1  25750050.230   135317431.635                          35.750                                                                                                                                    25750066.190   105442153.595                          33.500  
G17  20767808.162   109135593.528                          54.000                                                                                                                                    20767816.622    85040730.886                          50.000  
G 5  24111531.840   126706926.623                          41.500                                                                                                                                    24111543.620    98732660.833                          40.000  
G20  24682660.856   129708236.209                          37.500                                                                    24682671.956   101071347.461                          17.750                                                                  
G11  25586675.730   134458885.909                          33.000                                                                                                                                                                1                                 
G15  22915009.068   120419210.891                          49.000                                                                                                                                    22915017.988    93833156.671                          45.250  
R10  21429180.420   114229589.272                          49.750                                                                                                                                    21429187.340    88845213.998                          39.250  
R 2  23457865.924   125175663.564                          43.000                                                                                                                                    23457872.484    97358848.702                          38.500  
R11  20854868.784   111442104.589                          52.250                                                                                                                                    20854875.124    86677203.214                          46.750  
R20  21548773.800   115231015.819                          44.250                                                                                                                                    21548781.300    89624130.789                          45.250  
R 8  21692004.136   116159688.634                          48.750                                                                                                                                    21692009.176    90346422.194                          45.000  
R 1  20875041.884   111589073.824                          51.250                                                                                                                                    20875049.404    86791512.255                          41.750  
R21  21198323.540   113436889.536                          49.250                                                                                                                                    21198329.300    88228459.769                          45.250  
R12  23666577.964   126422629.493                          39.500                                                                                                1                                                                                                 
> 2017 11 25 12 58  7.0000000  0 19                     
G30  22238840.372   116865862.516                          47.000                                                                                                                                    22238852.032    91064303.772                          47.500  
G 7  24636030.996   129463156.161                          37.750                                                                                                                                    24636042.376   100880366.022                          38.500  
G28  20883332.422   109742636.557                          49.250                                                                    20883340.922    85513745.812                          38.000                                                                  
G13  20733689.182   108956304.170                          52.250                                                                    20733696.862    84901021.774                          43.500                                                                  
G19  21857630.316   114862648.939                          49.000                                                                    21857637.576    89503369.511                          38.000                                                                  
G 1  25749884.610   135316563.758                          35.000                                                                                                                                    25749900.510   105441477.328                          33.500  
G17  20767488.082   109133911.018                          53.750                                                                                                                                    20767496.602    85039419.833                          50.500  
G 5  24111983.080   126709300.364                          41.750                                                                                                                                    24111995.240    98734510.500                          39.750  
G20  24682844.196   129709201.762                          37.250                                                                    24682855.516   101072099.827                          18.250                                                                  
G11  25586911.790   134460130.477                          31.500                                                                                                                                                                1                                 
G15  22914499.608   120416534.260                          49.000                                                                                                                                    22914508.648    93831070.991                          45.000  
R10  21429419.180   114230857.898                          49.750                                                                                                                                    21429426.100    88846200.705                          39.500  
R 2  23457339.124   125172852.109                          43.250                                                                                                                                    23457346.744    97356662.017                          38.250  
R11  20854729.184   111441359.290                          52.250                                                                                                                                    20854735.284    86676623.537                          47.000  
R20  21548838.240   115231366.499                          44.000                                                                                                                                    21548846.820    89624403.544                          45.500  
R 8  21692691.256   116163364.625                          49.250                                                                                                                                    21692696.076    90349281.294                          45.250  
R 1  20875189.944   111589867.275                          51.000                                                                                                                                    20875198.284    86792129.384                          41.500  
R21  21197743.840   113433785.365                          49.500                                                                                                                                    21197750.180    88226045.414                          45.250  
R12  23666201.224   126420608.357                          40.500                                                                                                1                                                                                                 
> 2017 11 25 12 58  8.0000000  0 19                     
G30  22239145.372   116867465.512                          47.250                                                                                                                                    22239156.572    91065552.858                          47.000  
G 7  24636485.696   129465541.874                          38.000                                                                                                                                    24636496.376   100882225.008                          38.000  
G28  20883770.302   109744937.522                          49.500                                                                    20883778.642    85515538.771                          37.500                                                                  
G13  20733469.062   108955149.602                          52.250                                                                    20733477.082    84900122.109                          42.500                                                                  
G19  21857156.556   114860160.585                          49.250                                                                    21857163.536    89501430.530                          37.750                                                                  
G 1  25749719.850   135315696.186                          35.500                                                                                                                                    25749735.630   105440801.293                          32.750  
G17  20767167.922   109132229.097                          53.500                                                                                                                                    20767176.442    85038109.247                          50.500  
G 5  24112434.860   126711674.087                          41.750                                                                                                                                    24112446.880    98736360.152                          40.500  
G20  24683028.256   129710167.635                          37.250                                                                    24683039.396   101072852.453                          18.250                                                                  
G11  25587148.630   134461375.364                          30.750                                                                                                                                                                1                                 
G15  22913990.428   120413857.939                          49.000                                                                                                                                    22913999.868    93828985.544                          45.000  
R10  21429656.220   114232126.489                          49.500                                                                                                                                    21429663.500    88847187.379                          39.750  
R 2  23456813.224   125170041.182                          43.250                                                                                                                                    23456819.684    97354475.740                          38.000  
R11  20854589.804   111440614.015                          52.250                                                                                                                                    20854595.684    86676043.881                          46.750  
R20  21548904.600   115231717.957                          44.000                                                                                                                                    21548912.120    89624676.894                          45.500  
R 8  21693377.156   116167040.895                          49.750                                                                                                                                    21693382.316    90352140.611                          45.250  
R 1  20875338.744   111590661.475                          50.750                                                                                                                                    20875346.484    86792747.091                          41.750  
R21  21197164.560   113430681.625                          49.250                                                                                                                                    21197170.440    88223631.394                          45.500  
R12  23665823.464   126418587.095                          40.250                                                                                                1                                                                                                 
> 2017 11 25 12 58  9.0000000  0 19                     
G30  22239450.012   116869068.629                          47.250                                                                                                                                    22239461.752    91066802.040                          47.000  
G 7  24636939.356   129467927.599                          37.750                                                                                                                                    24636950.516   100884084.007                          38.250  
G28  20884208.282   109747238.673                          49.250                                                                    20884217.422    85517331.868                          37.750                                                                  
G13  20733249.622   108953995.543                          52.000                                                                    20733257.482    84899222.839                          43.250                                                                  
G19  21856682.976   114857672.563                          49.000                                                                    21856690.316    89499491.813                          37.750                                                                  
G 1  25749554.870   135314828.921                          34.500                                                                                                                                    25749570.650   105440125.505                          32.750  
G17  20766848.182   109130547.740                          53.000                                                                                                                                    20766856.042    85036799.099                          50.250  
G 5  24112886.120   126714047.803                          42.000                                                                                                                                    24112898.840    98738209.798                          40.250  
G20  24683212.056   129711133.810                          37.750                                                                    24683223.156   101073605.327                          17.750                                                                  
G11  25587386.810   134462620.563                          31.500                                                                                                                                                                1                                 
G15  22913481.328   120411181.967                          49.000                                                                                                                                    22913490.248    93826900.371                          44.750  
R10  21429894.300   114233395.059                          50.000                                                                                                                                    21429901.100    88848174.051                          39.000  
R 2  23456285.204   125167230.778                          43.500                                                                                                                                    23456292.244    97352289.868                          38.250  
R11  20854450.244   111439868.724                          52.500                                                                                                                                    20854456.464    86675464.213                          46.750  
R20  21548970.720   115232070.234                          43.750                                                                                                                                    21548978.720    89624950.887                          45.250  
R 8  21694063.516   116170717.460                          49.250                                                                                                                                    21694069.036    90355000.164                          45.250  
R 1  20875487.164   111591456.436                          51.000                                                                                                                                    20875495.024    86793365.398                          42.000  
R21  21196584.240   113427578.324                          49.000                                                                                                                                    21196589.880    88221217.717                          45.000  
R12  23665445.344   126416565.755                          40.500                                                                                                1                                                                                                 
> 2017 11 25 12 58 10.0000000  0 19                     
G30  22239755.292   116870672.056                          47.500                                                                                                                                    22239766.852    91068051.465                          46.750  
G 7  24637392.576   129470313.541                          37.500                                                                                                                                    24637404.596   100885943.172                          38.000  
G28  20884645.922   109749540.210                          49.250                                                                    20884655.022    85519125.274                          37.750                                                                  
G13  20733030.282   108952842.152                          52.250                                                                    20733038.102    84898324.092                          43.000                                                                  
G19  21856209.956   114855185.057                          49.500                                                                    21856216.516    89497553.499                          38.250                                                                  
G 1  25749389.430   135313962.150                          35.500                                                                                                                                    25749405.030   105439450.109                          32.250  
G17  20766528.002   109128867.127                          53.250                                                                                                                                    20766536.502    85035489.531                          50.000  
G 5  24113338.160   126716421.683                          41.250                                                                                                                                    24113350.940    98740059.569                          40.500  
G20  24683396.276   129712100.347                          37.500                                                                    24683407.016   101074358.459                          17.250                                                                  
G11  25587624.370   134463866.411                          31.000                                                                                                                                                                1                                 
G15  22912971.848   120408506.471                          49.500                                                                                                                                    22912981.648    93824815.571                          44.750  
R10  21430133.040   114234663.786                          50.000                                                                                                                                    21430139.500    88849160.832                          39.250  
R 2  23455759.404   125164421.092                          43.500                                                                                                                                    23455765.964    97350104.563                          38.000  
R11  20854310.904   111439123.599                          52.500                                                                                                                                    20854316.884    86674884.665                          47.000  
R20  21549036.380   115232423.487                          44.000                                                                                                                                    21549043.780    89625225.639                          45.500  
R 8  21694750.876   116174394.485                          49.250                                                                                                                                    21694756.056    90357860.070                          45.000  
R 1  20875636.264   111592252.317                          51.000                                                                                                                                    20875644.704    86793984.413                          42.250  
R21  21196003.440   113424475.665                          48.750                                                                                                                                    21196010.260    88218804.540                          45.250  
R12  23665066.484   126414544.517                          40.750                                                                                                1                                                                                                 
> 2017 11 25 12 58 11.0000000  0 19                     
G30  22240060.612   116872275.620                          47.500                                                                                                                                    22240072.052    91069300.995                          46.250  
G 7  24637847.036   129472699.550                          37.250                                                                                                                                    24637858.876   100887802.404                          38.250  
G28  20885084.042   109751841.918                          49.500                                                                    20885092.562    85520918.813                          38.000                                                                  
G13  20732810.782   108951689.229                          52.250                                                                    20732818.642    84897425.717                          43.000                                                                  
G19  21855736.816   114852697.881                          48.750                                                                    21855743.436    89495615.439                          38.500                                                                  
G 1  25749225.430   135313095.679                          35.500                                                                                                                                    25749240.870   105438774.937                          32.750  
G17  20766208.442   109127187.077                          53.500                                                                                                                                    20766217.002    85034180.405                          50.000  
G 5  24113790.480   126718795.514                          41.500                                                                                                                                    24113802.220    98741909.300                          40.500  
G20  24683579.856   129713067.208                          37.250                                                                    24683591.116   101075111.853                          18.250                                                                  
G11  25587861.470   134465112.614                          31.000                                                                                                                                                                1                                 
G15  22912462.768   120405831.277                          49.250                                                                                                                                    22912472.808    93822731.004                          44.750  
R10  21430370.260   114235932.447                          49.750                                                                                                                                    21430377.180    88850147.566                          39.500  
R 2  23455232.964   125161611.926                          43.500                                                                                                                                    23455239.424    97347919.654                          39.000  
R11  20854171.164   111438378.546                          52.250                                                                                                                                    20854177.624    86674305.183                          47.000  
R20  21549103.520   115232777.512                          43.750                                                                                                                                    21549110.560    89625500.982                          45.250  
R 8  21695437.736   116178071.711                          49.250                                                                                                                                    21695441.956    90360720.122                          45.000  
R 1  20875785.664   111593048.931                          51.000                                                                                                                                    20875793.644    86794604.003                          42.500  
R21  21195423.920   113421373.375                          49.250                                                                                                                                    21195431.200    88216391.640                          45.000  
R12  23664688.124   126412523.204                          41.000                                                                                                1                                                                                                 
> 2017 11 25 12 58 12.0000000  0 19                     
G30  22240366.032   116873879.359                          47.500                                                                                                                                    22240377.712    91070550.661                          46.500  
G 7  24638300.016   129475085.638                          37.250                                                                                                                                    24638312.856   100889661.693                          38.000  
G28  20885522.542   109754143.894                          49.750                                                                    20885530.942    85522712.558                          38.000                                                                  
G13  20732591.462   108950536.889                          52.500                                                                    20732599.682    84896527.785                          42.750                                                                  
G19  21855263.116   114850211.106                          49.000                                                                    21855270.336    89493677.693                          38.250                                                                  
G 1  25749060.130   135312229.528                          35.000                                                                                                                                    25749075.390   105438100.022                          32.750  
G17  20765888.802   109125507.667                          53.000                                                                                                                                    20765897.562    85032871.776                          49.750  
G 5  24114242.680   126721169.416                          42.500                                                                                                                                    24114254.520    98743759.087                          40.750  
G20  24683763.396   129714034.350                          37.750                                                                    24683774.716   101075865.484                          17.250                                                                  
G11  25588098.550   134466359.098                          32.250                                                                                                                                                                1                                 
G15  22911953.828   120403156.477                          48.750                                                                                                                                    22911963.568    93820646.746                          45.000  
R10  21430608.480   114237201.187                          50.000                                                                                                                                    21430615.880    88851134.366                          39.250  
R 2  23454706.604   125158803.405                          44.000                                                                                                                                    23454712.824    97345735.247                          38.750  
R11  20854031.824   111437633.595                          52.500                                                                                                                                    20854038.404    86673725.772                          47.000  
R20  21549169.280   115233132.438                          43.500                                                                                                                                    21549177.020    89625777.034                          45.500  
R 8  21696122.956   116181749.298                          49.500                                                                                                                                    21696129.056    90363580.468                          45.000  
R 1  20875933.964   111593846.394                          51.000                                                                                                                                    20875942.064    86795224.250                          42.500  
R21  21194844.340   113418271.653                          49.250                                                                                                                                    21194851.260    88213979.189                          45.000  
R12  23664310.684   126410501.892                          41.750                                                                                                1                                                                                                 
> 2017 11 25 12 58 13.0000000  0 19                     
G30  22240670.832   116875483.396                          47.250                                                                                                                                    22240682.152    91071800.555                          46.500  
G 7  24638755.156   129477471.911                          37.500                                                                                                                                    24638766.996   100891521.120                          38.000  
G28  20885960.442   109756446.209                          49.500                                                                    20885968.722    85524506.574                          37.750                                                                  
G13  20732372.282   108949385.188                          52.500                                                                    20732380.142    84895630.354                          42.500                                                                  
G19  21854790.336   114847724.833                          48.500                                                                    21854797.496    89491740.339                          38.750                                                                  
G 1  25748895.070   135311363.843                          36.000                                                                                                                                    25748911.150   105437425.472                          32.750  
G17  20765569.522   109123828.973                          53.250                                                                                                                                    20765577.802    85031563.700                          49.750  
G 5  24114694.540   126723543.415                          41.750                                                                                                                                    24114705.580    98745608.959                          40.750  
G20  24683948.456   129715001.939                          38.250                                                                    24683959.196   101076619.441                          19.000                                                                  
G11  25588336.690   134467606.249                          32.500                                                                                                                                                                1                                 
G15  22911444.688   120400482.153                          48.750                                                                                                                                    22911454.948    93818562.857                          45.000  
R10  21430846.440   114238470.034                          50.000                                                                                                                                    21430853.820    88852121.245                          39.000  
R 2  23454182.004   125155995.531                          43.500                                                                                                                                    23454187.064    97343551.338                          38.250  
R11  20853892.404   111436888.785                          52.250                                                                                                                                    20853899.084    86673146.478                          47.000  
R20  21549236.880   115233488.308                          43.500                                                                                                                                    21549244.160    89626053.817                          45.500  
R 8  21696810.676   116185427.274                          49.250                                                                                                                                    21696816.196    90366441.115                          45.000  
R 1  20876084.484   111594644.785                          51.000                                                                                                                                    20876092.124    86795845.223                          42.000  
R21  21194266.240   113415170.530                          49.250                                                                                                                                    21194271.520    88211567.213                          45.250  
R12  23663931.744   126408480.656                          41.000                                                                                                1                                                                                                 
