     3.01           OBSERVATION DATA    M: Mixed            RINEX VERSION / TYPE
CONVBIN 2.4.3 Emlid                     20171125 153650 UTC PGM / RUN BY / DATE 
log: /home/reach/logs/ref_201711251243.rtcm3                COMMENT             
format: RTCM 3, station ID: 0                               COMMENT             
                                                            MARKER NAME         
                                                            MARKER NUMBER       
                                                            MARKER TYPE         
                                                            OBSERVER / AGENCY   
                    TRIMBLE NETR8       48.01,21/DEC/2016   REC # / TYPE / VERS 
4951353663          TRM59800.00     NONE                    ANT # / TYPE        
  3467519.4064 -4300378.5382 -3177517.7346                  APPROX POSITION XYZ 
        0.0069        0.0000        0.0000                  ANTENNA: DELTA H/E/N
G   16 C1C L1C D1C S1C C1W L1W D1W S1W C2W L2W D2W S2W C2X  SYS / # / OBS TYPES 
       L2X D2X S2X                                          SYS / # / OBS TYPES 
R   16 C1C L1C D1C S1C C1P L1P D1P S1P C2C L2C D2C S2C C2P  SYS / # / OBS TYPES 
       L2P D2P S2P                                          SYS / # / OBS TYPES 
E    4 C1X L1X D1X S1X                                      SYS / # / OBS TYPES 
J    8 C1C L1C D1C S1C C2X L2X D2X S2X                      SYS / # / OBS TYPES 
S    4 C1C L1C D1C S1C                                      SYS / # / OBS TYPES 
C    4 C1I L1I D1I S1I                                      SYS / # / OBS TYPES 
  2017    11    25    12    43    9.0000000     GPS         TIME OF FIRST OBS   
  2017    11    25    12    45   39.0000000     GPS         TIME OF LAST OBS    
                                                            END OF HEADER       
> 2017 11 25 12 43  9.0000000  0  8                     
R10  21218543.660   113106787.691                          50.250                                                                                                                                    21218551.520    87971925.034                          39.500  
R11  20987214.660   112149322.597                          51.750                                                                                                                                    20987221.000    87227261.545                          46.500  
R20  21554910.860   115263840.340                          43.500                                                                                                                                    21554919.300    89649661.182                          45.500  
R19  24210557.800   129510165.873                          30.500                                                                                                                                    24210563.080   100730119.056                          22.250  
R 8  21105216.020   113017478.326                          50.000                                                                                                                                    21105221.780    87902482.844                          47.000  
R 1  20805637.784   111218070.537                          51.750                                                                                                                                    20805645.184    86502954.858                          41.750  
R21  21753193.936   116406095.486                          48.000                                                                                                                                    21753198.396    90537840.266                          43.000  
R12  24006944.160   128240800.167                          39.000                                                                                                1                                                                                                 
> 2017 11 25 12 43 10.0000000  0 18                     
G30  21980162.514   115506512.013                          46.500                                                                                                                                    21980174.894    90005071.003                          48.250  
G 7  24237200.380   127367303.608                          42.000                                                                                                                                    24237210.700    99247238.597                          39.000  
G28  20512926.024   107796139.802                          51.500                                                                    20512933.244    83996996.102                          40.000                                                                  
G13  20972446.542   110210985.776                          52.250                                                                    20972454.522    85878695.825                          41.500                                                                  
G19  22311499.952   117247747.565                          48.500                                                                    22311507.632    91361886.862                          36.000                                                                  
G17  21101578.140   110889567.715                          53.000                                                                                                                                    21101587.760    86407463.345                          49.500  
G 5  23713182.322   124613591.200                          42.750                                                                                                                                    23713191.762    97101492.833                          41.000  
G20  24545651.478   128988252.623                          39.500                                                                    24545660.818   100510323.587                          19.000                                                                  
G11  25407299.532   133516274.311                          37.750                                                                    25407309.092   104038655.666                          18.250                                                                  
G15  23398832.224   122961720.442                          48.000                                                                                                                                    23398842.964    95814332.242                          43.750  
R10  21218775.700   113108023.393                          50.750                                                                                                                                    21218783.920    87972886.130                          40.000  
R11  20987058.360   112148488.572                          51.500                                                                                                                                    20987064.920    87226612.854                          46.750  
R20  21554833.080   115263421.423                          44.000                                                                                                                                    21554841.540    89649335.360                          45.500  
R19  24211082.060   129512978.883                          29.500                                                                                                                                    24211088.520   100732306.967                          22.000  
R 8  21105833.580   113020785.974                          50.250                                                                                                                                    21105839.800    87905055.462                          47.000  
R 1  20805643.344   111218099.052                          52.000                                                                                                                                    20805650.624    86502977.031                          42.000  
R21  21752540.596   116402603.222                          47.750                                                                                                                                    21752545.056    90535124.067                          43.000  
R12  24006563.860   128238763.304                          38.750                                                                                                1                                                                                                 
> 2017 11 25 12 43 11.0000000  0 18                     
G30  21980434.794   115507942.336                          46.750                                                                                                                                    21980446.694    90006185.541                          48.000  
G 7  24237635.180   127369591.858                          42.500                                                                                                                                    24237646.560    99249021.643                          39.500  
G28  20513311.584   107798167.676                          51.500                                                                    20513319.084    83998576.261                          39.750                                                                  
G13  20972136.002   110209353.065                          52.250                                                                    20972144.262    85877423.583                          41.500                                                                  
G19  22310964.432   117244931.507                          48.250                                                                    22310971.292    91359692.533                          35.750                                                                  
G17  21101155.880   110887347.691                          53.000                                                                                                                                    21101165.440    86405733.452                          49.500  
G 5  23713616.682   124615875.385                          42.000                                                                                                                                    23713627.002    97103272.713                          40.500  
G20  24545771.158   128988884.854                          38.250                                                                    24545781.538   100510816.214                          20.000                                                                  
G11  25407463.132   133517132.655                          37.500                                                                    25407473.032   104039324.509                          19.000                                                                  
G15  23398264.584   122958734.864                          47.500                                                                                                                                    23398274.964    95812005.820                          44.250  
R10  21219008.040   113109259.041                          50.250                                                                                                                                    21219015.200    87973847.192                          40.000  
R11  20986903.260   112147654.560                          51.500                                                                                                                                    20986909.140    87225964.178                          46.500  
R20  21554754.760   115263003.213                          44.500                                                                                                                                    21554763.700    89649010.087                          45.750  
R19  24211608.060   129515792.307                          30.000                                                                                                                                    24211614.640   100734495.186                          22.250  
R 8  21106451.300   113024093.957                          50.250                                                                                                                                    21106457.060    87907628.331                          46.750  
R 1  20805648.564   111218128.325                          52.250                                                                                                                                    20805655.724    86502999.798                          42.000  
R21  21751889.256   116399111.193                          47.500                                                                                                                                    21751894.416    90532408.053                          43.250  
R12  24006182.180   128236726.374                          38.500                                                                                                1                                                                                                 
> 2017 11 25 12 43 12.0000000  0 18                     
G30  21980707.134   115509372.951                          47.000                                                                                                                                    21980719.114    90007300.300                          48.500  
G 7  24238070.880   127371880.326                          41.250                                                                                                                                    24238081.680    99250804.860                          39.000  
G28  20513697.624   107800196.041                          52.250                                                                    20513705.544    84000156.799                          39.750                                                                  
G13  20971825.222   110207720.977                          51.750                                                                    20971833.142    85876151.830                          41.750                                                                  
G19  22310428.812   117242115.888                          47.750                                                                    22310436.092    91357498.540                          35.750                                                                  
G17  21100733.360   110885128.363                          53.000                                                                                                                                    21100742.700    86404004.110                          49.500  
G 5  23714051.702   124618159.867                          42.250                                                                                                                                    23714062.102    97105052.823                          40.250  
G20  24545890.718   128989517.602                          38.000                                                                    24545901.878   100511309.272                          20.250                                                                  
G11  25407625.412   133517991.565                          37.500                                                                    25407636.432   104039993.787                          18.500                                                                  
G15  23397696.364   122955749.710                          47.500                                                                                                                                    23397706.684    95809679.726                          43.750  
R10  21219239.440   113110494.842                          50.250                                                                                                                                    21219247.780    87974808.374                          39.750  
R11  20986747.240   112146820.815                          51.750                                                                                                                                    20986753.220    87225315.712                          46.250  
R20  21554676.040   115262585.962                          44.250                                                                                                                                    21554684.620    89648685.548                          45.000  
R19  24212135.160   129518606.443                          31.000                                                                                                                                    24212140.800   100736683.977                          23.000  
R 8  21107069.860   113027402.583                          50.000                                                                                                                                    21107075.140    87910201.711                          46.750  
R 1  20805654.084   111218158.594                          51.750                                                                                                                                    20805662.184    86503023.343                          42.250  
R21  21751236.036   116395619.593                          47.500                                                                                                                                    21751240.976    90529692.364                          43.000  
R12  24005799.960   128234689.624                          38.750                                                                                                1                                                                                                 
> 2017 11 25 12 43 13.0000000  0 18                     
G30  21980979.434   115510803.782                          47.000                                                                                                                                    21980991.334    90008415.231                          48.500  
G 7  24238506.680   127374168.931                          41.000                                                                                                                                    24238517.380    99252588.183                          39.500  
G28  20514083.964   107802224.721                          52.500                                                                    20514091.484    84001737.593                          40.250                                                                  
G13  20971515.002   110206089.389                          52.000                                                                    20971522.682    85874880.458                          41.750                                                                  
G19  22309892.592   117239300.611                          48.000                                                                    22309900.232    91355304.818                          35.750                                                                  
G17  21100311.420   110882909.603                          53.500                                                                                                                                    21100321.160    86402275.206                          49.500  
G 5  23714486.602   124620444.468                          41.500                                                                                                                                    23714496.642    97106833.027                          40.500  
G20  24546011.438   128990150.758                          38.500                                                                    24546022.058   100511802.642                          19.500                                                                  
G11  25407789.272   133518850.918                          38.000                                                                    25407799.652   104040663.434                          17.750                                                                  
G15  23397128.624   122952764.868                          47.750                                                                                                                                    23397139.024    95807353.875                          44.000  
R10  21219471.420   113111730.714                          50.750                                                                                                                                    21219479.180    87975769.608                          40.250  
R11  20986590.600   112145987.153                          51.500                                                                                                                                    20986597.180    87224667.312                          46.000  
R20  21554598.900   115262169.578                          44.250                                                                                                                                    21554607.360    89648361.692                          44.750  
R19  24212662.700   129521421.183                          29.250                                                                                                                                    24212666.920   100738873.213                          23.250  
R 8  21107687.800   113030711.685                          50.500                                                                                                                                    21107693.800    87912775.451                          46.500  
R 1  20805659.904   111218189.732                          52.000                                                                                                                                    20805667.764    86503047.557                          42.250  
R21  21750583.556   116392128.356                          47.250                                                                                                                                    21750588.716    90526976.960                          43.250  
R12  24005419.420   128232652.902                          38.500                                                                                                1                                                                                                 
> 2017 11 25 12 43 14.0000000  0 18                     
G30  21981252.034   115512234.665                          46.750                                                                                                                                    21981263.834    90009530.203                          48.000  
G 7  24238941.560   127376457.478                          40.250                                                                                                                                    24238953.120    99254371.454                          39.500  
G28  20514469.924   107804253.632                          52.500                                                                    20514477.684    84003318.560                          40.250                                                                  
G13  20971204.562   110204458.184                          52.000                                                                    20971212.382    85873609.389                          42.000                                                                  
G19  22309357.012   117236485.520                          47.750                                                                    22309363.712    91353111.240                          36.000                                                                  
G17  21099889.080   110880691.251                          53.500                                                                                                                                    21099898.420    86400546.622                          49.500  
G 5  23714921.122   124622729.107                          42.000                                                                                                                                    23714930.622    97108613.262                          40.750  
G20  24546132.298   128990784.250                          38.500                                                                    24546142.978   100512296.299                          19.500                                                                  
G11  25407952.932   133519710.587                          38.500                                                                    25407963.312   104041333.291                          17.750                                                                  
G15  23396560.464   122949780.189                          47.250                                                                                                                                    23396570.624    95805028.151                          43.750  
R10  21219703.120   113112966.474                          50.250                                                                                                                                    21219711.000    87976730.757                          40.250  
R11  20986434.660   112145153.426                          51.500                                                                                                                                    20986441.460    87224018.856                          46.250  
R20  21554520.280   115261753.856                          44.250                                                                                                                                    21554529.200    89648038.347                          45.250  
R19  24213188.160   129524236.402                          28.000                                                                                                                                    24213192.960   100741062.813                          22.500  
R 8  21108306.280   113034021.151                          50.750                                                                                                                                    21108311.560    87915349.480                          46.500  
R 1  20805666.184   111218221.600                          52.000                                                                                                                                    20805673.704    86503072.341                          42.000  
R21  21749930.456   116388637.350                          47.750                                                                                                                                    21749935.976    90524261.733                          43.250  
R12  24005038.380   128230616.074                          37.750                                                                                                1                                                                                                 
> 2017 11 25 12 43 15.0000000  0 18                     
G30  21981523.834   115513665.832                          46.750                                                                                                                                    21981536.334    90010645.391                          48.500  
G 7  24239377.660   127378746.314                          41.250                                                                                                                                    24239388.060    99256154.958                          39.250  
G28  20514856.444   107806283.012                          52.500                                                                    20514863.964    84004899.887                          40.000                                                                  
G13  20970894.442   110202827.601                          52.000                                                                    20970902.182    85872338.806                          42.250                                                                  
G19  22308821.772   117233670.891                          47.750                                                                    22308828.752    91350918.031                          36.000                                                                  
G17  21099466.980   110878473.599                          53.750                                                                                                                                    21099476.840    86398818.588                          49.750  
G 5  23715356.422   124625014.041                          42.500                                                                                                                                    23715365.642    97110393.736                          40.500  
G20  24546251.998   128991418.207                          37.750                                                                    24546263.438   100512790.300                          19.500                                                                  
G11  25408116.592   133520570.796                          37.500                                                                    25408127.032   104042003.580                          18.250                                                                  
G15  23395993.024   122946795.952                          47.750                                                                                                                                    23396002.764    95802702.770                          43.500  
R10  21219934.680   113114202.437                          50.500                                                                                                                                    21219943.020    87977692.057                          40.500  
R11  20986279.100   112144319.965                          51.500                                                                                                                                    20986284.620    87223370.610                          46.500  
R20  21554443.900   115261339.151                          44.250                                                                                                                                    21554452.360    89647715.796                          45.000  
R19  24213715.960   129527052.266                          28.750                                                                                                                                    24213719.360   100743252.923                          22.500  
R 8  21108923.320   113037331.228                          50.250                                                                                                                                    21108929.300    87917923.989                          46.750  
R 1  20805672.244   111218254.459                          52.000                                                                                                                                    20805680.344    86503097.900                          41.750  
R21  21749277.796   116385146.857                          47.500                                                                                                                                    21749284.136    90521546.905                          43.000  
R12  24004656.600   128228579.484                          38.250                                                                                                1                                                                                                 
> 2017 11 25 12 43 16.0000000  0 18                     
G30  21981796.294   115515097.130                          46.500                                                                                                                                    21981809.254    90011760.691                          48.250  
G 7  24239813.120   127381035.137                          41.250                                                                                                                                    24239823.920    99257938.456                          39.500  
G28  20515242.644   107808312.656                          52.000                                                                    20515250.324    84006481.436                          40.250                                                                  
G13  20970583.962   110201197.452                          51.750                                                                    20970591.942    85871068.556                          42.000                                                                  
G19  22308286.032   117230856.502                          47.750                                                                    22308293.252    91348724.995                          36.000                                                                  
G17  21099045.360   110876256.442                          53.750                                                                                                                                    21099054.460    86397090.933                          49.750  
G 5  23715790.762   124627299.025                          42.000                                                                                                                                    23715800.442    97112174.237                          41.000  
G20  24546372.858   128992052.547                          38.000                                                                    24546384.518   100513284.601                          19.500                                                                  
G11  25408281.592   133521431.380                          37.750                                                                    25408290.572   104042674.175                          18.250                                                                  
G15  23395425.024   122943811.946                          47.750                                                                                                                                    23395434.704    95800377.570                          43.750  
R10  21220166.440   113115438.360                          50.250                                                                                                                                    21220174.540    87978653.331                          40.500  
R11  20986123.120   112143486.546                          51.500                                                                                                                                    20986129.340    87222722.400                          46.500  
R20  21554365.820   115260925.170                          44.000                                                                                                                                    21554374.500    89647393.811                          45.000  
R19  24214240.540   129529868.678                          27.500                                                                                                                                    24214247.220   100745443.443                          21.250  
R 8  21109541.840   113040641.698                          50.250                                                                                                                                    21109547.840    87920498.793                          46.500  
R 1  20805678.384   111218288.125                          51.500                                                                                                                                    20805685.784    86503124.085                          41.750  
R21  21748626.896   116381656.669                          47.500                                                                                                                                    21748632.536    90518832.316                          43.000  
R12  24004274.480   128226542.789                          38.500                                                                                                1                                                                                                 
> 2017 11 25 12 43 17.0000000  0 18                     
G30  21982068.534   115516528.662                          47.000                                                                                                                                    21982081.514    90012876.176                          48.000  
G 7  24240249.060   127383324.120                          41.500                                                                                                                                    24240259.380    99259722.073                          39.750  
G28  20515628.344   107810342.679                          52.000                                                                    20515636.444    84008063.270                          40.250                                                                  
G13  20970274.042   110199567.827                          51.500                                                                    20970282.382    85869798.726                          42.000                                                                  
G19  22307750.972   117228042.464                          48.000                                                                    22307757.832    91346532.244                          35.500                                                                  
G17  21098623.440   110874039.855                          53.750                                                                                                                                    21098632.600    86395363.728                          49.250  
G 5  23716225.282   124629584.212                          41.750                                                                                                                                    23716236.202    97113954.899                          41.000  
G20  24546494.378   128992687.282                          38.500                                                                    24546504.938   100513779.177                          19.250                                                                  
G11  25408444.732   133522292.430                          38.250                                                                    25408454.832   104043345.115                          17.750                                                                  
G15  23394857.284   122940828.260                          47.250                                                                                                                                    23394867.324    95798052.616                          43.750  
R10  21220399.380   113116674.331                          50.500                                                                                                                                    21220406.780    87979614.637                          40.250  
R11  20985967.100   112142653.266                          51.750                                                                                                                                    20985973.780    87222074.289                          46.000  
R20  21554290.640   115260512.090                          44.250                                                                                                                                    21554296.980    89647072.531                          45.000  
R19  24214764.520   129532685.627                          28.250                                                                                                1                                                                                                 
R 8  21110160.300   113043952.696                          50.250                                                                                                                                    21110166.180    87923074.007                          46.500  
R 1  20805684.624   111218322.687                          51.750                                                                                                                                    20805691.664    86503150.965                          42.000  
R21  21747973.796   116378166.843                          47.500                                                                                                                                    21747979.896    90516118.009                          43.000  
R12  24003893.760   128224506.175                          37.500                                                                                                1                                                                                                 
> 2017 11 25 12 43 18.0000000  0 18                     
G30  21982340.874   115517960.396                          46.000                                                                                                                                    21982353.254    90013991.818                          48.250  
G 7  24240684.360   127385613.218                          41.500                                                                                                                                    24240695.500    99261505.778                          39.500  
G28  20516015.004   107812373.069                          52.250                                                                    20516022.984    84009645.384                          39.750                                                                  
G13  20969963.902   110197938.718                          51.750                                                                    20969971.942    85868529.289                          42.000                                                                  
G19  22307215.232   117225228.782                          47.750                                                                    22307222.172    91344339.764                          36.000                                                                  
G17  21098201.680   110871823.859                          53.750                                                                                                                                    21098211.440    86393636.974                          49.000  
G 5  23716660.362   124631869.564                          42.000                                                                                                                                    23716670.682    97115735.687                          41.000  
G20  24546614.918   128993322.445                          38.750                                                                    24546625.938   100514274.107                          19.500                                                                  
G11  25408608.712   133523153.925                          38.000                                                                    25408618.752   104044016.414                          18.250                                                                  
G15  23394289.084   122937844.900                          47.500                                                                                                                                    23394299.944    95795727.928                          44.000  
R10  21220631.300   113117910.387                          50.500                                                                                                                                    21220638.220    87980576.016                          40.250  
R11  20985811.020   112141820.114                          51.500                                                                                                                                    20985817.720    87221426.286                          46.250  
R20  21554211.480   115260099.882                          44.750                                                                                                                                    21554219.240    89646751.920                          45.250  
R19  24215291.960   129535503.280                          29.500                                                                                                1                                                                                                 
R 8  21110778.980   113047264.214                          50.750                                                                                                                                    21110784.620    87925649.629                          46.750  
R 1  20805691.124   111218358.150                          51.500                                                                                                                                    20805698.624    86503178.540                          41.750  
R21  21747322.196   116374677.418                          47.250                                                                                                                                    21747327.716    90513404.016                          43.500  
R12  24003512.720   128222469.648                          37.500                                                                                                1                                                                                                 
> 2017 11 25 12 43 19.0000000  0 18                     
G30  21982613.634   115519392.317                          46.000                                                                                                                                    21982626.314    90015107.600                          48.000  
G 7  24241119.860   127387902.441                          41.000                                                                                                                                    24241130.600    99263289.588                          39.500  
G28  20516401.284   107814403.799                          52.250                                                                    20516409.204    84011227.773                          40.000                                                                  
G13  20969653.942   110196310.112                          51.750                                                                    20969662.562    85867260.242                          41.500                                                                  
G19  22306679.532   117222415.438                          47.750                                                                    22306686.872    91342147.549                          35.000                                                                  
G17  21097780.300   110869608.439                          54.000                                                                                                                                    21097789.500    86391910.673                          49.250  
G 5  23717095.602   124634155.052                          42.500                                                                                                                                    23717105.682    97117516.579                          41.000  
G20  24546736.498   128993958.005                          39.000                                                                    24546746.878   100514769.337                          19.500                                                                  
G11  25408772.432   133524015.861                          38.000                                                                    25408783.052   104044688.044                          17.250                                                                  
G15  23393721.164   122934861.853                          48.000                                                                                                                                    23393732.084    95793403.482                          44.000  
R10  21220861.980   113119146.465                          50.250                                                                                                                                    21220870.320    87981537.404                          40.500  
R11  20985655.720   112140987.066                          51.500                                                                                                                                    20985661.820    87220778.354                          46.250  
R20  21554134.980   115259688.516                          44.500                                                                                                                                    21554142.620    89646431.973                          45.250  
R19  24215822.820   129538321.484                          30.500                                                                                                1                                                                                                 
R 8  21111397.700   113050576.269                          50.750                                                                                                                                    21111403.560    87928225.679                          46.500  
R 1  20805697.944   111218394.492                          51.750                                                                                                                                    20805706.384    86503206.806                          41.500  
R21  21746669.696   116371188.314                          47.750                                                                                                                                    21746675.796    90510690.272                          43.250  
R12  24003131.380   128220433.117                          37.500                                                                                                1                                                                                                 
> 2017 11 25 12 43 20.0000000  0 18                     
G30  21982886.174   115520824.370                          46.500                                                                                                                                    21982898.674    90016223.481                          48.000  
G 7  24241554.980   127390191.739                          41.500                                                                                                                                    24241566.120    99265073.453                          39.000  
G28  20516788.064   107816434.847                          52.250                                                                    20516795.624    84012810.407                          40.000                                                                  
G13  20969344.462   110194681.981                          51.750                                                                    20969352.282    85865991.571                          41.500                                                                  
G19  22306144.472   117219602.365                          47.750                                                                    22306151.172    91339955.546                          35.250                                                                  
G17  21097358.800   110867393.533                          53.750                                                                                                                                    21097367.900    86390184.770                          49.250  
G 5  23717529.822   124636440.675                          41.500                                                                                                                                    23717541.022    97119297.590                          41.250  
G20  24546857.878   128994593.985                          38.750                                                                    24546868.138   100515264.918                          19.000                                                                  
G11  25408936.172   133524878.199                          37.500                                                                    25408946.492   104045359.998                          18.500                                                                  
G15  23393153.944   122931879.090                          47.750                                                                                                                                    23393163.684    95791079.249                          43.500  
R10  21221094.700   113120382.529                          50.250                                                                                                                                    21221101.520    87982498.789                          40.500  
R11  20985499.360   112140154.094                          51.500                                                                                                                                    20985505.700    87220130.490                          46.250  
R20  21554058.700   115259277.979                          44.500                                                                                                                                    21554066.100    89646112.671                          45.500  
R19  24216349.460   129541140.221                          30.250                                                                                                1                                                                                                 
R 8  21112016.480   113053888.756                          51.000                                                                                                                                    21112020.820    87930802.049                          46.500  
R 1  20805704.804   111218431.667                          51.500                                                                                                                                    20805712.324    86503235.721                          41.750  
R21  21746018.836   116367699.536                          47.750                                                                                                                                    21746024.136    90507976.781                          43.500  
R12  24002750.240   128218396.585                          38.500                                                                                                1                                                                                                 
> 2017 11 25 12 43 21.0000000  0 18                     
G30  21983158.834   115522256.619                          46.500                                                                                                                                    21983171.094    90017339.518                          48.000  
G 7  24241991.420   127392481.111                          41.500                                                                                                                                    24242002.220    99266857.373                          39.000  
G28  20517174.984   107818466.210                          52.500                                                                    20517182.364    84014393.290                          40.000                                                                  
G13  20969034.582   110193054.323                          52.000                                                                    20969042.522    85864723.266                          42.000                                                                  
G19  22305608.992   117216789.602                          48.000                                                                    22305616.152    91337763.784                          36.000                                                                  
G17  21096937.220   110865179.172                          53.750                                                                                                                                    21096946.680    86388459.298                          49.250  
G 5  23717965.502   124638726.429                          42.000                                                                                                                                    23717976.002    97121078.694                          40.500  
G20  24546978.598   128995230.278                          38.750                                                                    24546989.318   100515760.743                          19.750                                                                  
G11  25409101.012   133525740.982                          37.750                                                                    25409110.852   104046032.290                          18.500                                                                  
G15  23392586.484   122928896.592                          48.000                                                                                                                                    23392596.044    95788755.222                          43.500  
R10  21221326.320   113121618.591                          50.500                                                                                                                                    21221333.360    87983460.170                          40.250  
R11  20985343.484   112139321.212                          52.000                                                                                                                                    20985349.464    87219482.695                          46.500  
R20  21553982.060   115258868.231                          44.000                                                                                                                                    21553989.240    89645793.978                          45.250  
R19  24216873.360   129543959.494                          31.000                                                                                                1                                                                                                 
R 8  21112634.920   113057201.689                          51.000                                                                                                                                    21112639.960    87933378.771                          46.500  
R 1  20805711.584   111218469.717                          51.500                                                                                                                                    20805719.564    86503265.315                          41.500  
R21  21745366.216   116364211.101                          47.750                                                                                                                                    21745371.956    90505263.557                          44.000  
R12  24002369.820   128216360.029                          38.750                                                                                                1                                                                                                 
> 2017 11 25 12 43 22.0000000  0 18                     
G30  21983431.414   115523689.089                          47.000                                                                                                                                    21983443.854    90018455.724                          48.500  
G 7  24242427.460   127394770.646                          42.000                                                                                                                                    24242437.840    99268641.424                          38.750  
G28  20517561.284   107820497.985                          52.500                                                                    20517569.324    84015976.481                          40.000                                                                  
G13  20968724.842   110191427.233                          52.000                                                                    20968733.042    85863455.398                          41.500                                                                  
G19  22305073.632   117213977.215                          48.000                                                                    22305080.972    91335572.314                          35.500                                                                  
G17  21096516.100   110862965.422                          54.250                                                                                                                                    21096525.440    86386734.298                          49.500  
G 5  23718400.222   124641012.379                          42.500                                                                                                                                    23718410.362    97122859.945                          41.000  
G20  24547099.458   128995867.112                          38.750                                                                    24547110.198   100516256.987                          20.000                                                                  
G11  25409265.312   133526604.250                          38.250                                                                    25409275.052   104046704.958                          18.500                                                                  
G15  23392018.844   122925914.446                          47.750                                                                                                                                    23392029.004    95786431.468                          43.250  
R10  21221558.220   113122854.754                          50.500                                                                                                                                    21221566.660    87984421.626                          40.500  
R11  20985188.024   112138488.554                          52.000                                                                                                                                    20985194.124    87218835.075                          46.500  
R20  21553906.260   115258459.416                          44.500                                                                                                                                    21553913.180    89645476.004                          44.750  
R19  24217402.200   129546779.466                          29.500                                                                                                1                                                                                                 
R 8  21113253.660   113060515.156                          51.000                                                                                                                                    21113259.060    87935955.910                          46.500  
R 1  20805719.204   111218508.689                          51.500                                                                                                                                    20805727.064    86503295.627                          41.500  
R21  21744714.736   116360723.110                          47.500                                                                                                                                    21744720.496    90502550.680                          44.000  
R12  24001988.920   128214323.604                          38.500                                                                                                1                                                                                                 
> 2017 11 25 12 43 23.0000000  0 18                     
G30  21983703.874   115525121.706                          46.500                                                                                                                                    21983716.674    90019572.045                          48.500  
G 7  24242863.700   127397060.262                          42.000                                                                                                                                    24242873.600    99270425.538                          39.500  
G28  20517947.824   107822530.052                          52.250                                                                    20517955.564    84017559.912                          40.500                                                                  
G13  20968415.502   110189800.592                          52.000                                                                    20968423.322    85862187.885                          41.500                                                                  
G19  22304538.832   117211165.090                          48.000                                                                    22304546.112    91333381.050                          35.500                                                                  
G17  21096094.880   110860752.193                          53.500                                                                                                                                    21096104.220    86385009.702                          49.000  
G 5  23718835.162   124643298.430                          43.000                                                                                                                                    23718845.802    97124641.283                          40.750  
G20  24547221.318   128996504.209                          38.500                                                                    24547231.758   100516753.424                          19.500                                                                  
G11  25409428.332   133527467.894                          37.000                                                                    25409439.412   104047377.946                          16.250                                                                  
G15  23391451.204   122922932.576                          48.500                                                                                                                                    23391461.724    95784107.931                          43.500  
R10  21221790.220   113124090.892                          50.000                                                                                                                                    21221797.860    87985383.063                          40.250  
R11  20985032.344   112137655.939                          52.000                                                                                                                                    20985037.964    87218187.486                          46.500  
R20  21553829.580   115258051.424                          44.750                                                                                                                                    21553836.500    89645158.683                          45.000  
R19  24217929.040   129549599.922                          30.500                                                                                                1                                                                                                 
R 8  21113873.200   113063829.037                          51.250                                                                                                                                    21113877.780    87938533.367                          46.250  
R 1  20805726.904   111218548.476                          51.500                                                                                                                                    20805734.304    86503326.576                          41.500  
R21  21744062.476   116357235.437                          47.750                                                                                                                                    21744068.356    90499838.041                          44.000  
R12  24001607.220   128212287.134                          39.000                                                                                                1                                                                                                 
> 2017 11 25 12 43 24.0000000  0 18                     
G30  21983976.614   115526554.508                          47.000                                                                                                                                    21983988.934    90020688.516                          48.250  
G 7  24243298.680   127399349.960                          41.250                                                                                                                                    24243309.640    99272209.712                          39.250  
G28  20518334.384   107824562.461                          52.250                                                                    20518342.244    84019143.607                          40.250                                                                  
G13  20968105.702   110188174.452                          52.000                                                                    20968113.982    85860920.766                          42.000                                                                  
G19  22304003.492   117208353.310                          48.000                                                                    22304010.492    91331190.054                          36.250                                                                  
G17  21095673.860   110858539.508                          53.500                                                                                                                                    21095683.500    86383285.536                          49.250  
G 5  23719270.462   124645584.631                          43.250                                                                                                                                    23719280.842    97126422.744                          41.000  
G20  24547342.658   128997141.749                          39.000                                                                    24547352.758   100517250.187                          19.750                                                                  
G11  25409592.952   133528331.979                          36.750                                                                    25409604.052   104048051.264                          17.250                                                                  
G15  23390884.164   122919950.992                          48.500                                                                                                                                    23390894.664    95781784.621                          43.500  
R10  21222021.320   113125327.045                          50.000                                                                                                                                    21222029.640    87986344.515                          40.500  
R11  20984876.524   112136823.399                          51.500                                                                                                                                    20984882.144    87217539.959                          46.250  
R20  21553754.000   115257644.256                          44.750                                                                                                                                    21553760.100    89644841.989                          45.000  
R19  24218456.660   129552420.935                          29.250                                                                                                1                                                                                                 
R 8  21114491.400   113067143.417                          51.000                                                                                                                                    21114497.160    87941111.222                          46.750  
R 1  20805734.304   111218589.124                          51.000                                                                                                                                    20805742.524    86503358.189                          42.000  
R21  21743409.976   116353748.072                          47.500                                                                                                                                    21743417.036    90497125.648                          43.500  
R12  24001227.080   128210250.704                          39.500                                                                                                1                                                                                                 
> 2017 11 25 12 43 25.0000000  0 18                     
G30  21984249.214   115527987.519                          47.250                                                                                                                                    21984261.594    90021805.144                          48.750  
G 7  24243735.100   127401639.839                          41.500                                                                                                                                    24243745.200    99273994.026                          39.250  
G28  20518721.224   107826595.248                          52.250                                                                    20518729.024    84020727.593                          40.500                                                                  
G13  20967796.582   110186548.868                          52.000                                                                    20967804.682    85859654.078                          42.000                                                                  
G19  22303468.732   117205541.892                          48.250                                                                    22303475.832    91328999.341                          36.000                                                                  
G17  21095252.960   110856327.461                          53.250                                                                                                                                    21095262.120    86381561.869                          49.750  
G 5  23719705.382   124647871.052                          42.750                                                                                                                                    23719715.182    97128204.373                          40.750  
G20  24547463.778   128997779.761                          40.500                                                                    24547474.458   100517747.343                          19.250                                                                  
G11  25409757.972   133529196.540                          37.250                                                                    25409768.952   104048724.939                          17.750                                                                  
G15  23390316.724   122916969.766                          48.000                                                                                                                                    23390326.884    95779461.590                          43.750  
R10  21222254.180   113126563.325                          50.250                                                                                                                                    21222261.820    87987306.068                          40.000  
R11  20984720.484   112135991.012                          51.250                                                                                                                                    20984726.124    87216892.548                          46.500  
R20  21553678.080   115257237.959                          45.000                                                                                                                                    21553684.420    89644525.984                          45.000  
R19  24218982.920   129555242.701                          27.250                                                                                                1                                                                                                 
R 8  21115110.620   113070458.321                          51.250                                                                                                                                    21115114.960    87943689.476                          46.500  
R 1  20805742.124   111218630.694                          51.000                                                                                                                                    20805749.764    86503390.523                          41.500  
R21  21742758.116   116350261.098                          47.250                                                                                                                                    21742765.156    90494413.553                          43.500  
R12  24000846.520   128208214.354                          39.250                                                                                                1                                                                                                 
> 2017 11 25 12 43 26.0000000  0 18                     
G30  21984521.674   115529420.617                          47.500                                                                                                                                    21984534.634    90022921.850                          48.250  
G 7  24244170.820   127403929.652                          41.250                                                                                                                                    24244180.320    99275778.292                          39.250  
G28  20519107.924   107828628.274                          52.000                                                                    20519115.484    84022311.771                          40.250                                                                  
G13  20967487.282   110184923.624                          52.000                                                                    20967495.382    85858387.657                          41.750                                                                  
G19  22302933.432   117202730.653                          48.500                                                                    22302940.992    91326808.757                          35.500                                                                  
G17  21094832.100   110854115.827                          53.500                                                                                                                                    21094841.380    86379838.518                          49.750  
G 5  23720139.842   124650157.450                          42.250                                                                                                                                    23720150.882    97129985.973                          40.250  
G20  24547585.878   128998418.035                          40.000                                                                    24547596.018   100518244.697                          19.000                                                                  
G11  25409922.112   133530061.391                          37.500                                                                    25409933.272   104049398.863                          17.250                                                                  
G15  23389749.504   122913988.721                          48.000                                                                                                                                    23389759.544    95777138.702                          43.000  
R10  21222485.880   113127799.501                          50.250                                                                                                                                    21222493.980    87988267.532                          40.500  
R11  20984564.984   112135158.651                          51.750                                                                                                                                    20984570.504    87216245.152                          46.250  
R20  21553601.800   115256832.393                          44.750                                                                                                                                    21553608.840    89644210.544                          44.750  
R19  24219508.600   129558064.762                          26.250                                                                                                1                                                                                                 
R 8  21115729.580   113073773.632                          51.250                                                                                                                                    21115734.520    87946268.050                          46.500  
R 1  20805750.164   111218673.020                          51.000                                                                                                                                    20805758.024    86503423.435                          42.000  
R21  21742107.616   116346774.386                          47.750                                                                                                                                    21742113.256    90491701.666                          44.000  
R12  24000464.300   128206177.921                          39.500                                                                                                1                                                                                                 
> 2017 11 25 12 43 27.0000000  0 17                     
G30  21984794.634   115530853.939                          47.750                                                                                                                                    21984807.074    90024038.723                          48.000  
G 7  24244606.180   127406219.647                          41.250                                                                                                                                    24244616.560    99277562.699                          39.000  
G28  20519494.924   107830661.670                          52.000                                                                    20519503.084    84023896.234                          40.000                                                                  
G13  20967178.322   110183298.962                          52.000                                                                    20967185.882    85857121.686                          41.500                                                                  
G19  22302398.732   117199919.790                          47.500                                                                    22302405.792    91324618.480                          35.500                                                                  
G17  21094411.640   110851904.807                          54.000                                                                                                                                    21094420.620    86378115.650                          50.000  
G 5  23720574.882   124652444.055                          42.750                                                                                                                                    23720585.902    97131767.744                          40.750  
G20  24547706.998   128999056.747                          39.750                                                                    24547717.618   100518742.379                          19.000                                                                  
G11  25410086.932   133530926.756                          37.500                                                                    25410097.732   104050073.171                          15.500                                                                  
G15  23389181.984   122911008.023                          48.000                                                                                                                                    23389192.904    95774816.082                          43.500  
R10  21222718.160   113129035.757                          50.750                                                                                                                                    21222725.440    87989229.063                          40.250  
R11  20984408.984   112134326.450                          52.000                                                                                                                                    20984415.204    87215597.889                          46.750  
R20  21553526.040   115256427.695                          45.000                                                                                                                                    21553533.680    89643895.779                          45.250  
R 8  21116349.240   113077089.479                          51.000                                                                                                                                    21116353.920    87948847.044                          46.750  
R 1  20805758.304   111218716.266                          51.250                                                                                                                                    20805765.804    86503457.073                          41.750  
R21  21741454.996   116343288.069                          47.500                                                                                                                                    21741462.396    90488990.085                          44.000  
R12  24000084.880   128204141.534                          39.500                                                                                                1                                                                                                 
> 2017 11 25 12 43 28.0000000  0 17                     
G30  21985067.994   115532287.557                          47.500                                                                                                                                    21985080.314    90025155.823                          47.750  
G 7  24245041.160   127408509.841                          41.250                                                                                                                                    24245052.140    99279347.262                          38.500  
G28  20519881.884   107832695.529                          52.250                                                                    20519889.684    84025481.063                          40.000                                                                  
G13  20966869.502   110181674.901                          52.750                                                                    20966877.542    85855856.178                          42.000                                                                  
G19  22301864.032   117197109.363                          47.500                                                                    22301870.952    91322428.539                          36.000                                                                  
G17  21093990.980   110849694.461                          53.750                                                                                                                                    21094000.320    86376393.301                          50.000  
G 5  23721010.622   124654730.933                          42.500                                                                                                                                    23721021.422    97133549.723                          41.000  
G20  24547828.578   128999695.983                          39.750                                                                    24547838.538   100519240.487                          20.500                                                                  
G11  25410251.272   133531792.662                          37.250                                                                    25410262.712   104050747.891                          16.250                                                                  
G15  23388615.404   122908027.732                          48.250                                                                                                                                    23388625.204    95772493.775                          43.500  
R10  21222951.300   113130272.170                          50.750                                                                                                                                    21222957.760    87990190.718                          40.250  
R11  20984253.664   112133494.418                          52.250                                                                                                                                    20984259.304    87214950.753                          46.500  
R20  21553450.340   115256023.936                          45.000                                                                                                                                    21553456.900    89643581.746                          45.500  
R 8  21116968.260   113080405.880                          50.750                                                                                                                                    21116973.080    87951426.461                          46.750  
R 1  20805766.604   111218760.492                          51.750                                                                                                                                    20805774.124    86503491.467                          41.750  
R21  21740804.096   116339802.230                          47.250                                                                                                                                    21740811.496    90486278.882                          43.750  
R12  23999703.520   128202105.330                          39.250                                                                                                1                                                                                                 
> 2017 11 25 12 43 29.0000000  0 17                     
G30  21985340.734   115533721.223                          46.500                                                                                                                                    21985352.934    90026272.963                          48.000  
G 7  24245477.180   127410800.028                          41.250                                                                                                                                    24245487.980    99281131.823                          39.500  
G28  20520268.844   107834729.583                          52.500                                                                    20520276.764    84027066.034                          39.500                                                                  
G13  20966560.242   110180051.200                          52.500                                                                    20966568.282    85854590.959                          41.750                                                                  
G19  22301329.632   117194299.117                          47.500                                                                    22301336.132    91320238.731                          36.000                                                                  
G17  21093570.300   110847484.529                          53.750                                                                                                                                    21093579.620    86374671.275                          49.500  
G 5  23721445.922   124657017.804                          42.500                                                                                                                                    23721457.062    97135331.694                          41.000  
G20  24547949.918   129000335.510                          40.000                                                                    24547960.838   100519738.826                          19.750                                                                  
G11  25410415.272   133532658.847                          36.500                                                                    25410427.712   104051422.863                          16.750                                                                  
G15  23388048.024   122905047.609                          48.000                                                                                                                                    23388058.984    95770171.604                          43.500  
R10  21223182.000   113131508.498                          51.000                                                                                                                                    21223189.640    87991152.308                          40.250  
R11  20984097.304   112132662.375                          52.000                                                                                                                                    20984103.404    87214303.604                          46.500  
R20  21553374.860   115255620.885                          44.500                                                                                                                                    21553382.380    89643268.258                          44.750  
R 8  21117588.200   113083722.643                          51.000                                                                                                                                    21117592.300    87954006.158                          46.750  
R 1  20805775.264   111218805.451                          51.500                                                                                                                                    20805783.124    86503526.437                          42.000  
R21  21740152.076   116336316.628                          47.250                                                                                                                                    21740159.596    90483567.867                          43.500  
R12  23999322.720   128200069.015                          39.750                                                                                                1                                                                                                 
> 2017 11 25 12 43 30.0000000  0 17                     
G30  21985613.594   115535155.203                          46.000                                                                                                                                    21985625.554    90027390.346                          48.000  
G 7  24245913.040   127413090.430                          41.000                                                                                                                                    24245923.720    99282916.550                          39.250  
G28  20520656.144   107836764.106                          52.250                                                                    20520664.184    84028651.375                          39.750                                                                  
G13  20966251.042   110178428.130                          51.750                                                                    20966259.542    85853326.229                          42.000                                                                  
G19  22300794.452   117191489.326                          47.500                                                                    22300802.312    91318049.292                          35.750                                                                  
G17  21093149.720   110845275.270                          53.750                                                                                                                                    21093158.940    86372949.780                          49.750  
G 5  23721880.102   124659304.961                          42.000                                                                                                                                    23721891.602    97137113.898                          41.250  
G20  24548071.758   129000975.534                          39.750                                                                    24548083.438   100520237.535                          19.750                                                                  
G11  25410580.652   133533525.599                          36.250                                                                    25410592.732   104052098.244                          16.250                                                                  
G15  23387481.044   122902067.938                          47.750                                                                                                                                    23387491.364    95767849.784                          43.250  
R10  21223413.540   113132744.970                          50.750                                                                                                                                    21223421.520    87992113.998                          40.000  
R11  20983941.524   112131830.556                          51.500                                                                                                                                    20983947.164    87213656.634                          46.500  
R20  21553298.780   115255218.786                          44.500                                                                                                                                    21553307.000    89642955.506                          45.000  
R 8  21118206.900   113087039.994                          51.250                                                                                                                                    21118211.960    87956586.319                          46.500  
R 1  20805783.984   111218851.372                          51.500                                                                                                                                    20805791.264    86503562.150                          41.750  
R21  21739501.436   116332831.484                          46.750                                                                                                                                    21739508.596    90480857.201                          44.250  
R12  23998939.560   128198032.825                          40.000                                                                                                1                                                                                                 
> 2017 11 25 12 43 31.0000000  0 17                     
G30  21985886.534   115536589.308                          45.500                                                                                                                                    21985898.634    90028507.830                          47.750  
G 7  24246349.200   127415380.874                          41.500                                                                                                                                    24246359.940    99284701.303                          39.000  
G28  20521043.584   107838798.922                          52.500                                                                    20521051.504    84030236.941                          39.750                                                                  
G13  20965942.442   110176805.504                          51.750                                                                    20965950.482    85852061.845                          42.000                                                                  
G19  22300259.692   117188679.781                          47.500                                                                    22300267.092    91315860.034                          35.500                                                                  
G17  21092729.840   110843066.537                          54.250                                                                                                                                    21092739.040    86371228.683                          49.250  
G 5  23722316.002   124661592.191                          42.000                                                                                                                                    23722327.102    97138896.150                          41.000  
G20  24548194.418   129001615.902                          39.250                                                                    24548204.218   100520736.521                          19.000                                                                  
G11  25410745.652   133534392.717                          35.000                                                                    25410757.492   104052773.896                          16.750                                                                  
G15  23386914.324   122899088.480                          47.750                                                                                                                                    23386924.004    95765528.127                          43.500  
R10  21223645.300   113133981.437                          50.750                                                                                                                                    21223652.800    87993075.697                          40.000  
R11  20983786.124   112130998.786                          51.750                                                                                                                                    20983791.524    87213009.698                          46.500  
R20  21553225.360   115254817.519                          44.500                                                                                                                                    21553231.820    89642643.409                          45.250  
R 8  21118827.420   113090357.796                          51.250                                                                                                                                    21118832.000    87959166.827                          46.250  
R 1  20805792.324   111218898.119                          51.500                                                                                                                                    20805800.424    86503598.504                          42.000  
R21  21738849.976   116329346.671                          47.500                                                                                                                                    21738856.776    90478146.796                          44.000  
R12  23998561.040   128195996.657                          40.000                                                                                                1                                                                                                 
> 2017 11 25 12 43 32.0000000  0 17                     
G30  21986159.214   115538023.594                          46.250                                                                                                                                    21986171.714    90029625.451                          47.500  
G 7  24246784.720   127417671.381                          40.750                                                                                                                                    24246795.400    99286486.110                          39.250  
G28  20521430.684   107840834.050                          52.500                                                                    20521438.724    84031822.749                          39.750                                                                  
G13  20965633.602   110175183.345                          52.250                                                                    20965641.682    85850797.829                          42.250                                                                  
G19  22299725.852   117185870.563                          47.500                                                                    22299732.832    91313671.039                          35.750                                                                  
G17  21092309.540   110840858.326                          54.500                                                                                                                                    21092318.640    86369508.008                          49.000  
G 5  23722750.962   124663879.577                          42.000                                                                                                                                    23722761.882    97140678.522                          41.500  
G20  24548316.178   129002256.644                          39.500                                                                    24548326.218   100521235.802                          19.000                                                                  
G11  25410910.712   133535260.265                          35.500                                                                    25410922.152   104053449.891                          15.500                                                                  
G15  23386347.484   122896109.314                          47.500                                                                                                                                    23386357.224    95763206.694                          43.500  
R10  21223878.060   113135217.888                          51.000                                                                                                                                    21223885.220    87994037.378                          39.750  
R11  20983630.984   112130167.106                          52.250                                                                                                                                    20983636.404    87212362.840                          46.500  
R20  21553149.720   115254417.043                          44.250                                                                                                                                    21553157.120    89642331.930                          44.750  
R 8  21119447.340   113093676.025                          50.750                                                                                                                                    21119451.580    87961747.676                          46.000  
R 1  20805801.204   111218945.711                          51.250                                                                                                                                    20805808.464    86503635.524                          41.750  
R21  21738199.856   116325862.185                          47.750                                                                                                                                    21738205.956    90475436.638                          44.250  
R12  23998178.800   128193960.462                          39.250                                                                                                1                                                                                                 
> 2017 11 25 12 43 33.0000000  0 17                     
G30  21986432.154   115539458.084                          46.500                                                                                                                                    21986443.994    90030743.234                          47.000  
G 7  24247220.680   127419962.080                          41.000                                                                                                                                    24247230.780    99288271.062                          39.000  
G28  20521818.224   107842869.549                          52.000                                                                    20521825.804    84033408.852                          39.750                                                                  
G13  20965324.882   110173561.752                          52.500                                                                    20965333.162    85849534.248                          42.000                                                                  
G19  22299190.212   117183061.697                          47.000                                                                    22299197.712    91311482.308                          35.500                                                                  
G17  21091889.320   110838650.723                          54.000                                                                                                                                    21091898.460    86367787.797                          49.250  
G 5  23723186.122   124666167.125                          42.000                                                                                                                                    23723197.562    97142461.017                          40.750  
G20  24548438.398   129002897.829                          39.500                                                                    24548448.438   100521735.423                          19.500                                                                  
G11  25411076.132   133536128.287                          36.750                                                                    25411087.852   104054126.284                          16.250                                                                  
G15  23385780.464   122893130.510                          47.500                                                                                                                                    23385790.384    95760885.550                          43.500  
R10  21224110.100   113136454.424                          51.000                                                                                                                                    21224116.680    87994999.124                          39.500  
R11  20983474.424   112129335.614                          52.000                                                                                                                                    20983481.464    87211716.121                          46.500  
R20  21553075.360   115254017.490                          44.250                                                                                                                                    21553082.300    89642021.169                          45.000  
R 8  21120065.900   113096994.820                          51.250                                                                                                                                    21120070.480    87964328.963                          46.250  
R 1  20805810.144   111218994.214                          51.500                                                                                                                                    20805818.704    86503673.243                          42.250  
R21  21737547.736   116322378.106                          47.750                                                                                                                                    21737554.556    90472726.805                          44.000  
R12  23997796.400   128191924.389                          39.500                                                                                                1                                                                                                 
> 2017 11 25 12 43 34.0000000  0 17                     
G30  21986705.194   115540892.735                          46.750                                                                                                                                    21986717.234    90031861.144                          47.250  
G 7  24247657.040   127422252.837                          42.000                                                                                                                                    24247667.540    99290056.063                          39.500  
G28  20522205.544   107844905.383                          52.000                                                                    20522213.464    84034995.213                          40.250                                                                  
G13  20965016.682   110171940.615                          52.750                                                                    20965024.782    85848271.024                          42.500                                                                  
G19  22298656.092   117180253.127                          46.750                                                                    22298663.832    91309293.812                          35.750                                                                  
G17  21091469.400   110836443.650                          54.250                                                                                                                                    21091478.100    86366068.004                          49.500  
G 5  23723622.182   124668454.805                          40.750                                                                                                                                    23723632.682    97144243.618                          41.000  
G20  24548560.198   129003539.379                          39.500                                                                    24548570.638   100522235.345                          19.500                                                                  
G11  25411241.512   133536996.721                          35.250                                                                    25411252.672   104054802.994                          15.500                                                                  
G15  23385213.904   122890151.972                          48.000                                                                                                                                    23385223.984    95758564.607                          43.750  
R10  21224341.780   113137690.965                          50.750                                                                                                                                    21224348.480    87995960.879                          39.250  
R11  20983319.744   112128504.161                          51.750                                                                                                                                    20983325.264    87211069.440                          46.750  
R20  21553001.000   115253618.755                          44.500                                                                                                                                    21553007.340    89641711.045                          44.500  
R 8  21120686.460   113100314.027                          51.500                                                                                                                                    21120691.260    87966910.564                          46.500  
R 1  20805819.904   111219043.559                          51.750                                                                                                                                    20805827.304    86503711.628                          42.000  
R21  21736897.076   116318894.310                          47.500                                                                                                                                    21736903.996    90470017.186                          43.750  
R12  23997414.860   128189888.285                          39.000                                                                                                1                                                                                                 
> 2017 11 25 12 43 35.0000000  0 17                     
G30  21986977.974   115542327.596                          46.750                                                                                                                                    21986990.414    90032979.222                          47.500  
G 7  24248092.960   127424543.735                          41.750                                                                                                                                    24248103.180    99291841.174                          39.750  
G28  20522593.064   107846941.565                          52.000                                                                    20522600.884    84036581.852                          40.000                                                                  
G13  20964708.482   110170320.010                          52.750                                                                    20964716.462    85847008.211                          42.000                                                                  
G19  22298121.852   117177444.891                          47.000                                                                    22298128.652    91307105.576                          35.500                                                                  
G17  21091049.520   110834237.178                          54.000                                                                                                                                    21091058.220    86364348.678                          49.500  
G 5  23724057.262   124670742.645                          41.000                                                                                                                                    23724068.062    97146026.351                          40.750  
G20  24548681.538   129004181.392                          39.000                                                                    24548692.278   100522735.619                          19.500                                                                  
G11  25411407.072   133537865.638                          36.000                                                                    25411418.872   104055480.099                          16.250                                                                  
G15  23384646.544   122887173.770                          47.500                                                                                                                                    23384656.764    95756243.930                          44.000  
R10  21224574.220   113138927.538                          50.750                                                                                                                                    21224580.080    87996922.662                          39.500  
R11  20983163.764   112127672.853                          52.000                                                                                                                                    20983170.204    87210422.865                          46.750  
R20  21552926.760   115253220.886                          44.500                                                                                                                                    21552933.580    89641401.586                          44.500  
R 8  21121306.060   113103633.754                          51.250                                                                                                                                    21121310.640    87969492.565                          46.250  
R 1  20805829.124   111219093.813                          51.500                                                                                                                                    20805836.644    86503750.710                          42.250  
R21  21736246.176   116315410.908                          47.000                                                                                                                                    21736252.976    90467307.879                          44.000  
R12  23997034.040   128187852.256                          39.500                                                                                                1                                                                                                 
> 2017 11 25 12 43 36.0000000  0 17                     
G30  21987251.554   115543762.618                          47.000                                                                                                                                    21987263.934    90034097.424                          47.500  
G 7  24248528.840   127426834.702                          42.000                                                                                                                                    24248539.460    99293626.339                          39.500  
G28  20522980.704   107848978.065                          52.000                                                                    20522988.564    84038168.733                          40.500                                                                  
G13  20964400.162   110168699.880                          53.000                                                                    20964407.862    85845745.776                          42.000                                                                  
G19  22297587.592   117174636.958                          47.000                                                                    22297594.632    91304917.582                          35.500                                                                  
G17  21090629.700   110832031.217                          53.500                                                                                                                                    21090639.020    86362629.747                          49.250  
G 5  23724492.742   124673030.617                          41.250                                                                                                                                    23724503.542    97147809.194                          40.750  
G20  24548804.598   129004823.773                          39.500                                                                    24548814.438   100523236.171                          18.500                                                                  
G11  25411573.132   133538734.913                          37.000                                                                    25411583.412   104056157.454                          15.500                                                                  
G15  23384080.364   122884195.833                          47.750                                                                                                                                    23384089.924    95753923.464                          44.000  
R10  21224806.440   113140164.128                          50.750                                                                                                                                    21224812.880    87997884.448                          39.000  
R11  20983008.504   112126841.625                          52.500                                                                                                                                    20983014.484    87209776.356                          47.000  
R20  21552852.540   115252823.792                          44.500                                                                                                                                    21552859.120    89641092.737                          44.250  
R 8  21121926.220   113106953.938                          51.250                                                                                                                                    21121931.620    87972074.933                          46.750  
R 1  20805838.824   111219144.903                          51.750                                                                                                                                    20805846.224    86503790.449                          41.750  
R21  21735594.976   116311927.837                          47.750                                                                                                                                    21735602.016    90464598.826                          44.500  
R12  23996653.280   128185816.194                          39.500                                                                                                1                                                                                                 
> 2017 11 25 12 43 37.0000000  0 17                     
G30  21987524.914   115545197.836                          47.500                                                                                                                                    21987536.414    90035215.770                          47.750  
G 7  24248964.880   127429125.763                          41.250                                                                                                                                    24248974.920    99295411.572                          39.750  
G28  20523368.364   107851014.909                          52.000                                                                    20523376.344    84039755.882                          40.750                                                                  
G13  20964091.982   110167080.243                          52.750                                                                    20964099.962    85844483.720                          42.000                                                                  
G19  22297053.132   117171829.339                          47.000                                                                    22297060.832    91302729.832                          35.000                                                                  
G17  21090209.980   110829825.847                          53.750                                                                                                                                    21090218.960    86360911.277                          49.750  
G 5  23724927.942   124675318.743                          41.500                                                                                                                                    23724938.922    97149592.152                          40.500  
G20  24548925.518   129005466.530                          39.000                                                                    24548936.258   100523737.025                          19.250                                                                  
G11  25411738.412   133539604.666                          36.250                                                                    25411749.452   104056835.167                          16.250                                                                  
G15  23383513.766   122881218.223                          48.000                                                                                                                                    23383523.686    95751603.246                          44.250  
R10  21225038.040   113141400.775                          51.000                                                                                                                                    21225045.420    87998846.283                          39.250  
R11  20982852.764   112126010.541                          52.750                                                                                                                                    20982857.944    87209129.956                          46.750  
R20  21552777.400   115252427.559                          44.500                                                                                                                                    21552785.280    89640784.552                          44.500  
R 8  21122546.260   113110274.626                          51.750                                                                                                                                    21122550.840    87974657.686                          46.750  
R 1  20805848.144   111219196.894                          51.750                                                                                                                                    20805856.484    86503830.878                          42.000  
R21  21734945.076   116308445.165                          47.500                                                                                                                                    21734951.296    90461890.087                          44.750  
R12  23996270.640   128183780.226                          40.000                                                                                                1                                                                                                 
> 2017 11 25 12 43 38.0000000  0 17                     
G30  21987798.134   115546633.247                          47.500                                                                                                                                    21987809.994    90036334.272                          47.750  
G 7  24249400.120   127431416.967                          40.750                                                                                                                                    24249411.500    99297196.913                          39.500  
G28  20523755.704   107853052.126                          52.000                                                                    20523763.624    84041343.323                          40.000                                                                  
G13  20963783.602   110165461.136                          52.500                                                                    20963792.002    85843222.075                          42.000                                                                  
G19  22296519.092   117169022.076                          47.750                                                                    22296526.652    91300542.352                          35.500                                                                  
G17  21089790.520   110827621.028                          53.500                                                                                                                                    21089799.500    86359193.233                          49.500  
G 5  23725363.702   124677607.038                          41.750                                                                                                                                    23725374.622    97151375.228                          40.750  
G20  24549048.658   129006109.762                          39.500                                                                    24549059.278   100524238.224                          19.000                                                                  
G11  25411903.832   133540474.877                          36.750                                                                    25411914.872   104057513.251                          16.750                                                                  
G15  23382947.506   122878240.906                          48.000                                                                                                                                    23382957.486    95749283.259                          44.500  
R10  21225270.780   113142637.474                          51.000                                                                                                                                    21225276.300    87999808.162                          39.500  
R11  20982696.944   112125179.529                          52.000                                                                                                                                    20982703.044    87208483.611                          46.250  
R20  21552704.600   115252032.142                          44.000                                                                                                                                    21552710.820    89640477.005                          44.250  
R 8  21123166.560   113113595.817                          51.500                                                                                                                                    21123170.780    87977240.837                          46.500  
R 1  20805858.344   111219249.749                          51.750                                                                                                                                    20805865.624    86503871.987                          41.750  
R21  21734293.196   116304962.878                          47.500                                                                                                                                    21734301.056    90459181.642                          44.500  
R12  23995890.800   128181744.234                          40.000                                                                                                1                                                                                                 
> 2017 11 25 12 43 39.0000000  0 17                     
G30  21988070.654   115548068.825                          47.250                                                                                                                                    21988083.134    90037452.896                          47.750  
G 7  24249835.840   127433708.254                          41.000                                                                                                                                    24249847.520    99298982.323                          40.000  
G28  20524143.264   107855089.650                          51.250                                                                    20524151.784    84042930.999                          40.000                                                                  
G13  20963475.602   110163842.522                          52.500                                                                    20963483.862    85841960.819                          42.000                                                                  
G19  22295984.732   117166215.128                          47.000                                                                    22295992.352    91298355.119                          35.500                                                                  
G17  21089371.100   110825416.785                          53.500                                                                                                                                    21089380.200    86357475.639                          49.250  
G 5  23725798.502   124679895.459                          42.000                                                                                                                                    23725809.702    97153158.411                          41.250  
G20  24549170.998   129006753.380                          40.000                                                                    24549181.618   100524739.730                          19.000                                                                  
G11  25412070.192   133541345.484                          37.750                                                                    25412080.912   104058191.632                          17.750                                                                  
G15  23382380.586   122875263.910                          48.000                                                                                                                                    23382390.606    95746963.518                          44.000  
R10  21225501.920   113143874.205                          50.750                                                                                                                                    21225508.500    88000770.061                          39.750  
R11  20982541.564   112124348.633                          52.250                                                                                                                                    20982547.204    87207837.365                          46.500  
R20  21552629.760   115251637.589                          44.500                                                                                                                                    21552636.680    89640170.134                          44.250  
R 8  21123787.100   113116917.495                          51.500                                                                                                                                    21123791.440    87979824.360                          46.500  
R 1  20805868.364   111219303.485                          51.750                                                                                                                                    20805876.104    86503913.778                          42.000  
R21  21733643.016   116301480.929                          47.500                                                                                                                                    21733650.416    90456473.465                          44.750  
R12  23995509.920   128179708.282                          39.500                                                                                                1                                                                                                 
> 2017 11 25 12 43 40.0000000  0 17                     
G30  21988344.094   115549504.619                          47.750                                                                                                                                    21988355.894    90038571.701                          48.000  
G 7  24250272.060   127435999.678                          41.500                                                                                                                                    24250283.620    99300767.848                          40.250  
G28  20524531.564   107857127.550                          51.750                                                                    20524539.144    84044518.975                          40.000                                                                  
G13  20963167.762   110162224.428                          52.750                                                                    20963175.842    85840699.969                          42.250                                                                  
G19  22295450.772   117163408.518                          47.000                                                                    22295458.112    91296168.155                          35.750                                                                  
G17  21088952.180   110823213.115                          53.750                                                                                                                                    21088961.040    86355758.501                          49.250  
G 5  23726234.422   124682184.043                          41.750                                                                                                                                    23726245.382    97154941.715                          41.000  
G20  24549294.398   129007397.403                          40.000                                                                    24549304.598   100525241.569                          19.500                                                                  
G11  25412236.572   133542216.519                          36.750                                                                    25412246.412   104058870.371                          17.250                                                                  
G15  23381813.926   122872287.221                          47.500                                                                                                                                    23381824.426    95744644.023                          43.750  
R10  21225734.020   113145110.996                          50.250                                                                                                                                    21225740.840    88001732.006                          39.500  
R11  20982386.304   112123517.856                          51.500                                                                                                                                    20982392.644    87207191.209                          46.750  
R20  21552556.900   115251243.899                          45.000                                                                                                                                    21552563.120    89639863.931                          44.500  
R 8  21124407.640   113120239.663                          51.000                                                                                                                                    21124412.100    87982408.273                          46.750  
R 1  20805878.224   111219358.063                          51.750                                                                                                                                    20805885.624    86503956.226                          42.250  
R21  21732991.976   116297999.335                          47.250                                                                                                                                    21732999.736    90453765.555                          44.500  
R12  23995128.940   128177672.362                          39.500                                                                                                1                                                                                                 
> 2017 11 25 12 43 41.0000000  0 17                     
G30  21988617.494   115550940.563                          48.000                                                                                                                                    21988629.594    90039690.616                          47.750  
G 7  24250707.800   127438291.171                          40.750                                                                                                                                    24250719.420    99302553.433                          39.750  
G28  20524919.164   107859165.752                          51.750                                                                    20524927.444    84046107.178                          40.000                                                                  
G13  20962860.182   110160606.796                          52.500                                                                    20962868.222    85839439.473                          42.250                                                                  
G19  22294916.312   117160602.198                          47.500                                                                    22294923.752    91293981.414                          35.500                                                                  
G17  21088532.400   110821009.968                          54.000                                                                                                                                    21088541.620    86354041.765                          49.500  
G 5  23726669.962   124684472.729                          42.000                                                                                                                                    23726680.942    97156725.107                          41.000  
G20  24549416.118   129008041.773                          39.250                                                                    24549426.918   100525743.693                          19.000                                                                  
G11  25412402.152   133543088.040                          37.000                                                                    25412412.352   104059549.483                          16.750                                                                  
G15  23381247.546   122869310.809                          47.750                                                                                                                                    23381257.646    95742324.744                          43.500  
R10  21225965.860   113146347.804                          50.250                                                                                                                                    21225973.840    88002693.964                          39.250  
R11  20982230.944   112122687.173                          51.750                                                                                                                                    20982236.464    87206545.118                          46.500  
R20  21552481.880   115250851.038                          44.500                                                                                                                                    21552489.260    89639558.373                          44.500  
R 8  21125027.760   113123562.308                          51.000                                                                                                                                    21125032.700    87984992.548                          46.500  
R 1  20805888.164   111219413.483                          51.500                                                                                                                                    20805896.264    86503999.333                          42.250  
R21  21732342.276   116294518.111                          47.250                                                                                                                                    21732349.076    90451057.944                          44.500  
R12  23994748.160   128175636.458                          39.500                                                                                                1                                                                                                 
> 2017 11 25 12 43 42.0000000  0 17                     
G30  21988890.614   115552376.722                          47.750                                                                                                                                    21988902.114    90040809.709                          48.000  
G 7  24251144.780   127440582.813                          41.250                                                                                                                                    24251156.280    99304339.130                          40.000  
G28  20525307.304   107861204.336                          52.250                                                                    20525315.284    84047695.689                          40.000                                                                  
G13  20962552.662   110158989.714                          52.250                                                                    20962560.762    85838179.411                          42.250                                                                  
G19  22294382.592   117157796.232                          47.500                                                                    22294390.392    91291794.941                          36.000                                                                  
G17  21088113.720   110818807.427                          54.000                                                                                                                                    21088122.700    86352325.496                          49.250  
G 5  23727105.282   124686761.628                          41.500                                                                                                                                    23727116.242    97158508.665                          41.000  
G20  24549539.578   129008686.621                          40.000                                                                    24549549.718   100526246.162                          19.750                                                                  
G11  25412567.452   133543959.979                          37.000                                                                    25412577.912   104060228.879                          15.500                                                                  
G15  23380681.826   122866334.753                          47.750                                                                                                                                    23380691.926    95740005.742                          43.750  
R10  21226198.480   113147584.676                          50.500                                                                                                                                    21226204.480    88003655.981                          39.250  
R11  20982074.744   112121856.621                          51.750                                                                                                                                    20982081.564    87205899.131                          46.250  
R20  21552410.140   115250459.035                          44.250                                                                                                                                    21552416.600    89639253.486                          44.750  
R 8  21125648.360   113126885.440                          50.500                                                                                                                                    21125653.400    87987577.204                          46.250  
R 1  20805898.924   111219469.820                          51.500                                                                                                                                    20805906.564    86504043.157                          42.250  
R21  21731691.576   116291037.242                          46.750                                                                                                                                    21731698.616    90448350.606                          44.500  
R12  23994366.440   128173600.631                          39.250                                                                                                1                                                                                                 
> 2017 11 25 12 43 43.0000000  0 17                     
G30  21989164.134   115553813.010                          48.000                                                                                                                                    21989175.594    90041928.893                          47.750  
G 7  24251581.020   127442874.484                          41.250                                                                                                                                    24251592.400    99306124.842                          39.750  
G28  20525695.384   107863243.195                          52.250                                                                    20525703.124    84049284.408                          40.250                                                                  
G13  20962244.602   110157373.060                          52.000                                                                    20962252.682    85836919.677                          41.500                                                                  
G19  22293848.532   117154990.535                          47.000                                                                    22293855.972    91289608.685                          36.250                                                                  
G17  21087694.780   110816605.368                          54.250                                                                                                                                    21087703.360    86350609.609                          49.000  
G 5  23727540.462   124689050.577                          41.750                                                                                                                                    23727552.202    97160292.253                          41.500  
G20  24549661.918   129009331.792                          40.000                                                                    24549672.638   100526748.899                          19.750                                                                  
G11  25412733.112   133544832.305                          37.500                                                                    25412744.492   104060908.603                          15.500                                                                  
G15  23380115.286   122863358.929                          48.000                                                                                                                                    23380125.206    95737686.922                          43.750  
R10  21226430.040   113148821.510                          50.750                                                                                                                                    21226436.720    88004617.959                          39.500  
R11  20981920.404   112121026.085                          52.000                                                                                                                                    20981925.684    87205253.159                          46.250  
R20  21552335.980   115250067.845                          44.000                                                                                                                                    21552343.600    89638949.229                          44.750  
R 8  21126268.640   113130208.985                          50.750                                                                                                                                    21126273.580    87990162.179                          46.250  
R 1  20805910.244   111219526.941                          51.750                                                                                                                                    20805917.164    86504087.581                          42.000  
R21  21731039.776   116287556.719                          47.000                                                                                                                                    21731048.816    90445643.541                          43.750  
R12  23993986.060   128171564.786                          39.750                                                                                                1                                                                                                 
> 2017 11 25 12 43 44.0000000  0 17                     
G30  21989437.054   115555249.487                          47.500                                                                                                                                    21989449.374    90043048.223                          47.750  
G 7  24252017.400   127445166.299                          41.500                                                                                                                                    24252028.260    99307910.674                          39.500  
G28  20526083.384   107865282.409                          52.250                                                                    20526091.544    84050873.406                          40.250                                                                  
G13  20961937.122   110155756.932                          52.250                                                                    20961944.862    85835660.364                          42.000                                                                  
G19  22293314.752   117152185.163                          47.000                                                                    22293322.552    91287422.683                          36.000                                                                  
G17  21087275.880   110814403.892                          54.500                                                                                                                                    21087284.800    86348894.171                          48.500  
G 5  23727976.762   124691339.720                          42.250                                                                                                                                    23727987.682    97162076.001                          41.500  
G20  24549785.158   129009977.350                          40.250                                                                    24549795.318   100527251.931                          19.750                                                                  
G11  25412898.932   133545705.050                          37.000                                                                    25412910.372   104061588.666                          16.250                                                                  
G15  23379549.326   122860383.418                          48.250                                                                                                                                    23379558.726    95735368.340                          43.750  
R10  21226662.340   113150058.401                          51.000                                                                                                                                    21226668.920    88005579.987                          40.000  
R11  20981765.084   112120195.712                          52.750                                                                                                                                    20981770.604    87204607.309                          46.000  
R20  21552263.120   115249677.484                          43.750                                                                                                                                    21552270.500    89638645.621                          44.750  
R 8  21126889.880   113133533.033                          50.750                                                                                                                                    21126894.580    87992747.552                          46.500  
R 1  20805921.224   111219584.956                          51.500                                                                                                                                    20805928.024    86504132.704                          42.000  
R21  21730390.916   116284076.508                          47.000                                                                                                                                    21730397.836    90442936.717                          44.000  
R12  23993604.300   128169528.965                          39.250                                                                                                1                                                                                                 
> 2017 11 25 12 43 45.0000000  0 17                     
G30  21989710.694   115556686.137                          48.000                                                                                                                                    21989722.834    90044167.681                          47.500  
G 7  24252453.000   127447458.149                          42.000                                                                                                                                    24252464.920    99309696.525                          39.750  
G28  20526471.324   107867321.912                          52.000                                                                    20526479.664    84052462.621                          40.000                                                                  
G13  20961629.502   110154141.258                          52.500                                                                    20961637.422    85834401.396                          42.500                                                                  
G19  22292781.272   117149380.088                          47.750                                                                    22292788.972    91285236.917                          35.500                                                                  
G17  21086857.040   110812202.933                          54.500                                                                                                                                    21086865.440    86347179.140                          49.000  
G 5  23728412.262   124693628.940                          42.500                                                                                                                                    23728423.882    97163859.798                          41.250  
G20  24549908.138   129010623.278                          39.500                                                                    24549918.398   100527755.243                          19.500                                                                  
G11  25413064.472   133546578.235                          37.250                                                                    25413076.212   104062269.086                          16.250                                                                  
G15  23378982.746   122857408.182                          48.250                                                                                                                                    23378992.966    95733049.970                          44.500  
R10  21226893.660   113151295.289                          50.500                                                                                                                                    21226901.520    88006542.013                          40.000  
R11  20981609.084   112119365.403                          52.500                                                                                                                                    20981614.604    87203961.517                          46.000  
R20  21552189.920   115249287.960                          43.750                                                                                                                                    21552197.660    89638342.656                          44.750  
R 8  21127510.140   113136857.498                          50.500                                                                                                                                    21127515.420    87995333.243                          46.750  
R 1  20805931.864   111219643.803                          51.000                                                                                                                                    20805939.364    86504178.472                          42.000  
R21  21729738.956   116280596.614                          46.750                                                                                                                                    21729747.636    90440230.138                          44.000  
R12  23993223.520   128167493.111                          39.500                                                                                                1                                                                                                 
> 2017 11 25 12 43 46.0000000  0 17                     
G30  21989984.314   115558123.027                          47.750                                                                                                                                    21989996.154    90045287.333                          47.500  
G 7  24252888.500   127449750.217                          41.250                                                                                                                                    24252900.940    99311482.546                          39.500  
G28  20526859.824   107869361.853                          52.250                                                                    20526867.464    84054052.190                          40.500                                                                  
G13  20961322.522   110152526.170                          52.250                                                                    20961329.682    85833142.882                          41.500                                                                  
G19  22292248.092   117146575.439                          48.250                                                                    22292255.032    91283051.480                          35.750                                                                  
G17  21086438.260   110810002.642                          54.500                                                                                                                                    21086447.060    86345464.630                          49.000  
G 5  23728848.542   124695918.412                          42.250                                                                                                                                    23728859.382    97165643.800                          40.750  
G20  24550031.378   129011269.710                          39.750                                                                    24550041.418   100528258.942                          18.500                                                                  
G11  25413231.612   133547451.887                          36.750                                                                    25413242.472   104062949.871                          16.750                                                                  
G15  23378417.406   122854433.333                          48.500                                                                                                                                    23378426.346    95730731.908                          44.500  
R10  21227125.940   113152532.280                          50.750                                                                                                                                    21227133.580    88007504.114                          40.000  
R11  20981454.624   112118535.297                          52.500                                                                                                                                    20981459.324    87203315.877                          46.250  
R20  21552117.540   115248899.323                          43.750                                                                                                                                    21552124.820    89638040.383                          45.250  
R 8  21128131.420   113140182.524                          50.500                                                                                                                                    21128136.000    87997919.374                          46.500  
R 1  20805942.864   111219703.620                          51.500                                                                                                                                    20805950.264    86504224.996                          42.000  
R21  21729088.996   116277117.187                          46.750                                                                                                                                    21729096.976    90437523.926                          44.000  
R12  23992841.900   128165457.394                          39.250                                                                                                1                                                                                                 
> 2017 11 25 12 43 47.0000000  0 17                     
G30  21990257.754   115559560.101                          47.750                                                                                                                                    21990269.594    90046407.129                          47.250  
G 7  24253324.600   127452042.356                          41.000                                                                                                                                    24253336.580    99313268.618                          39.500  
G28  20527247.764   107871402.129                          52.250                                                                    20527255.164    84055642.017                          40.500                                                                  
G13  20961015.282   110150911.584                          52.000                                                                    20961023.382    85831884.763                          41.750                                                                  
G19  22291713.632   117143771.084                          48.000                                                                    22291721.092    91280866.266                          36.000                                                                  
G17  21086019.780   110807802.871                          54.000                                                                                                                                    21086028.760    86343750.529                          49.500  
G 5  23729283.982   124698208.017                          42.750                                                                                                                                    23729294.762    97167427.905                          41.000  
G20  24550153.478   129011916.534                          39.500                                                                    24550164.258   100528762.965                          18.500                                                                  
G11  25413398.632   133548326.031                          36.750                                                                    25413409.032   104063631.036                          16.250                                                                  
G15  23377850.606   122851458.754                          48.500                                                                                                                                    23377860.586    95728414.056                          44.000  
R10  21227358.280   113153769.299                          50.750                                                                                                                                    21227364.740    88008466.235                          40.250  
R11  20981299.644   112117705.253                          52.500                                                                                                                                    20981305.164    87202670.289                          46.500  
R20  21552045.620   115248511.534                          44.000                                                                                                                                    21552053.020    89637738.761                          45.250  
R 8  21128751.760   113143508.025                          50.250                                                                                                                                    21128757.040    88000505.877                          46.500  
R 1  20805954.504   111219764.287                          51.500                                                                                                                                    20805962.484    86504272.182                          41.750  
R21  21728439.556   116273638.141                          47.000                                                                                                                                    21728447.296    90434818.001                          44.250  
R12  23992460.120   128163421.725                          39.250                                                                                                1                                                                                                 
> 2017 11 25 12 43 48.0000000  0 17                     
G30  21990531.074   115560997.405                          47.000                                                                                                                                    21990543.154    90047527.108                          47.250  
G 7  24253760.920   127454334.639                          40.750                                                                                                                                    24253772.700    99315054.806                          39.500  
G28  20527636.304   107873442.746                          51.750                                                                    20527644.224    84057232.106                          40.750                                                                  
G13  20960708.202   110149297.527                          52.000                                                                    20960715.882    85830627.053                          42.000                                                                  
G19  22291180.452   117140967.060                          48.000                                                                    22291187.732    91278681.311                          35.500                                                                  
G17  21085601.000   110805603.702                          54.000                                                                                                                                    21085609.460    86342036.890                          49.250  
G 5  23729719.362   124700497.770                          42.000                                                                                                                                    23729730.462    97169212.132                          41.000  
G20  24550277.238   129012563.757                          39.000                                                                    24550287.398   100529267.289                          19.250                                                                  
G11  25413565.152   133549200.571                          36.750                                                                    25413575.652   104064312.500                          16.750                                                                  
G15  23377284.666   122848484.538                          48.500                                                                                                                                    23377295.066    95726096.483                          43.750  
R10  21227589.980   113155006.360                          51.000                                                                                                                                    21227597.840    88009428.389                          40.500  
R11  20981144.224   112116875.347                          52.250                                                                                                                                    20981149.264    87202024.803                          46.500  
R20  21551972.520   115248124.587                          44.000                                                                                                                                    21551980.020    89637437.808                          45.000  
R 8  21129374.440   113146834.041                          50.250                                                                                                                                    21129379.380    88003092.779                          46.250  
R 1  20805966.044   111219825.841                          51.250                                                                                                                                    20805973.224    86504320.053                          42.000  
R21  21727789.736   116270159.466                          46.500                                                                                                                                    21727797.356    90432112.365                          44.750  
R12  23992079.520   128161386.046                          40.000                                                                                                1                                                                                                 
> 2017 11 25 12 43 49.0000000  0 17                     
G30  21990805.094   115562434.805                          46.500                                                                                                                                    21990816.774    90048647.156                          47.250  
G 7  24254196.720   127456626.946                          40.500                                                                                                                                    24254208.580    99316841.013                          39.000  
G28  20528024.564   107875483.654                          51.750                                                                    20528032.484    84058822.418                          40.500                                                                  
G13  20960400.942   110147683.887                          52.000                                                                    20960408.762    85829369.675                          42.000                                                                  
G19  22290646.092   117138163.320                          48.250                                                                    22290654.132    91276496.576                          36.000                                                                  
G17  21085182.500   110803405.029                          54.000                                                                                                                                    21085190.840    86340323.633                          49.000  
G 5  23730155.462   124702787.610                          42.750                                                                                                                                    23730165.722    97170996.420                          41.000  
G20  24550400.098   129013211.309                          39.000                                                                    24550410.418   100529771.889                          18.500                                                                  
G11  25413731.172   133550075.553                          36.250                                                                    25413741.612   104064994.288                          16.750                                                                  
G15  23376719.426   122845510.548                          48.000                                                                                                                                    23376729.226    95723779.086                          43.750  
R10  21227822.500   113156243.376                          50.750                                                                                                                                    21227829.760    88010390.517                          40.500  
R11  20980988.144   112116045.474                          52.500                                                                                                                                    20980993.664    87201379.346                          47.000  
R20  21551900.140   115247738.443                          44.000                                                                                                                                    21551907.760    89637137.471                          45.000  
R 8  21129994.860   113150160.496                          50.000                                                                                                                                    21129999.320    88005680.011                          46.500  
R 1  20805977.544   111219888.208                          51.000                                                                                                                                    20805985.404    86504368.554                          42.000  
R21  21727139.676   116266681.086                          46.500                                                                                                                                    21727147.056    90429406.956                          44.750  
R12  23991698.600   128159350.409                          39.250                                                                                                1                                                                                                 
> 2017 11 25 12 43 50.0000000  0 17                     
G30  21991078.154   115563872.448                          47.250                                                                                                                                    21991089.594    90049767.404                          47.000  
G 7  24254633.160   127458919.418                          40.000                                                                                                                                    24254644.900    99318627.355                          38.750  
G28  20528412.724   107877524.928                          52.250                                                                    20528421.064    84060413.019                          40.250                                                                  
G13  20960093.982   110146070.803                          52.250                                                                    20960102.142    85828112.723                          42.000                                                                  
G19  22290112.932   117135359.945                          48.000                                                                    22290120.452    91274312.130                          35.750                                                                  
G17  21084764.660   110801206.955                          54.250                                                                                                                                    21084772.880    86338610.850                          49.000  
G 5  23730591.762   124705077.673                          43.000                                                                                                                                    23730602.562    97172780.885                          41.250  
G20  24550523.378   129013859.339                          39.500                                                                    24550533.998   100530276.857                          19.250                                                                  
G11  25413898.292   133550950.995                          36.000                                                                    25413908.552   104065676.436                          17.250                                                                  
G15  23376153.026   122842536.913                          48.500                                                                                                                                    23376162.786    95721461.970                          44.000  
R10  21228053.780   113157480.495                          50.500                                                                                                                                    21228061.660    88011352.719                          40.500  
R11  20980833.884   112115215.747                          52.500                                                                                                                                    20980838.924    87200734.005                          46.750  
R20  21551827.740   115247353.188                          44.000                                                                                                                                    21551836.420    89636837.829                          44.750  
R 8  21130615.560   113153487.452                          50.250                                                                                                                                    21130620.860    88008267.639                          46.750  
R 1  20805989.364   111219951.489                          51.250                                                                                                                                    20805996.864    86504417.777                          41.750  
R21  21726489.236   116263203.083                          46.500                                                                                                                                    21726497.116    90426701.849                          44.750  
R12  23991315.240   128157314.860                          39.000                                                                                                1                                                                                                 
> 2017 11 25 12 43 51.0000000  0 17                     
G30  21991351.654   115565310.250                          47.500                                                                                                                                    21991363.514    90050887.770                          47.500  
G 7  24255069.780   127461211.969                          40.500                                                                                                                                    24255081.340    99320413.761                          38.750  
G28  20528801.684   107879566.533                          52.250                                                                    20528809.424    84062003.876                          40.500                                                                  
G13  20959787.162   110144458.206                          52.500                                                                    20959794.902    85826856.150                          41.500                                                                  
G19  22289579.492   117132556.843                          48.500                                                                    22289587.132    91272127.893                          36.000                                                                  
G17  21084346.640   110799009.423                          54.000                                                                                                                                    21084354.680    86336898.487                          49.000  
G 5  23731027.282   124707367.817                          43.500                                                                                                                                    23731037.902    97174565.401                          40.500  
G20  24550646.638   129014507.674                          39.250                                                                    24550657.258   100530782.045                          19.250                                                                  
G11  25414064.432   133551826.820                          36.750                                                                    25414074.752   104066358.893                          17.250                                                                  
G15  23375587.286   122839563.559                          48.250                                                                                                                                    23375597.146    95719145.066                          44.250  
R10  21228286.980   113158717.618                          50.500                                                                                                                                    21228294.160    88012314.923                          40.250  
R11  20980678.004   112114386.128                          52.250                                                                                                                                    20980683.284    87200088.750                          47.000  
R20  21551756.860   115246968.749                          44.000                                                                                                                                    21551763.080    89636538.821                          44.750  
R 8  21131236.940   113156814.833                          50.750                                                                                                                                    21131243.060    88010855.604                          46.750  
R 1  20806001.364   111220015.606                          51.500                                                                                                                                    20806008.864    86504467.650                          41.250  
R21  21725838.956   116259725.438                          46.500                                                                                                                                    21725848.116    90423997.018                          44.250  
R12  23990936.340   128155279.244                          39.500                                                                                                1                                                                                                 
> 2017 11 25 12 43 52.0000000  0 17                     
G30  21991624.734   115566748.104                          48.000                                                                                                                                    21991637.534    90052008.180                          47.500  
G 7  24255506.680   127463504.515                          41.000                                                                                                                                    24255517.760    99322200.165                          39.000  
G28  20529190.064   107881608.364                          52.000                                                                    20529198.164    84063594.915                          40.250                                                                  
G13  20959480.222   110142845.985                          52.750                                                                    20959488.202    85825599.874                          41.500                                                                  
G19  22289046.312   117129753.984                          48.750                                                                    22289054.072    91269943.846                          36.250                                                                  
G17  21083928.700   110796812.340                          54.250                                                                                                                                    21083936.860    86335186.477                          49.000  
G 5  23731463.342   124709658.014                          43.750                                                                                                                                    23731473.322    97176349.960                          40.500  
G20  24550770.338   129015156.384                          39.250                                                                    24550780.838   100531287.536                          18.500                                                                  
G11  25414231.432   133552702.995                          36.750                                                                    25414241.712   104067041.638                          17.250                                                                  
G15  23375021.506   122836590.393                          48.000                                                                                                                                    23375031.306    95716828.317                          44.500  
R10  21228518.720   113159954.681                          50.500                                                                                                                                    21228525.880    88013277.088                          40.000  
R11  20980522.964   112113556.535                          52.250                                                                                                                                    20980527.784    87199443.506                          47.000  
R20  21551684.300   115246585.075                          43.500                                                                                                                                    21551692.620    89636240.408                          45.000  
R 8  21131858.920   113160142.611                          50.500                                                                                                                                    21131863.840    88013443.872                          46.500  
R 1  20806013.164   111220080.485                          51.500                                                                                                                                    20806021.384    86504518.112                          41.250  
R21  21725189.836   116256248.029                          47.000                                                                                                                                    21725198.056    90421292.367                          44.250  
R12  23990555.460   128153243.570                          39.500                                                                                                1                                                                                                 
> 2017 11 25 12 43 53.0000000  0 17                     
G30  21991899.174   115568186.278                          46.250                                                                                                                                    21991911.134    90053128.827                          48.000  
G 7  24255941.920   127465797.311                          40.500                                                                                                                                    24255953.840    99323986.755                          39.000  
G28  20529578.744   107883650.660                          52.000                                                                    20529586.384    84065186.317                          40.250                                                                  
G13  20959173.802   110141234.395                          52.750                                                                    20959181.722    85824344.089                          41.500                                                                  
G19  22288513.272   117126951.570                          48.250                                                                    22288520.952    91267760.154                          36.250                                                                  
G17  21083510.720   110794615.940                          54.250                                                                                                                                    21083519.120    86333474.998                          48.750  
G 5  23731899.382   124711948.493                          44.000                                                                                                                                    23731909.422    97178134.744                          40.500  
G20  24550892.898   129015805.594                          39.000                                                                    24550903.678   100531793.397                          20.000                                                                  
G11  25414398.712   133553579.734                          36.250                                                                    25414408.632   104067724.790                          16.750                                                                  
G15  23374456.266   122833617.665                          48.500                                                                                                                                    23374465.666    95714511.908                          44.250  
R10  21228749.960   113161191.894                          50.500                                                                                                                                    21228757.700    88014239.356                          40.250  
R11  20980367.264   112112727.166                          52.250                                                                                                                                    20980373.124    87198798.444                          46.500  
R20  21551613.200   115246202.350                          43.750                                                                                                                                    21551621.640    89635942.735                          45.000  
R 8  21132479.980   113163470.999                          50.500                                                                                                                                    21132485.620    88016032.618                          46.500  
R 1  20806025.484   111220146.370                          51.250                                                                                                                                    20806033.124    86504569.355                          41.750  
R21  21724539.916   116252771.099                          47.250                                                                                                                                    21724547.896    90418588.094                          44.250  
R12  23990174.900   128151208.037                          39.750                                                                                                1                                                                                                 
> 2017 11 25 12 43 54.0000000  0 17                     
G30  21992173.114   115569624.657                          46.500                                                                                                                                    21992184.434    90054249.638                          48.000  
G 7  24256378.560   127468090.214                          40.000                                                                                                                                    24256390.120    99325773.420                          39.000  
G28  20529967.184   107885693.298                          52.000                                                                    20529975.004    84066777.976                          40.000                                                                  
G13  20958866.982   110139623.303                          52.500                                                                    20958875.142    85823088.697                          41.750                                                                  
G19  22287979.692   117124149.472                          48.250                                                                    22287987.032    91265576.701                          36.250                                                                  
G17  21083092.860   110792420.108                          54.750                                                                                                                                    21083101.200    86331763.962                          48.750  
G 5  23732335.542   124714239.092                          44.250                                                                                                                                    23732345.522    97179919.620                          40.750  
G20  24551017.378   129016455.229                          38.500                                                                    24551027.638   100532299.611                          19.250                                                                  
G11  25414565.712   133554456.928                          36.500                                                                    25414575.332   104068408.332                          16.250                                                                  
G15  23373890.966   122830645.259                          48.750                                                                                                                                    23373900.706    95712195.748                          44.500  
R10  21228982.760   113162429.158                          50.500                                                                                                                                    21228990.500    88015201.668                          40.250  
R11  20980212.204   112111897.878                          52.250                                                                                                                                    20980217.844    87198153.438                          46.500  
R20  21551541.660   115245820.489                          43.500                                                                                                                                    21551549.760    89635645.734                          45.250  
R 8  21133101.480   113166799.917                          50.500                                                                                                                                    21133107.000    88018621.779                          46.500  
R 1  20806037.824   111220213.128                          51.250                                                                                                                                    20806045.324    86504621.274                          41.750  
R21  21723890.376   116249294.570                          47.000                                                                                                                                    21723898.356    90415884.134                          44.750  
R12  23989792.820   128149172.590                          39.750                                                                                                1                                                                                                 
> 2017 11 25 12 43 55.0000000  0 17                     
G30  21992446.134   115571063.195                          47.000                                                                                                                                    21992458.094    90055370.576                          47.500  
G 7  24256814.900   127470383.191                          40.000                                                                                                                                    24256826.460    99327560.149                          39.500  
G28  20530356.084   107887736.253                          52.000                                                                    20530364.244    84068369.888                          40.000                                                                  
G13  20958560.602   110138012.716                          52.500                                                                    20958568.582    85821833.690                          42.250                                                                  
G19  22287446.812   117121347.687                          48.000                                                                    22287453.852    91263393.494                          35.500                                                                  
G17  21082675.200   110790224.827                          55.250                                                                                                                                    21082683.140    86330053.352                          49.000  
G 5  23732771.082   124716529.861                          44.500                                                                                                                                    23732781.042    97181704.642                          41.250  
G20  24551141.458   129017105.180                          39.250                                                                    24551151.318   100532806.074                          18.250                                                                  
G11  25414732.332   133555334.475                          35.750                                                                    25414742.072   104069092.149                          15.500                                                                  
G15  23373325.246   122827673.119                          48.750                                                                                                                                    23373334.166    95709879.793                          44.500  
R10  21229214.760   113163666.453                          50.500                                                                                                                                    21229222.980    88016164.003                          40.250  
R11  20980056.324   112111068.667                          52.000                                                                                                                                    20980062.444    87197508.502                          46.750  
R20  21551469.420   115245439.435                          43.500                                                                                                                                    21551477.880    89635349.354                          45.000  
R 8  21133723.420   113170129.288                          50.000                                                                                                                                    21133728.940    88021211.285                          46.500  
R 1  20806050.664   111220280.741                          51.250                                                                                                                                    20806058.284    86504673.866                          41.500  
R21  21723240.876   116245818.379                          47.500                                                                                                                                    21723248.736    90413180.435                          44.500  
R12  23989413.700   128147137.108                          39.500                                                                                                1                                                                                                 
> 2017 11 25 12 43 56.0000000  0 17                     
G30  21992720.294   115572501.931                          46.250                                                                                                                                    21992731.794    90056491.674                          47.500  
G 7  24257252.420   127472676.281                          40.000                                                                                                                                    24257262.520    99329346.964                          39.250  
G28  20530744.984   107889779.574                          52.250                                                                    20530752.964    84069962.090                          40.500                                                                  
G13  20958253.982   110136402.623                          52.250                                                                    20958262.202    85820579.074                          42.000                                                                  
G19  22286913.632   117118546.233                          48.250                                                                    22286920.792    91261210.541                          36.250                                                                  
G17  21082257.600   110788030.119                          54.750                                                                                                                                    21082265.700    86328343.196                          49.000  
G 5  23733208.022   124718820.781                          44.250                                                                                                                                    23733217.102    97183489.778                          41.250  
G20  24551264.018   129017755.609                          38.500                                                                    24551275.578   100533312.912                          18.500                                                                  
G11  25414899.672   133556212.502                          35.000                                                                    25414909.352   104069776.338                          16.750                                                                  
G15  23372759.746   122824701.296                          48.500                                                                                                                                    23372769.266    95707564.087                          44.250  
R10  21229446.860   113164903.773                          50.500                                                                                                                                    21229454.140    88017126.363                          40.250  
R11  20979902.244   112110239.635                          52.500                                                                                                                                    20979907.644    87196863.698                          46.750  
R20  21551398.840   115245059.218                          43.500                                                                                                                                    21551408.000    89635053.628                          45.250  
R 8  21134345.640   113173459.106                          50.250                                                                                                                                    21134350.560    88023801.139                          46.500  
R 1  20806063.644   111220349.231                          51.000                                                                                                                                    20806071.504    86504727.137                          41.750  
R21  21722591.456   116242342.545                          47.750                                                                                                                                    21722599.096    90410477.010                          44.750  
R12  23989032.500   128145101.645                          39.000                                                                                                1                                                                                                 
> 2017 11 25 12 43 57.0000000  0 17                     
G30  21992993.974   115573940.807                          46.000                                                                                                                                    21993005.354    90057612.876                          47.500  
G 7  24257688.440   127474969.432                          39.750                                                                                                                                    24257699.660    99331133.827                          39.250  
G28  20531133.924   107891823.162                          52.500                                                                    20531141.964    84071554.490                          40.500                                                                  
G13  20957947.922   110134792.980                          52.500                                                                    20957956.022    85819324.805                          42.250                                                                  
G19  22286381.012   117115745.078                          48.500                                                                    22286388.472    91259027.827                          36.000                                                                  
G17  21081840.200   110785835.921                          54.500                                                                                                                                    21081848.140    86326633.429                          49.000  
G 5  23733643.202   124721111.756                          43.750                                                                                                                                    23733653.002    97185274.951                          41.500  
G20  24551388.878   129018406.363                          38.750                                                                    24551399.198   100533819.991                          18.250                                                                  
G11  25415067.232   133557090.915                          35.500                                                                    25415076.912   104070460.777                          16.250                                                                  
G15  23372193.826   122821729.747                          48.250                                                                                                                                    23372203.226    95705248.600                          44.500  
R10  21229678.980   113166141.071                          50.000                                                                                                                                    21229686.020    88018088.704                          40.500  
R11  20979746.644   112109410.644                          52.250                                                                                                                                    20979752.744    87196218.927                          46.500  
R20  21551328.280   115244679.774                          43.500                                                                                                                                    21551336.260    89634758.503                          45.250  
R 8  21134967.000   113176789.320                          50.250                                                                                                                                    21134972.640    88026391.304                          46.250  
R 1  20806076.524   111220418.531                          51.500                                                                                                                                    20806084.284    86504781.032                          41.750  
R21  21721941.916   116238867.020                          47.750                                                                                                                                    21721948.616    90407773.833                          44.750  
R12  23988648.960   128143066.245                          38.750                                                                                                1                                                                                                 
> 2017 11 25 12 43 58.0000000  0 17                     
G30  21993268.374   115575379.901                          47.000                                                                                                                                    21993279.814    90058734.246                          47.500  
G 7  24258124.100   127477262.755                          40.250                                                                                                                                    24258135.480    99332920.834                          39.750  
G28  20531522.544   107893867.161                          52.250                                                                    20531530.644    84073147.214                          40.000                                                                  
G13  20957641.962   110133183.901                          52.250                                                                    20957649.662    85818070.975                          42.250                                                                  
G19  22285847.612   117112944.289                          48.250                                                                    22285854.832    91256845.398                          36.000                                                                  
G17  21081422.520   110783642.362                          54.500                                                                                                                                    21081430.680    86324924.160                          49.000  
G 5  23734079.202   124723402.959                          43.750                                                                                                                                    23734088.782    97187060.304                          41.500  
G20  24551512.778   129019057.560                          39.000                                                                    24551522.938   100534327.388                          18.500                                                                  
G11  25415233.952   133557969.833                          35.250                                                                    25415243.632   104071145.650                          15.500                                                                  
G15  23371629.026   122818758.555                          48.500                                                                                                                                    23371638.066    95702933.382                          44.500  
R10  21229910.960   113167378.460                          50.250                                                                                                                                    21229918.360    88019051.117                          40.000  
R11  20979591.344   112108581.815                          52.250                                                                                                                                    20979597.204    87195574.282                          46.500  
R20  21551256.660   115244301.265                          43.500                                                                                                                                    21551266.060    89634464.105                          44.750  
R 8  21135589.260   113180120.075                          50.250                                                                                                                                    21135594.300    88028981.889                          46.250  
R 1  20806089.504   111220488.772                          51.500                                                                                                                                    20806096.884    86504835.666                          42.250  
R21  21721292.836   116235391.947                          47.250                                                                                                                                    21721299.876    90405071.001                          44.750  
R12  23988269.000   128141030.870                          39.000                                                                                                1                                                                                                 
> 2017 11 25 12 43 59.0000000  0 17                     
G30  21993541.954   115576819.240                          47.000                                                                                                                                    21993553.934    90059855.809                          47.750  
G 7  24258561.040   127479556.189                          41.000                                                                                                                                    24258572.020    99334707.918                          39.500  
G28  20531911.564   107895911.517                          52.250                                                                    20531919.304    84074740.221                          40.250                                                                  
G13  20957335.502   110131575.340                          52.000                                                                    20957343.502    85816817.555                          41.500                                                                  
G19  22285314.772   117110143.868                          48.000                                                                    22285322.112    91254663.249                          36.000                                                                  
G17  21081005.220   110781449.370                          54.500                                                                                                                                    21081013.380    86323215.339                          49.000  
G 5  23734514.902   124725694.317                          43.750                                                                                                                                    23734524.882    97188845.768                          41.500  
G20  24551637.078   129019709.179                          39.250                                                                    24551646.758   100534835.129                          19.750                                                                  
G11  25415401.272   133558849.190                          35.750                                                                    25415410.912   104071830.859                          16.250                                                                  
G15  23371063.746   122815787.687                          48.750                                                                                                                                    23371072.846    95700618.419                          44.250  
R10  21230143.960   113168615.918                          50.500                                                                                                                                    21230151.340    88020013.587                          40.000  
R11  20979436.624   112107753.098                          52.250                                                                                                                                    20979441.904    87194929.718                          46.250  
R20  21551186.360   115243923.588                          43.500                                                                                                                                    21551194.820    89634170.352                          45.000  
R 8  21136210.940   113183451.363                          50.500                                                                                                                                    21136217.060    88031572.895                          46.000  
R 1  20806102.704   111220559.882                          51.000                                                                                                                                    20806110.564    86504890.972                          42.250  
R21  21720643.216   116231917.283                          47.500                                                                                                                                    21720650.036    90402368.495                          45.000  
R12  23987888.100   128138995.583                          39.250                                                                                                1                                                                                                 
> 2017 11 25 12 44  0.0000000  0 17                     
G30  21993815.914   115578258.710                          47.250                                                                                                                                    21993827.874    90060977.469                          47.750  
G 7  24258997.560   127481849.734                          41.000                                                                                                                                    24259008.540    99336495.099                          39.000  
G28  20532301.244   107897956.188                          52.750                                                                    20532309.284    84076333.471                          39.750                                                                  
G13  20957029.422   110129967.270                          52.000                                                                    20957037.402    85815564.514                          41.500                                                                  
G19  22284781.912   117107343.727                          48.500                                                                    22284788.912    91252481.321                          36.500                                                                  
G17  21080587.900   110779256.898                          54.500                                                                                                                                    21080596.280    86321506.920                          48.750  
G 5  23734951.622   124727985.794                          42.750                                                                                                                                    23734961.902    97190631.332                          41.500  
G20  24551760.598   129020361.174                          39.000                                                                    24551771.338   100535343.175                          19.250                                                                  
G11  25415569.052   133559728.948                          34.750                                                                    25415578.492   104072516.395                          16.250                                                                  
G15  23370498.206   122812817.110                          48.500                                                                                                                                    23370507.646    95698303.688                          44.250  
R10  21230375.660   113169853.360                          51.000                                                                                                                                    21230383.300    88020976.042                          40.000  
R11  20979281.224   112106924.403                          52.000                                                                                                                                    20979286.844    87194285.182                          46.500  
R20  21551116.260   115243546.753                          43.250                                                                                                                                    21551124.360    89633877.260                          45.750  
R 8  21136833.220   113186783.089                          50.250                                                                                                                                    21136838.740    88034164.232                          45.750  
R 1  20806116.444   111220631.844                          51.250                                                                                                                                    20806124.424    86504946.950                          42.500  
R21  21719994.556   116228442.892                          47.500                                                                                                                                    21720001.716    90399666.189                          44.500  
R12  23987506.520   128136960.299                          39.250                                                                                                1                                                                                                 
> 2017 11 25 12 44  1.0000000  0 17                     
G30  21994089.514   115579698.340                          47.750                                                                                                                                    21994101.074    90062099.255                          48.000  
G 7  24259433.960   127484143.313                          40.250                                                                                                                                    24259445.400    99338282.295                          39.000  
G28  20532689.964   107900001.154                          52.250                                                                    20532698.124    84077926.949                          40.500                                                                  
G13  20956723.762   110128359.650                          51.750                                                                    20956732.262    85814311.820                          41.500                                                                  
G19  22284249.372   117104543.860                          48.250                                                                    22284256.532    91250299.611                          36.250                                                                  
G17  21080170.940   110777064.968                          54.500                                                                                                                                    21080179.100    86319798.922                          48.750  
G 5  23735387.742   124730277.352                          42.250                                                                                                                                    23735397.962    97192416.960                          41.750  
G20  24551884.658   129021013.500                          39.000                                                                    24551895.278   100535851.481                          19.000                                                                  
G11  25415735.752   133560609.104                          36.000                                                                    25415746.372   104073202.237                          16.250                                                                  
G15  23369932.466   122809846.780                          48.500                                                                                                                                    23369942.266    95695989.147                          44.500  
R10  21230607.540   113171090.818                          50.500                                                                                                                                    21230615.300    88021938.507                          39.750  
R11  20979126.464   112106095.836                          52.500                                                                                                                                    20979131.524    87193640.741                          46.500  
R20  21551045.500   115243170.715                          43.750                                                                                                                                    21551054.540    89633584.782                          45.500  
R 8  21137455.960   113190115.293                          50.500                                                                                                                                    21137461.600    88036755.945                          45.750  
R 1  20806130.104   111220704.653                          51.500                                                                                                                                    20806137.624    86505003.576                          41.500  
R21  21719345.636   116224968.849                          48.000                                                                                                                                    21719351.976    90396964.153                          45.000  
R12  23987124.660   128134924.982                          39.000                                                                                                1                                                                                                 
> 2017 11 25 12 44  2.0000000  0 17                     
G30  21994363.834   115581138.170                          47.750                                                                                                                                    21994375.454    90063221.200                          48.000  
G 7  24259869.880   127486437.030                          40.500                                                                                                                                    24259881.160    99340069.602                          39.250  
G28  20533079.264   107902046.471                          52.500                                                                    20533086.964    84079520.697                          40.000                                                                  
G13  20956417.702   110126752.544                          51.750                                                                    20956426.082    85813059.532                          41.750                                                                  
G19  22283716.672   117101744.371                          48.500                                                                    22283723.892    91248118.189                          36.250                                                                  
G17  21079753.780   110774873.615                          55.000                                                                                                                                    21079762.300    86318091.377                          49.000  
G 5  23735823.402   124732569.105                          42.250                                                                                                                                    23735834.142    97194202.739                          42.000  
G20  24552009.078   129021666.267                          39.500                                                                    24552019.518   100536360.127                          18.500                                                                  
G11  25415903.552   133561489.721                          36.250                                                                    25415913.872   104073888.439                          16.750                                                                  
G15  23369367.446   122806876.786                          48.250                                                                                                                                    23369377.466    95693674.864                          44.000  
R10  21230839.780   113172328.341                          51.000                                                                                                                                    21230846.340    88022901.027                          39.500  
R11  20978971.344   112105267.411                          52.750                                                                                                                                    20978976.864    87192996.412                          46.250  
R20  21550975.500   115242795.525                          44.000                                                                                                                                    21550984.200    89633292.974                          45.250  
R 8  21138078.020   113193448.005                          50.750                                                                                                                                    21138083.760    88039348.047                          45.750  
R 1  20806144.364   111220778.331                          51.500                                                                                                                                    20806151.864    86505060.881                          42.250  
R21  21718695.876   116221495.161                          48.000                                                                                                                                    21718703.156    90394262.403                          45.000  
R12  23986745.780   128132889.714                          39.750                                                                                                1                                                                                                 
> 2017 11 25 12 44  3.0000000  0 17                     
G30  21994638.014   115582578.204                          47.500                                                                                                                                    21994649.394    90064343.307                          48.000  
G 7  24260306.780   127488730.885                          41.250                                                                                                                                    24260318.340    99341857.006                          38.750  
G28  20533468.864   107904092.162                          52.250                                                                    20533476.084    84081114.739                          40.250                                                                  
G13  20956111.982   110125145.980                          52.000                                                                    20956120.242    85811807.664                          41.750                                                                  
G19  22283183.992   117098945.224                          48.500                                                                    22283191.252    91245937.037                          36.250                                                                  
G17  21079336.980   110772682.857                          54.750                                                                                                                                    21079345.620    86316384.292                          49.000  
G 5  23736258.622   124734861.025                          42.250                                                                                                                                    23736269.942    97195988.645                          42.250  
G20  24552134.158   129022319.484                          39.500                                                                    24552144.078   100536869.129                          19.000                                                                  
G11  25416070.812   133562370.799                          36.750                                                                    25416081.072   104074575.001                          17.750                                                                  
G15  23368802.446   122803907.131                          48.000                                                                                                                                    23368811.906    95691360.848                          44.000  
R10  21231071.800   113173565.908                          50.750                                                                                                                                    21231079.200    88023863.579                          40.500  
R11  20978815.764   112104439.127                          52.000                                                                                                                                    20978821.864    87192352.192                          46.500  
R20  21550905.760   115242421.244                          44.250                                                                                                                                    21550914.220    89633001.870                          45.750  
R 8  21138700.060   113196781.213                          50.750                                                                                                                                    21138706.160    88041940.541                          46.000  
R 1  20806157.764   111220852.910                          51.250                                                                                                                                    20806165.984    86505118.882                          41.750  
R21  21718045.856   116218021.873                          47.750                                                                                                                                    21718054.196    90391560.956                          45.000  
R12  23986365.100   128130854.513                          39.500                                                                                                1                                                                                                 
> 2017 11 25 12 44  4.0000000  0 17                     
G30  21994911.694   115584018.410                          47.750                                                                                                                                    21994923.714    90065465.539                          47.750  
G 7  24260742.880   127491024.800                          41.250                                                                                                                                    24260754.260    99343644.468                          39.000  
G28  20533857.804   107906138.152                          52.000                                                                    20533865.664    84082709.026                          39.500                                                                  
G13  20955806.062   110123539.878                          52.250                                                                    20955814.282    85810556.150                          41.500                                                                  
G19  22282651.432   117096146.363                          48.750                                                                    22282658.532    91243756.107                          36.500                                                                  
G17  21078920.140   110770492.608                          54.500                                                                                                                                    21078928.600    86314677.609                          49.000  
G 5  23736696.002   124737153.043                          42.500                                                                                                                                    23736705.922    97197774.627                          42.000  
G20  24552257.078   129022973.066                          39.000                                                                    24552268.878   100537378.418                          19.000                                                                  
G11  25416239.412   133563252.281                          37.000                                                                    25416249.272   104075261.866                          17.250                                                                  
G15  23368237.466   122800937.773                          48.250                                                                                                                                    23368247.506    95689047.058                          43.500  
R10  21231304.420   113174803.502                          51.000                                                                                                                                    21231311.000    88024826.150                          40.000  
R11  20978661.664   112103610.881                          52.000                                                                                                                                    20978667.064    87191707.998                          46.500  
R20  21550836.220   115242047.751                          44.500                                                                                                                                    21550844.080    89632711.374                          45.750  
R 8  21139322.700   113200114.841                          51.000                                                                                                                                    21139329.160    88044533.361                          46.250  
R 1  20806171.804   111220928.341                          51.250                                                                                                                                    20806179.664    86505177.543                          41.750  
R21  21717398.076   116214548.940                          48.000                                                                                                                                    21717404.996    90388859.788                          44.500  
R12  23985983.840   128128819.314                          39.250                                                                                                1                                                                                                 
> 2017 11 25 12 44  5.0000000  0 17                     
G30  21995185.994   115585458.760                          47.750                                                                                                                                    21995197.734    90066587.892                          47.750  
G 7  24261179.340   127493318.825                          41.250                                                                                                                                    24261190.540    99345432.021                          39.000  
G28  20534246.924   107908184.461                          52.000                                                                    20534255.324    84084303.548                          39.500                                                                  
G13  20955500.882   110121934.281                          52.500                                                                    20955509.082    85809305.044                          42.000                                                                  
G19  22282119.552   117093347.813                          48.500                                                                    22282126.012    91241575.418                          36.500                                                                  
G17  21078503.860   110768302.918                          54.500                                                                                                                                    21078512.020    86312971.355                          48.750  
G 5  23737131.302   124739445.174                          43.000                                                                                                                                    23737141.982    97199560.701                          42.000  
G20  24552382.378   129023627.007                          39.250                                                                    24552392.818   100537887.983                          18.500                                                                  
G11  25416407.652   133564134.168                          36.250                                                                    25416416.812   104075949.036                          17.250                                                                  
G15  23367672.366   122797968.671                          48.500                                                                                                                                    23367682.166    95686733.474                          44.000  
R10  21231536.380   113176041.101                          50.500                                                                                                                                    21231543.420    88025788.730                          39.750  
R11  20978506.144   112102782.742                          52.250                                                                                                                                    20978511.664    87191063.892                          46.500  
R20  21550767.560   115241675.077                          44.000                                                                                                                                    21550775.060    89632421.512                          45.500  
R 8  21139945.600   113203448.910                          51.250                                                                                                                                    21139951.240    88047126.528                          46.500  
R 1  20806186.344   111221004.609                          51.000                                                                                                                                    20806193.864    86505236.867                          42.000  
R21  21716749.536   116211076.347                          48.500                                                                                                                                    21716755.876    90386158.889                          44.750  
R12  23985601.920   128126784.080                          38.750                                                                                                1                                                                                                 
> 2017 11 25 12 44  6.0000000  0 17                     
G30  21995460.454   115586899.349                          47.250                                                                                                                                    21995472.014    90067710.427                          48.000  
G 7  24261616.520   127495612.963                          41.250                                                                                                                                    24261627.360    99347219.659                          39.000  
G28  20534636.944   107910231.158                          51.750                                                                    20534644.744    84085898.374                          39.750                                                                  
G13  20955195.322   110120329.209                          52.250                                                                    20955204.122    85808054.338                          42.000                                                                  
G19  22281586.552   117090549.611                          48.500                                                                    22281593.252    91239395.001                          36.250                                                                  
G17  21078087.100   110766113.828                          54.500                                                                                                                                    21078094.800    86311265.569                          49.000  
G 5  23737568.142   124741737.515                          43.250                                                                                                                                    23737578.822    97201346.936                          41.750  
G20  24552506.558   129024281.412                          39.250                                                                    24552517.178   100538397.912                          18.250                                                                  
G11  25416575.472   133565016.512                          36.500                                                                    25416584.632   104076636.571                          18.500                                                                  
G15  23367107.266   122794999.917                          48.000                                                                                                                                    23367116.966    95684420.165                          44.000  
R10  21231768.440   113177278.768                          50.750                                                                                                                                    21231775.500    88026751.355                          40.000  
R11  20978351.404   112101954.754                          52.500                                                                                                                                    20978357.044    87190419.906                          46.250  
R20  21550696.860   115241303.282                          44.000                                                                                                                                    21550705.320    89632132.336                          45.250  
R 8  21140568.480   113206783.521                          51.000                                                                                                                                    21140573.880    88049720.114                          46.500  
R 1  20806201.084   111221081.767                          51.500                                                                                                                                    20806208.364    86505296.876                          41.750  
R21  21716100.636   116207604.166                          48.250                                                                                                                                    21716107.336    90383458.310                          44.750  
R12  23985221.360   128124748.913                          39.000                                                                                                1                                                                                                 
> 2017 11 25 12 44  7.0000000  0 17                     
G30  21995734.274   115588340.135                          47.500                                                                                                                                    21995746.074    90068833.109                          48.000  
G 7  24262052.740   127497907.252                          41.500                                                                                                                                    24262064.480    99349007.410                          39.000  
G28  20535026.024   107912278.180                          51.250                                                                    20535034.364    84087493.453                          39.500                                                                  
G13  20954890.302   110118724.655                          52.500                                                                    20954898.402    85806804.032                          42.000                                                                  
G19  22281053.912   117087751.762                          48.500                                                                    22281060.912    91237214.863                          36.250                                                                  
G17  21077670.320   110763925.327                          54.500                                                                                                                                    21077678.600    86309560.241                          48.750  
G 5  23738004.022   124744029.977                          43.000                                                                                                                                    23738014.862    97203133.268                          41.250  
G20  24552631.438   129024936.171                          39.750                                                                    24552642.118   100538908.114                          19.250                                                                  
G11  25416742.532   133565899.364                          37.500                                                                    25416752.692   104077324.519                          17.250                                                                  
G15  23366542.206   122792031.492                          47.750                                                                                                                                    23366551.606    95682107.107                          44.000  
R10  21232000.760   113178516.492                          51.000                                                                                                                                    21232007.680    88027714.033                          39.750  
R11  20978196.204   112101126.871                          52.500                                                                                                                                    20978202.184    87189775.993                          46.000  
R20  21550626.940   115240932.359                          44.250                                                                                                                                    21550635.380    89631843.840                          45.500  
R 8  21141191.520   113210118.627                          51.250                                                                                                                                    21141197.520    88052314.086                          46.500  
R 1  20806215.644   111221159.826                          51.500                                                                                                                                    20806222.684    86505357.585                          41.750  
R21  21715451.576   116204132.333                          48.000                                                                                                                                    21715458.276    90380757.995                          44.500  
R12  23984840.080   128122713.848                          39.000                                                                                                1                                                                                                 
> 2017 11 25 12 44  8.0000000  0 17                     
G30  21996008.454   115589781.108                          48.000                                                                                                                                    21996020.114    90069955.949                          48.000  
G 7  24262489.580   127500201.637                          41.500                                                                                                                                    24262501.140    99350795.238                          39.500  
G28  20535415.304   107914325.548                          51.000                                                                    20535423.864    84089088.800                          39.500                                                                  
G13  20954585.042   110117120.608                          52.750                                                                    20954593.022    85805554.121                          41.750                                                                  
G19  22280521.732   117084954.252                          48.750                                                                    22280528.532    91235034.987                          36.750                                                                  
G17  21077254.000   110761737.380                          54.500                                                                                                                                    21077262.860    86307855.349                          49.000  
G 5  23738440.342   124746322.589                          42.750                                                                                                                                    23738451.842    97204919.725                          41.000  
G20  24552755.718   129025591.395                          39.250                                                                    24552766.678   100539418.672                          19.250                                                                  
G11  25416911.032   133566782.577                          37.500                                                                    25416920.952   104078012.734                          15.500                                                                  
G15  23365977.886   122789063.369                          48.000                                                                                                                                    23365987.166    95679794.282                          44.000  
R10  21232233.660   113179754.246                          51.000                                                                                                                                    21232240.240    88028676.727                          39.500  
R11  20978042.064   112100299.077                          52.500                                                                                                                                    20978046.644    87189132.159                          46.000  
R20  21550559.460   115240562.283                          44.250                                                                                                                                    21550566.860    89631556.006                          46.000  
R 8  21141814.720   113213454.209                          51.000                                                                                                                                    21141820.000    88054908.425                          46.500  
R 1  20806229.464   111221238.724                          51.250                                                                                                                                    20806237.664    86505418.952                          41.750  
R21  21714802.956   116200660.872                          48.000                                                                                                                                    21714810.216    90378057.976                          44.750  
R12  23984459.240   128120678.764                          38.750                                                                                                1                                                                                                 
> 2017 11 25 12 44  9.0000000  0 17                     
G30  21996282.554   115591222.254                          48.000                                                                                                                                    21996294.354    90071078.914                          48.500  
G 7  24262926.040   127502496.101                          41.000                                                                                                                                    24262937.060    99352583.132                          39.000  
G28  20535805.504   107916373.261                          51.750                                                                    20535813.484    84090684.419                          39.750                                                                  
G13  20954279.802   110115517.063                          52.500                                                                    20954287.302    85804304.610                          42.000                                                                  
G19  22279989.212   117082157.031                          48.500                                                                    22279996.252    91232855.340                          36.250                                                                  
G17  21076837.940   110759549.979                          54.750                                                                                                                                    21076846.320    86306150.883                          49.000  
G 5  23738876.782   124748615.353                          42.500                                                                                                                                    23738887.102    97206706.286                          41.250  
G20  24552880.558   129026246.984                          40.250                                                                    24552891.418   100539929.509                          19.000                                                                  
G11  25417079.232   133567666.251                          37.000                                                                    25417089.092   104078701.343                          15.500                                                                  
G15  23365412.546   122786095.546                          48.500                                                                                                                                    23365422.346    95677481.688                          44.000  
R10  21232465.680   113180992.019                          51.000                                                                                                                                    21232472.140    88029639.439                          39.750  
R11  20977886.564   112099471.418                          52.000                                                                                                                                    20977891.724    87188488.424                          46.250  
R20  21550490.120   115240193.026                          44.250                                                                                                                                    21550497.400    89631268.795                          46.250  
R 8  21142437.080   113216790.252                          51.500                                                                                                                                    21142442.820    88057503.119                          46.000  
R 1  20806244.824   111221318.491                          51.250                                                                                                                                    20806252.684    86505480.986                          41.750  
R21  21714154.416   116197189.785                          48.500                                                                                                                                    21714161.336    90375358.250                          44.750  
R12  23984078.260   128118643.747                          39.000                                                                                                1                                                                                                 
> 2017 11 25 12 44 10.0000000  0 17                     
G30  21996557.154   115592663.548                          48.000                                                                                                                                    21996568.654    90072201.998                          48.000  
G 7  24263363.160   127504790.639                          41.000                                                                                                                                    24263373.960    99354371.080                          39.250  
G28  20536195.604   107918421.270                          52.000                                                                    20536203.524    84092280.268                          40.000                                                                  
G13  20953974.602   110113913.985                          52.500                                                                    20953982.582    85803055.456                          41.500                                                                  
G19  22279457.612   117079360.125                          48.500                                                                    22279464.292    91230675.931                          36.250                                                                  
G17  21076421.700   110757363.120                          54.500                                                                                                                                    21076429.980    86304446.837                          49.000  
G 5  23739311.682   124750908.217                          42.000                                                                                                                                    23739323.722    97208492.936                          41.250  
G20  24553006.258   129026902.960                          40.000                                                                    24553016.058   100540440.671                          19.000                                                                  
G11  25417247.852   133568550.353                          36.000                                                                    25417257.132   104079390.231                          16.250                                                                  
G15  23364848.086   122783128.014                          48.000                                                                                                                                    23364857.946    95675169.324                          44.500  
R10  21232697.240   113182229.813                          51.000                                                                                                                                    21232704.640    88030602.168                          39.750  
R11  20977731.824   112098643.864                          52.250                                                                                                                                    20977737.104    87187844.767                          46.000  
R20  21550420.780   115239824.613                          44.000                                                                                                                                    21550428.520    89630982.254                          46.000  
R 8  21143060.440   113220126.716                          51.500                                                                                                                                    21143065.380    88060098.146                          46.250  
R 1  20806259.224   111221399.099                          51.000                                                                                                                                    20806268.264    86505543.688                          41.750  
R21  21713505.296   116193719.044                          48.250                                                                                                                                    21713511.996    90372658.783                          44.500  
R12  23983696.820   128116608.684                          39.000                                                                                                1                                                                                                 
> 2017 11 25 12 44 11.0000000  0 17                     
G30  21996831.394   115594105.051                          47.250                                                                                                                                    21996843.134    90073325.245                          48.000  
G 7  24263799.000   127507085.342                          41.500                                                                                                                                    24263810.680    99356159.156                          39.000  
G28  20536584.664   107920469.640                          52.250                                                                    20536592.284    84093876.403                          39.500                                                                  
G13  20953669.562   110112311.441                          52.750                                                                    20953677.722    85801806.721                          41.750                                                                  
G19  22278925.072   117076563.568                          48.500                                                                    22278932.332    91228496.800                          36.250                                                                  
G17  21076005.440   110755176.862                          54.500                                                                                                                                    21076013.900    86302743.259                          49.000  
G 5  23739749.022   124753201.228                          41.500                                                                                                                                    23739760.422    97210279.695                          41.250  
G20  24553130.858   129027559.348                          40.000                                                                    24553141.358   100540952.142                          19.000                                                                  
G11  25417415.612   133569434.888                          36.500                                                                    25417425.952   104080079.476                          15.500                                                                  
G15  23364283.406   122780160.800                          48.500                                                                                                                                    23364293.666    95672857.209                          44.250  
R10  21232929.180   113183467.655                          50.500                                                                                                                                    21232937.060    88031564.934                          39.750  
R11  20977576.804   112097816.395                          52.250                                                                                                                                    20977581.504    87187201.184                          46.000  
R20  21550351.520   115239457.032                          43.750                                                                                                                                    21550359.740    89630696.358                          46.250  
R 8  21143683.880   113223463.669                          51.250                                                                                                                                    21143688.920    88062693.548                          46.500  
R 1  20806274.824   111221480.595                          51.000                                                                                                                                    20806282.684    86505607.072                          42.000  
R21  21712856.876   116190248.677                          48.500                                                                                                                                    21712864.276    90369959.610                          44.500  
R12  23983314.664   128114573.731                          38.250                                                                                                1                                                                                                 
> 2017 11 25 12 44 12.0000000  0 17                     
G30  21997105.514   115595546.681                          48.000                                                                                                                                    21997117.374    90074448.593                          48.000  
G 7  24264236.280   127509380.053                          42.000                                                                                                                                    24264246.780    99357947.232                          38.750  
G28  20536974.984   107922518.287                          52.250                                                                    20536982.964    84095472.751                          40.500                                                                  
G13  20953364.762   110110709.336                          52.500                                                                    20953372.402    85800558.327                          42.000                                                                  
G19  22278392.832   117073767.272                          48.750                                                                    22278399.812    91226317.868                          36.250                                                                  
G17  21075589.480   110752991.085                          54.250                                                                                                                                    21075598.160    86301040.059                          49.500  
G 5  23740184.402   124755494.328                          41.000                                                                                                                                    23740197.182    97212066.529                          41.250  
G20  24553255.858   129028216.072                          40.000                                                                    24553266.118   100541463.869                          19.000                                                                  
G11  25417583.932   133570319.792                          36.000                                                                    25417593.772   104080769.017                          16.250                                                                  
G15  23363718.986   122777193.839                          48.500                                                                                                                                    23363728.726    95670545.293                          43.750  
R10  21233161.400   113184705.454                          50.750                                                                                                                                    21233169.500    88032527.664                          39.750  
R11  20977422.284   112096988.958                          52.000                                                                                                                                    20977427.344    87186557.624                          46.250  
R20  21550283.200   115239090.245                          44.000                                                                                                                                    21550291.060    89630411.079                          46.000  
R 8  21144307.060   113226801.056                          51.750                                                                                                                                    21144311.760    88065289.296                          46.250  
R 1  20806290.404   111221562.909                          51.250                                                                                                                                    20806298.624    86505671.094                          41.750  
R21  21712207.836   116186778.596                          48.250                                                                                                                                    21712214.176    90367260.659                          44.500  
R12  23982934.204   128112538.724                          38.500                                                                                                1                                                                                                 
> 2017 11 25 12 44 13.0000000  0 17                     
G30  21997380.074   115596988.528                          48.000                                                                                                                                    21997391.574    90075572.113                          47.500  
G 7  24264673.320   127511674.919                          41.500                                                                                                                                    24264683.820    99359735.429                          38.500  
G28  20537364.664   107924567.291                          52.250                                                                    20537372.764    84097069.373                          39.500                                                                  
G13  20953059.902   110109107.751                          52.750                                                                    20953067.822    85799310.341                          42.000                                                                  
G19  22277861.212   117070971.328                          48.750                                                                    22277867.612    91224139.210                          36.000                                                                  
G17  21075173.700   110750805.915                          54.000                                                                                                                                    21075182.620    86299337.335                          49.500  
G 5  23740621.562   124757787.634                          41.250                                                                                                                                    23740633.182    97213853.514                          41.000  
G20  24553380.898   129028873.193                          39.500                                                                    24553391.338   100541975.901                          19.000                                                                  
G11  25417752.332   133571205.157                          35.500                                                                    25417762.772   104081458.902                          16.750                                                                  
G15  23363154.226   122774227.203                          48.250                                                                                                                                    23363163.966    95668233.631                          44.000  
R10  21233394.040   113185943.331                          50.750                                                                                                                                    21233400.860    88033490.453                          39.750  
R11  20977267.604   112096161.674                          52.000                                                                                                                                    20977272.884    87185914.183                          46.500  
R20  21550214.820   115238724.341                          44.000                                                                                                                                    21550222.800    89630126.485                          45.500  
R 8  21144930.760   113230138.992                          51.500                                                                                                                                    21144934.400    88067885.470                          46.250  
R 1  20806306.244   111221646.105                          51.500                                                                                                                                    20806313.744    86505735.797                          42.000  
R21  21711560.776   116183308.928                          48.750                                                                                                                                    21711567.116    90364562.032                          44.500  
R12  23982553.624   128110503.776                          38.750                                                                                                1                                                                                                 
> 2017 11 25 12 44 14.0000000  0 17                     
G30  21997654.754   115598430.665                          48.000                                                                                                                                    21997666.254    90076695.858                          48.000  
G 7  24265109.400   127513969.974                          40.750                                                                                                                                    24265121.000    99361523.778                          38.750  
G28  20537754.644   107926616.742                          51.750                                                                    20537762.804    84098666.350                          39.500                                                                  
G13  20952755.082   110107506.778                          53.000                                                                    20952763.662    85798062.827                          42.000                                                                  
G19  22277328.952   117068175.825                          48.500                                                                    22277335.872    91221960.896                          35.750                                                                  
G17  21074757.940   110748621.405                          54.000                                                                                                                                    21074766.740    86297635.121                          49.750  
G 5  23741058.282   124760081.147                          41.250                                                                                                                                    23741069.382    97215640.667                          41.250  
G20  24553505.178   129029530.848                          39.000                                                                    24553516.378   100542488.374                          18.250                                                                  
G11  25417920.812   133572091.054                          35.250                                                                    25417931.012   104082149.191                          17.750                                                                  
G15  23362589.306   122771260.975                          47.500                                                                                                                                    23362599.526    95665922.288                          44.000  
R10  21233626.080   113187181.303                          51.000                                                                                                                                    21233632.880    88034453.318                          39.500  
R11  20977112.324   112095334.611                          52.000                                                                                                                                    20977118.304    87185270.910                          46.500  
R20  21550146.600   115238359.377                          44.000                                                                                                                                    21550154.220    89629842.622                          45.750  
R 8  21145553.500   113233477.520                          51.250                                                                                                                                    21145558.320    88070482.101                          45.750  
R 1  20806321.924   111221730.258                          51.250                                                                                                                                    20806329.304    86505801.249                          41.750  
R21  21710911.036   116179839.714                          48.750                                                                                                                                    21710918.436    90361863.765                          45.000  
R12  23982172.364   128108468.959                          38.500                                                                                                1                                                                                                 
