     3.01           OBSERVATION DATA    M: Mixed            RINEX VERSION / TYPE
CONVBIN 2.4.3 Emlid                     20171115 194650 UTC PGM / RUN BY / DATE 
log: /home/reach/logs/rov_201711151841.ubx                  COMMENT             
format: u-blox                                              COMMENT             
                                                            MARKER NAME         
                                                            MARKER NUMBER       
                                                            MARKER TYPE         
                                                            OBSERVER / AGENCY   
                                                            REC # / TYPE / VERS 
                                                            ANT # / TYPE        
  3463700.2794 -4304272.9645 -3176319.8624                  APPROX POSITION XYZ 
        0.0000        0.0000        0.0000                  ANTENNA: DELTA H/E/N
G    4 C1C L1C D1C S1C                                      SYS / # / OBS TYPES 
R    4 C1C L1C D1C S1C                                      SYS / # / OBS TYPES 
E    4 C1C L1C D1C S1C                                      SYS / # / OBS TYPES 
J    4 C1C L1C D1C S1C                                      SYS / # / OBS TYPES 
S    4 C1C L1C D1C S1C                                      SYS / # / OBS TYPES 
C    4 C1I L1I D1I S1I                                      SYS / # / OBS TYPES 
  2017    11    15    18    41   41.0000000     GPS         TIME OF FIRST OBS   
  2017    11    15    18    44   19.6000000     GPS         TIME OF LAST OBS    
                                                            END OF HEADER       
> 2017 11 15 18 41 41.0000000  0 16                     
G21  26260008.206                1       3923.000          20.000  
G 2  20894932.201   109803584.051       -1919.617          48.000  
G 5  23819051.262   125169956.064        2196.289          49.000  
G 6  24159305.886   126957887.169       -3249.837          27.000  
G12  20680752.538   108678093.927         305.389          51.000  
R12  21723549.623   116043381.671        3720.909          45.000  
G24  22031906.285   115778383.838       -2891.450          47.000  
G25  21755054.567   114323549.898        2191.466          48.000  
G29  21610437.633   113563626.868        1184.154          48.000  
R20  24094264.964                1      -3490.493          23.000  
G20  24626198.136   129411650.951        2925.372          27.000  
R10  21295050.634   113514639.918       -3239.535          40.000  
R22  20582585.942   109871223.060        1347.729          47.000  
R11  19286811.782   103062837.629         439.707          48.000  
R21  20251711.670   108370981.175       -2094.641          49.000  
S20  37903683.757   199185192.705         103.166          41.000  
> 2017 11 15 18 41 41.2000000  0 15                     
G21  26259862.741                1       3923.000          21.000  
G 2  20895005.247   109803967.962       -1919.781          48.000  
G 5  23818967.518   125169516.745        2196.503          49.000  
G 6  24159429.067   126958537.217       -3250.184          27.000  
G12  20680740.794   108678032.828         305.325          50.000  
R12  21723410.196   116042637.453        3720.973          45.000  
G24  22032016.396   115778962.104       -2891.473          47.000  
G25  21754971.225   114323111.645        2191.159          47.000  
G29  21610392.507   113563390.014        1184.273          48.000  
G20  24626087.082   129411065.899        2925.457          27.000  
R10  21295172.140   113515287.796       -3239.547          40.000  
R22  20582535.546   109870953.498        1347.753          47.000  
R11  19286795.431   103062749.663         439.571          48.000  
R21  20251790.004   108371400.094       -2094.694          49.000  
S20  37903679.848   199185172.038         103.191          41.000  
> 2017 11 15 18 41 41.4000000  0 15                     
G21  26259713.158                1       3923.000          21.000  
G 2  20895078.311   109804351.957       -1920.215          48.000  
G 5  23818883.967   125169077.497        2196.130          49.000  
G 6  24159553.120   126959187.257       -3250.217          27.000  
G12  20680729.155   108677971.800         305.040          50.000  
R12  21723270.874   116041893.318        3720.558          45.000  
G24  22032126.490   115779540.452       -2891.872          47.000  
G25  21754887.726   114322673.458        2190.719          47.000  
G29  21610347.555   113563153.243        1183.928          48.000  
G20  24625976.029   129410480.815        2925.439          27.000  
R10  21295293.698   113515935.787       -3240.195          40.000  
R22  20582485.098   109870684.022        1347.450          47.000  
R11  19286778.976   103062661.783         439.199          48.000  
R21  20251868.268   108371819.089       -2095.046          49.000  
S20  37903675.870   199185151.411         103.422          41.000  
> 2017 11 15 18 41 41.6000000  0 16                     
G21  26259562.789                1       3923.000          21.000  
G 2  20895151.463   109804735.921       -1919.629          48.000  
G 5  23818800.363   125168638.211        2196.667          49.000  
G 6  24159677.401   126959837.260       -3249.981          27.000  
G12  20680717.411   108677910.742         305.476          50.000  
R12  21723131.621   116041149.141        3721.137          45.000  
G24  22032236.548   115780118.762       -2891.433          47.000  
G25  21754804.314   114322235.204        2191.660          47.000  
G29  21610302.463   113562916.434        1184.186          48.000  
G20  24625864.557   129409895.745        2925.319          27.000  
R23  24712300.882                1       3311.770          15.000  
R10  21295415.064   113516583.727       -3239.790          40.000  
R22  20582434.597   109870414.528        1347.620          47.000  
R11  19286762.643   103062573.894         439.619          48.000  
R21  20251946.637   108372238.051       -2094.601          49.000  
S20  37903671.874   199185130.757         103.393          41.000  
> 2017 11 15 18 41 41.8000000  0 16                     
G21  26259409.786                1       3923.000          21.000  
G 2  20895224.439   109805119.858       -1919.543          48.000  
G 5  23818716.672   125168198.878        2196.906          48.000  
G 6  24159802.397   126960487.216       -3249.565          27.000  
G12  20680705.702   108677849.638         305.788          50.000  
R12  21722992.281   116040404.934        3721.141          45.000  
G24  22032346.502   115780697.019       -2891.048          47.000  
G25  21754720.814   114321796.935        2191.625          47.000  
G29  21610257.320   113562679.575        1184.452          48.000  
G20  24625752.492   129409310.513        2926.522          27.000  
R23  24712169.482                1       3311.770          15.000  
R10  21295536.588   113517231.620       -3239.373          40.000  
R22  20582384.166   109870144.982        1347.908          47.000  
R11  19286746.135   103062485.977         439.797          48.000  
R21  20252024.797   108372656.973       -2094.426          49.000  
S20  37903667.877   199185110.040         103.948          41.000  
> 2017 11 15 18 41 42.0000000  0 16                     
G21  26259261.354                1       3923.000          20.000  
G 2  20895297.538   109805503.709       -1919.116          48.000  
G 5  23818633.015   125167759.448        2197.278          48.000  
G 6  24159926.415   126961137.097       -3249.088          28.000  
G12  20680694.167   108677788.440         306.240          50.000  
R12  21722852.976   116039660.610        3721.874          45.000  
G24  22032456.438   115781275.196       -2890.511          47.000  
G25  21754637.472   114321358.545        2192.238          47.000  
G29  21610212.211   113562442.605        1185.077          48.000  
G20  24625640.182   129408725.314        2926.032          27.000  
R23  24712047.278                1       3311.770          16.000  
R10  21295658.093   113517879.423       -3238.700          40.000  
R22  20582333.700   109869875.349        1348.453          47.000  
R11  19286729.627   103062397.987         440.056          48.000  
R21  20252102.991   108373075.787       -2093.937          49.000  
S20  37903663.986   199185089.225         103.987          41.000  
> 2017 11 15 18 41 42.2000000  0 16                     
G21  26259110.462                1       3923.000          21.000  
G 2  20895370.585   109805887.439       -1918.488          48.000  
G 5  23818549.307   125167319.870        2198.175          48.000  
G 6  24160050.504   126961786.846       -3248.438          28.000  
G12  20680682.423   108677727.124         306.758          50.000  
R12  21722713.601   116038916.174        3722.387          45.000  
G24  22032566.270   115781853.238       -2890.000          47.000  
G25  21754553.955   114320920.037        2192.730          47.000  
G29  21610167.015   113562205.517        1185.644          48.000  
G20  24625528.257   129408139.871        2927.725          27.000  
R23  24711923.155                1       3311.770          16.000  
R10  21295779.704   113518527.125       -3238.036          40.000  
R22  20582283.268   109869605.606        1348.921          47.000  
R11  19286713.101   103062309.875         440.690          48.000  
R21  20252181.308   108373494.472       -2093.186          49.000  
S20  37903659.990   199185068.249         105.245          41.000  
> 2017 11 15 18 41 42.4000000  0 16                     
G21  26258965.137                1       3923.000          20.000  
G 2  20895443.509   109806271.113       -1917.981          48.000  
G 5  23818465.703   125166880.230        2198.602          48.000  
G 6  24160175.221   126962436.510       -3248.233          28.000  
G12  20680670.627   108677665.728         307.315          50.000  
R12  21722574.348   116038171.666        3723.022          45.000  
G24  22032676.259   115782431.213       -2889.296          47.000  
G25  21754470.700   114320481.462        2193.001          46.000  
G29  21610121.941   113561968.352        1186.247          48.000  
G20  24625415.528   129407554.391        2927.859          27.000  
R23  24711797.531                1       3311.770          17.000  
R10  21295901.140   113519174.755       -3237.693          40.000  
R22  20582232.855   109869335.791        1349.497          47.000  
R11  19286696.471   103062221.717         441.175          48.000  
R21  20252259.642   108373913.094       -2092.767          49.000  
S20  37903656.099   199185047.207         105.935          41.000  
> 2017 11 15 18 41 42.6000000  0 16                     
G21  26258818.084                1       3923.000          21.000  
G 2  20895516.574   109806654.719       -1918.005          48.000  
G 5  23818382.081   125166440.497        2198.895          49.000  
G 6  24160299.117   126963086.095       -3247.997          28.000  
G12  20680658.953   108677604.263         307.410          50.000  
R12  21722434.921   116037427.077        3723.042          45.000  
G24  22032786.090   115783009.117       -2889.414          47.000  
G25  21754387.201   114320042.772        2193.218          47.000  
G29  21610076.884   113561731.116        1186.283          48.000  
G20  24625303.602   129406968.750        2928.780          26.000  
R23  24711669.900                1       3311.770          17.000  
R10  21296022.576   113519822.325       -3237.637          40.000  
R22  20582182.424   109869065.914        1349.525          47.000  
R11  19286679.981   103062133.499         441.125          48.000  
R21  20252337.889   108374331.622       -2092.496          49.000  
S20  37903651.980   199185026.082         105.797          41.000  
> 2017 11 15 18 41 42.8000000  0 16                     
G21  26258667.314                1       3923.000          21.000  
G 2  20895589.673   109807038.342       -1918.225          48.000  
G 5  23818298.390   125166000.770        2198.792          49.000  
G 6  24160423.118   126963735.688       -3247.778          28.000  
G12  20680647.261   108677542.798         307.250          50.000  
R12  21722295.581   116036682.505        3722.843          45.000  
G24  22032896.062   115783587.021       -2889.532          47.000  
G25  21754303.615   114319604.099        2193.154          47.000  
G29  21610031.880   113561493.870        1186.259          48.000  
G20  24625191.624   129406383.1761       2928.235          26.000  
R23  24711544.782                1       3311.770          17.000  
R10  21296144.065   113520469.911       -3238.235          40.000  
R22  20582131.923   109868796.044        1349.310          47.000  
R11  19286663.386   103062045.311         440.901          48.000  
R21  20252416.101   108374750.165       -2092.605          49.000  
S20  37903647.984   199185004.923         105.687          41.000  
> 2017 11 15 18 41 43.0000000  0 16                     
G21  26258518.725                1       3923.000          21.000  
G 2  20895662.632   109807421.913       -1918.018          48.000  
G 5  23818214.751   125165560.977        2198.895          49.000  
G 6  24160547.155   126964385.238       -3247.819          28.000  
G12  20680635.517   108677481.270         307.611          50.000  
R12  21722156.066   116035937.866        3722.885          45.000  
G24  22033006.033   115784164.867       -2889.324          47.000  
G25  21754220.080   114319165.358        2193.464          47.000  
G29  21609986.702   113561256.572        1186.339          48.000  
G20  24625079.681   129405797.4691       2929.009          26.000  
R23  24711420.623                1       3311.770          17.000  
R10  21296265.553   113521117.414       -3237.845          40.000  
R22  20582081.265   109868526.121        1349.423          47.000  
R11  19286646.808   103061957.086         440.864          48.000  
R21  20252494.435   108375168.649       -2092.564          49.000  
S20  37903644.058   199184983.677         106.222          41.000  
> 2017 11 15 18 41 43.2000000  0 16                     
G21  26258369.631                1       3923.000          21.000  
G 2  20895735.521   109807805.519       -1918.073          46.000  
G 5  23818131.060   125165121.197        2198.944          46.000  
G 6  24160671.103   126965034.804       -3248.177          28.000  
G12  20680623.843   108677419.768         307.464          48.000  
R12  21722016.657   116035193.246        3722.978          45.000  
G24  22033116.074   115784742.732       -2889.403          45.000  
G25  21754136.581   114318726.639        2193.303          45.000  
G29  21609941.663   113561019.268        1186.533          47.000  
G20  24624968.837   129405211.8451       2928.300          26.000  
R23  24711294.772                1       3311.770          17.000  
R10  21296387.006   113521764.953       -3237.769          40.000  
R22  20582030.711   109868256.226        1349.469          47.000  
R11  19286630.248   103061868.898         440.937          47.000  
R21  20252572.524   108375587.148       -2092.456          48.000  
S20  37903640.114   199184962.476         106.099          39.000  
> 2017 11 15 18 41 43.4000000  0 16                     
G21  26258220.606                1       3923.000          20.000  
G 2  20895808.394   109808189.062       -1917.810          46.000  
G 5  23818047.421   125164681.352        2199.286          47.000  
G 6  24160794.930   126965684.178       -3246.597          28.000  
G12  20680612.169   108677358.198         307.866          48.000  
R12  21721877.177   116034448.552        3723.520          45.000  
G24  22033225.958   115785320.532       -2888.986          45.000  
G25  21754053.099   114318287.818        2193.865          45.000  
G29  21609896.554   113560781.899        1187.212          46.000  
G20  24624858.395   129404626.0541       2928.987          26.000  
R23  24711169.759                1       3311.770          17.000  
R10  21296508.512   113522412.448       -3237.423          40.000  
R22  20581980.210   109867986.269        1349.878          47.000  
R11  19286613.687   103061780.665         441.164          47.000  
R21  20252650.666   108376005.579       -2092.084          48.000  
S20  37903636.013   199184941.183         106.385          39.000  
> 2017 11 15 18 41 43.6000000  0 16                     
G21  26258072.855                1       3923.000          20.000  
G 2  20895881.353   109808572.659       -1917.816          46.000  
G 5  23817963.869   125164241.526        2199.335          47.000  
G 6  24160918.966   126966333.690       -3247.449          28.000  
G12  20680600.338   108677296.668         307.864          48.000  
R12  21721737.663   116033703.903        3723.395          44.000  
G24  22033335.999   115785898.369       -2888.951          45.000  
G25  21753969.617   114317849.060        2193.927          45.000  
G29  21609851.463   113560544.595        1186.869          46.000  
G20  24624747.499   129404040.3561       2928.359          26.000  
R23  24711045.531                1       3311.770          17.000  
R10  21296630.018   113523059.989       -3237.667          40.000  
R22  20581929.727   109867716.356        1349.745          47.000  
R11  19286597.092   103061692.495         440.954          47.000  
R21  20252728.896   108376424.041       -2092.136          48.000  
S20  37903632.017   199184919.947         106.308          39.000  
> 2017 11 15 18 41 43.8000000  0 16                     
G21  26257922.643                1       3923.000          20.000  
G 2  20895954.382   109808956.236       -1918.213          46.000  
G 5  23817880.160   125163801.671        2199.109          47.000  
G 6  24161042.270   126966983.149       -3247.215          27.000  
G12  20680588.576   108677235.106         307.621          48.000  
R12  21721598.305   116032959.228        3723.380          45.000  
G24  22033445.988   115786476.183       -2889.288          45.000  
G25  21753886.048   114317410.253        2193.650          45.000  
G29  21609806.389   113560307.234        1186.650          47.000  
G20  24624636.376   129403454.4921       2929.470          26.000  
R23  24710922.036                1       3311.770          17.000  
R10  21296751.507   113523707.485       -3237.897          40.000  
R22  20581879.331   109867446.427        1349.565          47.000  
R11  19286580.584   103061604.314         440.624          48.000  
R21  20252807.020   108376842.482       -2092.276          49.000  
S20  37903627.916   199184898.631         106.257          39.000  
> 2017 11 15 18 41 44.0000000  0 16                     
G21  26257774.264                1       3923.000          20.000  
G 2  20896027.307   109809339.801       -1917.896          48.000  
G 5  23817796.330   125163361.800        2199.597          48.000  
G 6  24161166.585   126967632.599       -3247.181          27.000  
G12  20680576.867   108677173.534         307.923          49.000  
R12  21721459.087   116032214.544        3723.469          45.000  
G24  22033555.994   115787053.967       -2888.766          46.000  
G25  21753802.654   114316971.410        2194.420          46.000  
G29  21609761.437   113560069.856        1187.046          48.000  
G20  24624525.113   129402868.646        2929.479          26.000  
R23  24710799.256                1       3311.770          17.000  
R10  21296873.047   113524354.986       -3237.505          40.000  
R22  20581828.777   109867176.485        1349.891          48.000  
R11  19286564.164   103061516.134         441.033          48.000  
R21  20252885.145   108377260.897       -2091.854          49.000  
S20  37903623.833   199184877.321         106.630          39.000  
> 2017 11 15 18 41 44.2000000  0 15                     
G 2  20896100.283   109809723.374       -1917.761          48.000  
G 5  23817712.621   125162921.926        2199.487          49.000  
G 6  24161291.337   126968282.013       -3247.051          28.000  
G12  20680565.001   108677111.958         307.960          50.000  
R12  21721319.660   116031469.854        3723.296          45.000  
G24  22033665.913   115787631.769       -2888.874          47.000  
G25  21753719.120   114316532.582        2194.243          47.000  
G29  21609716.328   113559832.483        1187.110          49.000  
G20  24624414.741   129402282.800        2929.448          26.000  
R23  24710674.452                1       3311.770          17.000  
R10  21296994.466   113525002.490       -3237.418          40.000  
R22  20581778.224   109866906.558        1349.615          48.000  
R11  19286547.691   103061427.979         440.835          48.000  
R21  20252963.357   108377679.318       -2091.989          49.000  
S20  37903619.715   199184855.960         106.980          41.000  
> 2017 11 15 18 41 44.4000000  0 15                     
G 2  20896173.312   109810106.958       -1918.243          48.000  
G 5  23817628.808   125162482.028        2199.188          48.000  
G 6  24161415.181   126968931.413       -3247.039          28.000  
G12  20680553.292   108677050.377         307.644          50.000  
R12  21721180.390   116030725.144        3723.337          45.000  
G24  22033775.867   115788209.554       -2889.057          47.000  
G25  21753635.690   114316093.744        2193.990          47.000  
G29  21609671.324   113559595.088        1186.522          47.000  
G20  24624303.722   129401696.892        2929.537          26.000  
R23  24710549.351                1       3311.770          17.000  
R10  21297115.972   113525650.004       -3237.954          40.000  
R22  20581727.776   109866636.613        1349.508          48.000  
R11  19286531.253   103061339.827         440.479          48.000  
R21  20253041.569   108378097.725       -2092.287          49.000  
S20  37903615.684   199184834.595         106.417          41.000  
> 2017 11 15 18 41 44.6000000  0 15                     
G 2  20896246.289   109810490.545       -1917.737          48.000  
G 5  23817545.204   125162042.131        2199.524          49.000  
G 6  24161538.693   126969580.854       -3247.066          28.000  
G12  20680541.687   108676988.793         308.138          50.000  
R12  21721040.840   116029980.449        3723.667          45.000  
G24  22033885.803   115788787.335       -2888.593          47.000  
G25  21753552.086   114315654.879        2194.919          47.000  
G29  21609626.163   113559357.674        1187.518          47.000  
G20  24624191.989   129401111.008        2930.014          26.000  
R23  24710422.401                1       3311.770          17.000  
R10  21297237.425   113526297.513       -3237.475          40.000  
R22  20581677.187   109866366.696        1349.862          48.000  
R11  19286514.762   103061251.707         440.771          48.000  
R21  20253119.711   108378516.134       -2091.812          49.000  
S20  37903611.513   199184813.201         107.178          41.000  
> 2017 11 15 18 41 44.8000000  0 15                     
G 2  20896319.266   109810874.158       -1918.103          48.000  
G 5  23817461.495   125161602.224        2199.536          49.000  
G 6  24161662.154   126970230.260       -3247.091          28.000  
G12  20680529.891   108676927.223         307.806          50.000  
R12  21720901.378   116029235.758        3723.436          45.000  
G24  22033995.757   115789365.148       -2889.043          47.000  
G25  21753468.569   114315216.045        2193.985          47.000  
G29  21609581.159   113559120.333        1186.514          49.000  
G20  24624080.307   129400525.046        2929.627          26.000  
R23  24710298.888                1       3311.770          17.000  
R10  21297358.827   113526945.049       -3237.789          40.000  
R22  20581626.686   109866096.797        1349.376          48.000  
R11  19286498.376   103061163.610         440.400          48.000  
R21  20253197.975   108378934.556       -2092.128          49.000  
S20  37903607.569   199184791.790         106.649          41.000  
> 2017 11 15 18 41 45.0000000  0 15                     
G 2  20896392.365   109811257.733       -1917.987          48.000  
G 5  23817377.699   125161162.273        2199.866          49.000  
G 6  24161785.387   126970879.624       -3246.812          28.000  
G12  20680518.007   108676865.609         307.975          50.000  
R12  21720761.986   116028491.026        3723.627          45.000  
G24  22034105.641   115789942.904       -2888.830          47.000  
G25  21753385.035   114314777.137        2194.469          47.000  
G29  21609535.963   113558882.871        1187.304          48.000  
G20  24623968.539   129399939.159        2929.456          26.000  
R23  24710173.683                1       3311.770          17.000  
R10  21297480.228   113527592.519       -3237.213          40.000  
R22  20581576.290   109865826.848        1349.699          48.000  
R11  19286481.851   103061075.489         440.471          48.000  
R21  20253276.169   108379352.933       -2091.935          49.000  
S20  37903603.486   199184770.305         107.324          40.000  
> 2017 11 15 18 41 45.2000000  0 15                     
G 2  20896465.359   109811641.357       -1917.926          48.000  
G 5  23817293.868   125160722.364        2199.847          49.000  
G 6  24161909.214   126971529.005       -3246.883          28.000  
G12  20680506.351   108676804.039         308.003          50.000  
R12  21720622.541   116027746.341        3723.584          45.000  
G24  22034215.542   115790520.706       -2888.842          47.000  
G25  21753301.449   114314338.273        2194.285          47.000  
G29  21609490.906   113558645.491        1186.982          49.000  
G20  24623858.236   129399353.224        2929.455          26.000  
R23  24710050.799                1       3311.770          17.000  
R10  21297601.821   113528240.087       -3237.725          40.000  
R22  20581525.824   109865556.952        1349.622          48.000  
R11  19286465.518   103060987.419         440.535          48.000  
R21  20253354.399   108379771.351       -2091.879          49.000  
S20  37903599.403   199184748.847         107.666          40.000  
> 2017 11 15 18 41 45.4000000  0 15                     
G 2  20896538.389   109812025.000       -1918.365          48.000  
G 5  23817210.159   125160282.458        2199.377          49.000  
G 6  24162032.098   126972178.434       -3247.214          29.000  
G12  20680494.642   108676742.469         307.559          50.000  
R12  21720483.149   116027001.651        3723.223          45.000  
G24  22034325.409   115791098.516       -2889.215          47.000  
G25  21753217.897   114313899.405        2193.995          47.000  
G29  21609445.815   113558408.089        1186.693          49.000  
G20  24623746.485   129398767.176        2929.802          26.000  
R23  24709925.244                1       3311.770          17.000  
R10  21297723.205   113528887.626       -3237.952          40.000  
R22  20581475.306   109865287.069        1349.105          48.000  
R11  19286449.010   103060899.377         440.028          48.000  
R21  20253432.593   108380189.775       -2092.321          49.000  
S20  37903595.372   199184727.403         107.275          40.000  
> 2017 11 15 18 41 45.6000000  0 15                     
G 2  20896611.487   109812408.677       -1918.573          48.000  
G 5  23817126.451   125159842.561        2199.420          49.000  
G 6  24162156.187   126972827.840       -3247.304          29.000  
G12  20680482.845   108676680.921         307.677          50.000  
R12  21720343.757   116026257.000        3723.323          45.000  
G24  22034435.433   115791676.344       -2889.289          47.000  
G25  21753134.398   114313460.543        2194.297          47.000  
G29  21609400.758   113558170.716        1186.693          49.000  
G20  24623635.815   129398181.261        2929.535          27.000  
R23  24709800.405                1       3311.770          17.000  
R10  21297844.606   113529535.209       -3237.826          40.000  
R22  20581424.753   109865017.219        1349.119          48.000  
R11  19286432.554   103060811.382         439.770          48.000  
R21  20253510.857   108380608.223       -2092.306          49.000  
S20  37903591.323   199184705.994         107.159          40.000  
> 2017 11 15 18 41 45.8000000  0 15                     
G 2  20896684.639   109812792.343       -1918.121          48.000  
G 5  23817042.951   125159402.648        2199.811          49.000  
G 6  24162279.699   126973477.246       -3247.170          29.000  
G12  20680471.154   108676619.362         308.016          50.000  
R12  21720204.260   116025512.332        3723.563          45.000  
G24  22034545.317   115792254.159       -2888.883          47.000  
G25  21753050.689   114313021.674        2194.614          47.000  
G29  21609355.527   113557933.311        1187.261          49.000  
G20  24623525.390   129397595.223        2930.394          27.000  
R23  24709677.102                1       3311.770          17.000  
R10  21297965.937   113530182.779       -3237.573          40.000  
R22  20581374.269   109864747.356        1349.458          48.000  
R11  19286415.959   103060723.376         440.231          48.000  
R21  20253589.017   108381026.653       -2091.934          49.000  
S20  37903587.257   199184684.552         107.258          41.000  
> 2017 11 15 18 41 46.0000000  0 15                     
G 2  20896757.650   109813175.969       -1918.097          48.000  
G 5  23816959.225   125158962.675        2199.719          49.000  
G 6  24162406.807   126974126.582       -3246.950          29.000  
G12  20680459.567   108676557.759         308.025          50.000  
R12  21720064.745   116024767.609        3723.771          45.000  
G24  22034655.253   115792831.925       -2888.881          47.000  
G25  21752967.050   114312582.744        2194.824          47.000  
G29  21609310.453   113557695.874        1187.258          49.000  
G20  24623414.285   129397009.159        2930.498          27.000  
R23  24709551.914                1       3311.770          17.000  
R10  21298087.321   113530830.306       -3237.467          40.000  
R22  20581323.733   109864477.461        1349.493          48.000  
R11  19286399.573   103060635.352         440.143          48.000  
R21  20253667.281   108381445.044       -2091.869          49.000  
S20  37903583.261   199184663.056         107.728          41.000  
> 2017 11 15 18 41 46.2000000  0 15                     
G 2  20896830.732   109813559.573       -1917.993          48.000  
G 5  23816875.604   125158522.655        2200.055          49.000  
G 6  24162534.176   126974775.909       -3246.623          29.000  
G12  20680447.666   108676496.112         308.239          50.000  
R12  21719925.196   116024022.848        3723.853          45.000  
G24  22034765.294   115793409.644       -2888.566          47.000  
G25  21752883.481   114312143.767        2195.014          47.000  
G29  21609265.310   113557458.382        1187.514          49.000  
G20  24623304.401   129396423.058        2930.566          27.000  
R23  24709426.953                1       3311.770          17.000  
R10  21298208.774   113531477.831       -3237.584          40.000  
R22  20581273.075   109864207.533        1349.688          48.000  
R11  19286383.275   103060547.295         440.240          48.000  
R21  20253745.441   108381863.383       -2091.632          49.000  
S20  37903579.195   199184641.524         107.755          41.000  
> 2017 11 15 18 41 46.4000000  0 15                     
G 2  20896903.866   109813943.206       -1918.085          48.000  
G 5  23816791.755   125158082.656        2200.116          49.000  
G 6  24162658.160   126975425.233       -3247.137          29.000  
G12  20680435.939   108676434.486         308.303          50.000  
R12  21719785.786   116023278.110        3723.879          45.000  
G24  22034875.265   115793987.394       -2888.667          47.000  
G25  21752799.947   114311704.808        2195.041          47.000  
G29  21609220.306   113557220.911        1187.528          49.000  
G20  24623193.470   129395836.928        2930.769          27.000  
R23  24709304.976                1       3311.770          17.000  
R10  21298330.350   113532125.344       -3237.540          40.000  
R22  20581222.382   109863937.629        1349.591          48.000  
R11  19286366.872   103060459.279         440.193          48.000  
R21  20253823.600   108382281.755       -2091.658          49.000  
S20  37903575.095   199184620.008         107.781          41.000  
> 2017 11 15 18 41 46.6000000  0 15                     
G 2  20896976.947   109814326.815       -1918.140          48.000  
G 5  23816708.151   125157642.619        2200.250          49.000  
G 6  24162780.922   126976074.526       -3246.801          29.000  
G12  20680424.387   108676372.824         308.399          50.000  
R12  21719646.271   116022533.333        3723.826          45.000  
G24  22034985.184   115794565.110       -2888.471          47.000  
G25  21752716.273   114311265.799        2194.986          47.000  
G29  21609175.144   113556983.400        1187.556          49.000  
G20  24623083.498   129395250.750        2931.041          27.000  
R23  24709182.807                1       3311.770          17.000  
R10  21298451.786   113532772.856       -3237.712          40.000  
R22  20581171.794   109863667.700        1349.602          48.000  
R11  19286350.311   103060371.243         440.202          48.000  
R21  20253901.899   108382700.080       -2091.628          49.000  
S20  37903571.011   199184598.466         107.816          41.000  
> 2017 11 15 18 41 46.8000000  0 16                     
G 2  20897049.959   109814710.425       -1918.249          48.000  
G 5  23816624.460   125157202.558        2200.177          49.000  
G 6  24162902.358   126976723.765       -3246.803          29.000  
G12  20680412.556   108676311.162         308.281          50.000  
R12  21719506.931   116021788.553        3723.830          45.000  
G24  22035094.981   115795142.820       -2888.705          47.000  
G25  21752632.669   114310826.807        2195.070          47.000  
G29  21609129.844   113556745.873        1187.667          49.000  
G20  24622973.161   129394664.521        2931.321          27.000  
R23  24709059.923                1       3311.770          17.000  
R10  21298573.397   113533420.344       -3237.673          40.000  
G14  25664264.700                1       -803.671          31.000  
R22  20581121.258   109863397.764        1349.595          48.000  
R11  19286333.768   103060283.225         439.896          48.000  
R21  20253980.129   108383118.403       -2091.684          49.000  
S20  37903566.928   199184576.890         107.519          41.000  
> 2017 11 15 18 41 47.0000000  0 16                     
G 2  20897122.971   109815094.052       -1918.195          48.000  
G 5  23816540.804   125156762.525        2200.073          49.000  
G 6  24163025.365   126977372.999       -3246.109          29.000  
G12  20680400.829   108676249.507         308.152          50.000  
R12  21719367.452   116021043.799        3723.709          45.000  
G24  22035204.970   115795720.539       -2888.562          47.000  
G25  21752549.240   114310387.777        2195.355          47.000  
G29  21609084.700   113556508.366        1187.483          49.000  
G20  24622862.736   129394078.356        2931.063          27.000  
R23  24708935.904                1       3311.770          17.000  
R10  21298694.902   113534067.868       -3237.616          40.000  
G14  25664301.398                1       -803.671          31.000  
R22  20581070.845   109863127.853        1349.542          48.000  
R11  19286317.365   103060195.230         439.879          48.000  
R21  20254058.323   108383536.738       -2091.701          49.000  
S20  37903562.845   199184555.319         107.629          41.000  
> 2017 11 15 18 41 47.2000000  0 16                     
G 2  20897195.948   109815477.704       -1918.481          48.000  
G 5  23816457.148   125156322.478        2200.006          49.000  
G 6  24163148.947   126978022.296       -3247.035          29.000  
G12  20680389.312   108676187.855         308.109          50.000  
R12  21719228.147   116020299.041        3723.570          45.000  
G24  22035314.889   115796298.266       -2888.696          47.000  
G25  21752465.601   114309948.784        2195.156          47.000  
G29  21609039.486   113556270.857        1187.307          49.000  
G20  24622751.508   129393492.095        2931.429          27.000  
R23  24708811.728                1       3311.770          17.000  
R10  21298816.408   113534715.401       -3237.744          40.000  
G14  25664342.633                1       -804.248          31.000  
R22  20581020.326   109862857.957        1349.246          48.000  
R11  19286300.910   103060107.274         439.573          48.000  
R21  20254136.622   108383955.076       -2091.888          49.000  
S20  37903558.691   199184533.722         107.727          40.000  
> 2017 11 15 18 41 47.4000000  0 16                     
G 2  20897268.959   109815861.400       -1918.530          48.000  
G 5  23816373.596   125155882.472        2200.037          49.000  
G 6  24163272.006   126978671.544       -3244.977          29.000  
G12  20680377.446   108676126.253         308.070          50.000  
R12  21719088.772   116019554.328        3723.457          45.000  
G24  22035424.843   115796876.047       -2888.969          47.000  
G25  21752382.101   114309509.813        2194.868          47.000  
G29  21608994.081   113556033.388        1187.332          49.000  
G20  24622640.315   129392905.862        2931.310          27.000  
R23  24708687.518                1       3311.770          17.000  
R10  21298937.914   113535363.002       -3238.225          40.000  
G14  25664371.216                1       -800.000          30.000  
R22  20580969.808   109862588.115        1349.145          48.000  
R11  19286284.646   103060019.379         439.363          48.000  
R21  20254214.642   108384373.455       -2091.863          49.000  
S20  37903554.678   199184512.158         107.932          40.000  
> 2017 11 15 18 41 47.6000000  0 16                     
G 2  20897342.128   109816245.060       -1918.274          48.000  
G 5  23816289.870   125155442.406        2200.116          49.000  
G 6  24163396.740   126979320.836       -3246.038          29.000  
G12  20680365.632   108676064.609         308.073          50.000  
R12  21718949.345   116018809.555        3723.810          45.000  
G24  22035534.884   115797453.768       -2888.799          47.000  
G25  21752298.480   114309070.800        2195.048          47.000  
G29  21608948.815   113555795.863        1187.625          49.000  
G20  24622529.157   129392319.621        2931.085          27.000  
R23  24708563.447                1       3311.770          17.000  
R10  21299059.298   113536010.530       -3237.772          40.000  
G14  25664406.413                1       -802.148          31.000  
R22  20580919.098   109862318.230        1349.253          48.000  
R11  19286268.191   103059931.447         439.529          48.000  
R21  20254292.941   108384791.783       -2091.683          49.000  
S20  37903550.525   199184490.511         108.381          40.000  
> 2017 11 15 18 41 47.8000000  0 16                     
G 2  20897415.192   109816628.767       -1918.420          48.000  
G 5  23816206.231   125155002.379        2200.177          49.000  
G 6  24163518.595   126979970.141       -3246.530          29.000  
G12  20680354.132   108676002.984         308.160          50.000  
R12  21718810.039   116018064.816        3723.878          45.000  
G24  22035644.837   115798031.524       -2888.709          47.000  
G25  21752214.998   114308631.773        2195.320          47.000  
G29  21608903.497   113555558.369        1187.628          49.000  
G20  24622418.540   129391733.342        2931.472          27.000  
R23  24708438.870                1       3311.770          16.000  
R10  21299180.839   113536658.108       -3237.824          40.000  
G14  25664434.910                1       -803.764          30.000  
R22  20580868.579   109862048.375        1349.384          48.000  
R11  19286251.648   103059843.577         439.475          48.000  
R21  20254371.101   108385210.142       -2091.650          49.000  
S20  37903546.389   199184468.889         108.425          40.000  
> 2017 11 15 18 41 48.0000000  0 16                     
G 2  20897488.274   109817012.493       -1918.689          48.000  
G 5  23816122.522   125154562.338        2200.134          49.000  
G 6  24163640.624   126980619.423       -3246.440          29.000  
G12  20680342.231   108675941.379         308.032          50.000  
R12  21718670.577   116017320.114        3723.409          45.000  
G24  22035754.809   115798609.299       -2888.923          47.000  
G25  21752131.446   114308192.787        2195.100          47.000  
G29  21608858.283   113555320.894        1187.340          49.000  
G20  24622306.964   129391147.090        2931.396          27.000  
R23  24708314.938                1       3311.770          16.000  
R10  21299302.379   113537305.722       -3238.342          40.000  
G14  25664463.633                1       -803.754          31.000  
R22  20580818.026   109861778.557        1349.182          48.000  
R11  19286235.053   103059755.741         439.233          48.000  
R21  20254449.382   108385628.513       -2091.810          49.000  
S20  37903542.201   199184447.249         108.291          40.000  
> 2017 11 15 18 41 48.2000000  0 16                     
G 2  20897561.303   109817396.225       -1918.689          48.000  
G 5  23816038.726   125154122.291        2200.446          48.000  
G 6  24163764.713   126981268.698       -3246.559          29.000  
G12  20680330.487   108675879.770         308.167          50.000  
R12  21718531.202   116016575.378        3723.646          45.000  
G24  22035864.640   115799187.052       -2888.706          47.000  
G25  21752047.755   114307753.789        2195.177          46.000  
G29  21608813.070   113555083.403        1187.462          49.000  
G20  24622195.736   129390560.831        2931.258          27.000  
R23  24708191.111                1       3311.770          15.000  
R10  21299423.903   113537953.300       -3237.789          40.000  
G14  25664500.453                1       -802.741          30.000  
R22  20580767.525   109861508.725        1349.318          48.000  
R11  19286218.580   103059667.925         439.051          48.000  
R21  20254527.472   108386046.873       -2091.654          49.000  
S20  37903538.135   199184425.580         108.461          41.000  
> 2017 11 15 18 41 48.4000000  0 16                     
G 2  20897634.506   109817779.898       -1918.768          48.000  
G 5  23815954.895   125153682.184        2200.616          48.000  
G 6  24163889.150   126981917.892       -3245.743          29.000  
G12  20680318.831   108675818.098         308.194          50.000  
R12  21718391.688   116015830.608        3723.622          45.000  
G24  22035974.524   115799764.760       -2888.702          47.000  
G25  21751964.186   114307314.732        2194.895          47.000  
G29  21608767.821   113554845.843        1187.438          48.000  
G20  24622084.665   129389974.454        2931.940          26.000  
R23  24708068.035                1       3311.770          15.000  
R10  21299545.496   113538600.863       -3237.948          40.000  
G14  25664526.872                1       -802.339          30.000  
R22  20580716.954   109861238.848        1349.160          48.000  
R11  19286202.089   103059580.061         439.068          48.000  
R21  20254605.527   108386465.175       -2091.681          49.000  
S20  37903533.947   199184403.838         108.512          41.000  
> 2017 11 15 18 41 48.6000000  0 16                     
G 2  20897707.588   109818163.589       -1918.512          48.000  
G 5  23815871.117   125153242.087        2200.543          48.000  
G 6  24164013.640   126982567.134       -3245.904          29.000  
G12  20680307.122   108675756.444         308.275          50.000  
R12  21718252.331   116015085.837        3723.818          45.000  
G24  22036084.426   115800342.475       -2888.525          47.000  
G25  21751880.530   114306875.649        2195.303          46.000  
G29  21608722.538   113554608.286        1187.848          48.000  
G20  24621972.635   129389388.006        2932.250          26.000  
R23  24707943.667                1       3311.770          14.000  
R10  21299666.967   113539248.427       -3237.866          40.000  
G14  25664549.715                1       -802.614          30.000  
R22  20580666.436   109860968.986        1349.315          48.000  
R11  19286185.564   103059492.223         439.123          48.000  
R21  20254683.704   108386883.480       -2091.523          48.000  
S20  37903529.846   199184382.071         108.635          41.000  
> 2017 11 15 18 41 48.8000000  0 16                     
G 2  20897780.600   109818547.302       -1918.365          48.000  
G 5  23815787.461   125152801.980        2200.751          48.000  
G 6  24164137.467   126983216.312       -3246.136          30.000  
G12  20680295.151   108675694.782         308.455          50.000  
R12  21718112.991   116014341.062        3724.128          45.000  
G24  22036194.432   115800920.192       -2888.293          47.000  
G25  21751796.978   114306436.576        2195.529          47.000  
G29  21608677.482   113554370.735        1188.039          48.000  
G20  24621861.111   129388801.686        2931.453          26.000  
R23  24707819.247                1       3311.770          14.000  
R10  21299788.420   113539896.007       -3237.712          40.000  
G14  25664594.213                1       -801.813          30.000  
R22  20580615.883   109860699.137        1349.391          48.000  
R11  19286169.038   103059404.417         439.175          48.000  
R21  20254761.741   108387301.784       -2091.273          48.000  
S20  37903525.780   199184360.290         109.199          41.000  
> 2017 11 15 18 41 49.0000000  0 16                     
G 2  20897853.507   109818931.071       -1919.086          48.000  
G 5  23815703.752   125152361.922        2199.976          49.000  
G 6  24164260.299   126983865.565       -3246.209          30.000  
G12  20680283.581   108675633.169         307.865          50.000  
R12  21717973.528   116013596.363        3723.275          45.000  
G24  22036304.421   115801497.972       -2889.008          47.000  
G25  21751713.479   114305997.549        2194.866          47.000  
G29  21608632.321   113554133.231        1187.180          48.000  
G20  24621749.063   129388215.242        2931.805          26.000  
R23  24707696.031                1       3311.770          14.000  
R10  21299909.874   113540543.648       -3238.486          40.000  
G14  25664627.368   134868478.3263       -802.000          30.000  
R22  20580565.347   109860429.345        1348.617          48.000  
R11  19286152.565   103059316.681         438.342          48.000  
R21  20254839.831   108387720.149       -2092.071          48.000  
S20  37903521.697   199184338.584         108.280          41.000  
> 2017 11 15 18 41 49.2000000  0 16                     
G 2  20897926.466   109819314.845       -1918.756          48.000  
G 5  23815620.061   125151921.844        2200.543          49.000  
G 6  24164384.074   126984514.822       -3246.305          30.000  
G12  20680271.994   108675571.558         308.124          50.000  
R12  21717834.101   116012851.627        3723.656          45.000  
G24  22036414.427   115802075.735       -2888.650          47.000  
G25  21751629.910   114305558.496        2195.553          47.000  
G29  21608587.037   113553895.708        1187.781          48.000  
G20  24621637.312   129387628.905        2931.627          26.000  
R23  24707572.152                1       3311.770          14.000  
R10  21300031.380   113541191.283       -3238.152          40.000  
G14  25664654.695                1       -803.265          30.000  
R22  20580514.846   109860159.551        1349.153          48.000  
R11  19286136.267   103059228.954         438.679          48.000  
R21  20254918.008   108388138.496       -2091.644          48.000  
S20  37903517.631   199184316.834         108.729          41.000  
> 2017 11 15 18 41 49.4000000  0 15                     
G 2  20897999.548   109819698.696       -1919.598          48.000  
G 5  23815536.282   125151481.840        2199.548          49.000  
G 6  24164510.186   126985164.139       -3247.292          30.000  
G12  20680260.215   108675510.002         307.442          50.000  
R12  21717694.622   116012106.964        3723.077          45.000  
G24  22036524.381   115802653.560       -2889.326          47.000  
G25  21751546.358   114305119.511        2194.757          47.000  
G29  21608541.963   113553658.253        1186.966          48.000  
G20  24621525.526   129387042.525        2931.730          26.000  
R23  24707448.186                1       3311.770          14.000  
R10  21300152.938   113541838.994       -3238.933          40.000  
R22  20580464.397   109859889.832        1348.244          48.000  
R11  19286119.968   103059141.309         437.849          48.000  
R21  20254996.307   108388556.910       -2092.422          48.000  
S20  37903513.548   199184295.143         107.689          41.000  
> 2017 11 15 18 41 49.6000000  0 15                     
G 2  20898072.647   109820082.559       -1919.220          48.000  
G 5  23815452.416   125151041.821        2199.969          49.000  
G 6  24164632.163   126985813.430       -3246.253          30.000  
G12  20680248.576   108675448.463         307.807          50.000  
R12  21717555.316   116011362.314        3723.477          45.000  
G24  22036634.177   115803231.391       -2888.836          47.000  
G25  21751462.719   114304680.522        2195.220          47.000  
G29  21608496.872   113553420.800        1187.469          48.000  
G20  24621415.083   129386456.212        2931.195          26.000  
R23  24707324.830                1       3311.770          13.000  
R10  21300274.479   113542486.725       -3238.651          40.000  
R22  20580413.827   109859620.125        1348.689          48.000  
R11  19286103.513   103059053.695         438.173          48.000  
R21  20255074.397   108388975.330       -2091.909          48.000  
S20  37903509.412   199184273.436         108.537          40.000  
> 2017 11 15 18 41 49.8000000  0 15                     
G 2  20898145.676   109820466.494       -1919.653          48.000  
G 5  23815368.586   125150601.861        2199.689          49.000  
G 6  24164752.901   126986462.792       -3246.812          30.000  
G12  20680237.024   108675386.981         307.496          50.000  
R12  21717415.942   116010617.727        3723.042          45.000  
G24  22036744.131   115803809.301       -2889.502          47.000  
G25  21751379.133   114304241.588        2194.970          47.000  
G29  21608451.606   113553183.404        1187.062          48.000  
G20  24621303.716   129385869.877        2931.612          26.000  
R23  24707200.951                1       3311.770          13.000  
R10  21300396.054   113543134.520       -3238.996          40.000  
R22  20580363.308   109859350.490        1348.230          48.000  
R11  19286087.092   103058966.155         437.814          48.000  
R21  20255152.661   108389393.811       -2092.389          48.000  
S20  37903505.276   199184251.792         108.154          41.000  
> 2017 11 15 18 41 50.0000000  0 15                     
G 2  20898218.914   109820850.439       -1919.971          48.000  
G 5  23815284.842   125150161.895        2199.628          49.000  
G 6  24164873.692   126987112.157       -3246.703          30.000  
G12  20680225.140   108675325.508         307.131          50.000  
R12  21717276.741   116009873.146        3722.871          45.000  
G24  22036854.137   115804387.186       -2889.515          47.000  
G25  21751295.633   114303802.654        2194.964          47.000  
G29  21608406.288   113552946.011        1186.864          48.000  
G20  24621191.930   129385283.541        2931.890          26.000  
R23  24707077.875                1       3311.770          12.000  
R10  21300517.595   113543782.333       -3239.343          40.000  
R22  20580312.720   109859080.870        1347.947          48.000  
R11  19286070.689   103058878.648         437.306          48.000  
R21  20255230.786   108389812.291       -2092.584          48.000  
S20  37903501.245   199184230.120         108.378          41.000  
> 2017 11 15 18 41 50.2000000  0 15                     
G 2  20898291.996   109821234.411       -1919.714          49.000  
G 5  23815201.098   125149721.950        2199.817          49.000  
G 6  24165000.241   126987761.525       -3246.511          30.000  
G12  20680213.431   108675264.049         307.440          50.000  
R12  21717137.436   116009128.588        3723.015          45.000  
G24  22036964.056   115804965.104       -2889.331          47.000  
G25  21751211.942   114303363.731        2195.100          47.000  
G29  21608360.935   113552708.633        1187.107          48.000  
G20  24621080.318   129384697.2461       2931.564          26.000  
R23  24706954.711                1       3311.770          12.000  
R10  21300639.118   113544430.149       -3238.916          40.000  
R22  20580262.254   109858811.272        1348.170          48.000  
R11  19286054.233   103058791.167         437.559          48.000  
R21  20255308.806   108390230.790       -2092.333          48.000  
S20  37903497.249   199184208.500         108.420          40.000  
> 2017 11 15 18 41 50.4000000  0 15                     
G 2  20898365.165   109821618.413       -1919.989          49.000  
G 5  23815117.302   125149282.020        2199.567          48.000  
G 6  24165123.614   126988410.929       -3247.833          30.000  
G12  20680201.844   108675202.611         307.282          50.000  
R12  21716998.026   116008384.044        3722.701          45.000  
G24  22037073.993   115805543.048       -2889.600          47.000  
G25  21751128.373   114302924.827        2194.860          46.000  
G29  21608315.791   113552471.282        1186.646          48.000  
G20  24620969.003   129384110.8871       2931.766          26.000  
R23  24706831.041                1       3311.770          12.000  
R10  21300760.659   113545078.016       -3239.133          40.000  
R22  20580211.788   109858541.704        1347.821          48.000  
R11  19286037.795   103058703.736         437.145          48.000  
R21  20255387.087   108390649.316       -2092.571          48.000  
S20  37903493.201   199184186.876         108.293          40.000  
> 2017 11 15 18 41 50.6000000  0 15                     
G 2  20898438.246   109822002.465       -1920.526          49.000  
G 5  23815033.402   125148842.108        2199.286          48.000  
G 6  24165248.156   126989060.323       -3247.137          29.000  
G12  20680190.118   108675141.205         306.902          50.000  
R12  21716858.512   116007639.529        3722.451          45.000  
G24  22037183.824   115806121.019       -2890.022          47.000  
G25  21751044.944   114302485.929        2194.775          47.000  
G29  21608270.473   113552233.940        1186.434          48.000  
G20  24620857.008   129383524.579        2931.465          26.000  
R23  24706707.913                1       3311.770          13.000  
R10  21300882.148   113545725.920       -3239.845          40.000  
R22  20580161.392   109858272.167        1347.588          48.000  
R11  19286021.410   103058616.345         436.698          48.000  
R21  20255465.317   108391067.865       -2093.036          48.000  
S20  37903489.205   199184165.306         107.677          40.000  
> 2017 11 15 18 41 50.8000000  0 15                     
G 2  20898511.380   109822386.506       -1920.050          49.000  
G 5  23814949.693   125148402.195        2199.530          48.000  
G 6  24165368.964   126989709.711       -3246.736          29.000  
G12  20680178.339   108675079.795         307.148          50.000  
R12  21716719.311   116006895.016        3722.625          45.000  
G24  22037293.970   115806698.974       -2889.708          47.000  
G25  21750961.270   114302047.043        2194.713          47.000  
G29  21608225.155   113551996.592        1186.893          48.000  
G20  24620746.670   129382938.2951       2931.275          26.000  
R23  24706584.505                1       3311.770          13.000  
R10  21301003.741   113546373.815       -3239.276          40.000  
R22  20580110.873   109858002.640        1347.730          48.000  
R11  19286004.884   103058528.969         436.909          48.000  
R21  20255543.633   108391486.404       -2092.525          48.000  
S20  37903485.156   199184143.714         108.184          40.000  
> 2017 11 15 18 41 51.0000000  0 15                     
G 2  20898584.549   109822770.561       -1920.721          49.000  
G 5  23814865.880   125147962.262        2198.914          48.000  
G 6  24165493.384   126990359.103       -3247.085          29.000  
G12  20680166.804   108675018.373         306.703          50.000  
R12  21716579.902   116006150.478        3722.259          45.000  
G24  22037403.907   115807276.917       -2890.077          47.000  
G25  21750877.910   114301608.115        2194.718          46.000  
G29  21608180.063   113551759.233        1186.389          48.000  
G20  24620635.303   129382351.8131       2932.254          25.000  
R23  24706460.957                1       3311.770          13.000  
R10  21301125.369   113547021.724       -3240.046          40.000  
R22  20580060.425   109857733.106        1347.186          48.000  
R11  19285988.394   103058441.595         436.526          48.000  
R21  20255621.880   108391904.945       -2093.164          48.000  
S20  37903481.090   199184122.140         107.371          40.000  
> 2017 11 15 18 41 51.2000000  0 15                     
G 2  20898657.630   109823154.647       -1920.410          49.000  
G 5  23814782.084   125147522.338        2199.524          48.000  
G 6  24165616.722   126991008.513       -3247.008          29.000  
G12  20680155.043   108674956.983         307.019          50.000  
R12  21716440.457   116005405.982        3722.703          45.000  
G24  22037513.860   115807854.893       -2889.697          47.000  
G25  21750794.376   114301169.225        2195.000          46.000  
G29  21608134.885   113551521.893        1186.852          48.000  
G20  24620524.913   129381765.5441       2931.327          26.000  
R23  24706337.480                1       3311.770          14.000  
R10  21301246.840   113547669.654       -3239.504          40.000  
R22  20580009.889   109857463.608        1347.663          48.000  
R11  19285971.921   103058354.275         436.773          48.000  
R21  20255700.005   108392323.508       -2092.756          48.000  
S20  37903476.972   199184100.543         108.200          40.000  
> 2017 11 15 18 41 51.4000000  0 15                     
G 2  20898730.659   109823538.796       -1920.837          49.000  
G 5  23814698.358   125147082.479        2198.993          48.000  
G 6  24165743.166   126991657.959       -3247.323          29.000  
G12  20680143.299   108674895.646         306.640          50.000  
R12  21716301.100   116004661.550        3722.155          45.000  
G24  22037623.884   115808432.929       -2890.328          47.000  
G25  21750710.720   114300730.384        2194.715          46.000  
G29  21608089.741   113551284.614        1186.337          48.000  
G20  24620414.837   129381179.1711       2931.939          26.000  
R23  24706214.386                1       3311.770          14.000  
R10  21301368.450   113548317.675       -3240.256          40.000  
R22  20579959.510   109857194.190        1346.977          48.000  
R11  19285955.570   103058267.035         436.055          48.000  
R21  20255778.217   108392742.133       -2093.229          48.000  
S20  37903472.749   199184079.008         107.562          40.000  
> 2017 11 15 18 41 51.6000000  0 14                     
G 2  20898803.758   109823922.947       -1920.746          49.000  
G 5  23814614.614   125146642.593        2199.341          48.000  
G 6  24165869.314   126992307.398       -3247.249          29.000  
G12  20680131.625   108674834.309         306.615          50.000  
R12  21716161.690   116003917.099        3722.249          45.000  
G24  22037733.925   115809010.942       -2889.892          47.000  
G25  21750627.168   114300291.538        2194.471          46.000  
G29  21608044.493   113551047.316        1186.478          48.000  
G20  24620302.911   129380592.7941       2931.913          26.000  
R10  21301490.061   113548965.667       -3240.295          40.000  
R22  20579909.044   109856924.757        1347.049          48.000  
R11  19285939.062   103058179.797         436.067          48.000  
R21  20255856.306   108393160.740       -2093.094          48.000  
S20  37903468.578   199184057.455         107.547          41.000  
> 2017 11 15 18 41 51.8000000  0 14                     
G 2  20898876.857   109824307.171       -1921.338          49.000  
G 5  23814530.975   125146202.769        2198.828          48.000  
G 6  24165994.345   126992956.891       -3247.449          29.000  
G12  20680119.985   108674773.017         306.284          50.000  
R12  21716022.420   116003172.704        3721.817          45.000  
G24  22037843.931   115809589.034       -2890.661          47.000  
G25  21750543.546   114299852.723        2194.142          46.000  
G29  21607999.296   113550810.073        1186.116          48.000  
G20  24620190.584   129380006.4631       2931.170          26.000  
R10  21301611.689   113549613.722       -3240.525          40.000  
R22  20579858.578   109856655.385        1346.751          48.000  
R11  19285922.659   103058092.642         435.505          48.000  
R21  20255934.466   108393579.407       -2093.430          48.000  
S20  37903464.513   199184035.894         107.576          41.000  
> 2017 11 15 18 41 52.0000000  0 14                     
G 2  20898949.974   109824691.376       -1921.179          49.000  
G 5  23814447.249   125145762.905        2199.109          48.000  
G 6  24166119.794   126993606.327       -3247.079          29.000  
G12  20680108.294   108674711.713         306.431          50.000  
R12  21715883.010   116002428.286        3721.959          45.000  
G24  22037954.025   115810167.089       -2890.464          47.000  
G25  21750460.047   114299413.881        2194.535          46.000  
G29  21607954.065   113550572.801        1186.376          48.000  
G20  24620079.129   129379420.1411       2931.748          25.000  
R10  21301733.212   113550261.762       -3240.188          40.000  
R22  20579808.112   109856386.008        1346.843          48.000  
R11  19285906.221   103058005.477         435.722          48.000  
R21  20256012.660   108393998.053       -2093.207          48.000  
S20  37903460.290   199184014.316         108.121          41.000  
> 2017 11 15 18 41 52.2000000  0 14                     
G 2  20899023.020   109825075.633       -1921.204          49.000  
G 5  23814363.575   125145323.081        2199.091          48.000  
G 6  24166243.900   126994255.847       -3247.419          29.000  
G12  20680096.742   108674650.446         306.447          51.000  
R12  21715743.635   116001683.915        3721.903          45.000  
G24  22038063.996   115810745.184       -2890.296          47.000  
G25  21750376.530   114298975.091        2194.340          46.000  
G29  21607908.957   113550335.571        1186.252          48.000  
G20  24619968.198   129378833.7451       2931.914          25.000  
R10  21301854.858   113550909.877       -3240.586          40.000  
R22  20579757.698   109856116.683        1346.736          48.000  
R11  19285889.922   103057918.383         435.494          48.000  
R21  20256090.872   108394416.740       -2093.308          48.000  
S20  37903456.259   199183992.787         107.929          41.000  
> 2017 11 15 18 41 52.4000000  0 14                     
G 2  20899096.172   109825459.884       -1921.155          49.000  
G 5  23814279.989   125144883.236        2199.292          48.000  
G 6  24166367.169   126994905.310       -3247.251          28.000  
G12  20680085.155   108674589.164         306.482          50.000  
R12  21715604.190   116000939.517        3722.096          45.000  
G24  22038174.142   115811323.269       -2890.374          47.000  
G25  21750293.049   114298536.271        2194.230          46.000  
G29  21607863.761   113550098.324        1186.325          48.000  
G20  24619857.529   129378247.4281       2931.741          25.000  
R10  21301976.433   113551557.954       -3240.259          40.000  
R22  20579707.337   109855847.341        1346.691          48.000  
R11  19285873.502   103057831.282         435.530          48.000  
R21  20256169.276   108394835.416       -2093.279          48.000  
S20  37903452.193   199183971.189         108.088          41.000  
> 2017 11 15 18 41 52.6000000  0 14                     
G 2  20899169.340   109825844.126       -1921.283          49.000  
G 5  23814196.402   125144443.372        2199.097          48.000  
G 6  24166489.407   126995554.778       -3247.261          28.000  
G12  20680073.411   108674527.865         306.352          50.000  
R12  21715464.850   116000195.116        3721.902          45.000  
G24  22038284.096   115811901.339       -2890.568          47.000  
G25  21750209.462   114298097.427        2194.273          46.000  
G29  21607818.617   113549861.054        1186.194          48.000  
G20  24619745.708   129377660.9621       2932.296          25.000  
R10  21302098.061   113552206.045       -3240.641          40.000  
R22  20579656.888   109855577.993        1346.630          48.000  
R11  19285857.116   103057744.195         435.226          48.000  
R21  20256247.505   108395254.072       -2093.442          48.000  
S20  37903448.074   199183949.563         108.022          41.000  
> 2017 11 15 18 41 52.8000000  0 14                     
G 2  20899242.387   109826228.375       -1920.959          49.000  
G 5  23814112.536   125144003.486        2199.677          48.000  
G 6  24166611.070   126996204.256       -3247.315          28.000  
G12  20680061.684   108674466.558         306.907          50.000  
R12  21715325.545   115999450.702        3722.363          45.000  
G24  22038393.980   115812479.394       -2890.024          47.000  
G25  21750125.945   114297658.575        2194.391          46.000  
G29  21607773.386   113549623.773        1186.637          48.000  
G20  24619633.713   129377074.5151       2932.040          25.000  
R10  21302219.620   113552854.131       -3240.199          40.000  
R22  20579606.353   109855308.643        1347.061          48.000  
R11  19285840.625   103057657.115         435.544          48.000  
R21  20256325.665   108395672.710       -2092.877          48.000  
S20  37903443.939   199183927.901         108.425          41.000  
> 2017 11 15 18 41 53.0000000  0 15                     
G 2  20899315.538   109826612.662       -1921.759          49.000  
G 5  23814028.793   125143563.629        2199.146          48.000  
G 6  24166735.682   126996853.665       -3247.294          28.000  
G12  20680050.097   108674405.284         306.144          50.000  
R12  21715186.310   115998706.314        3721.865          45.000  
G24  22038504.073   115813057.480       -2890.629          47.000  
G25  21750042.568   114297219.734        2193.982          46.000  
G29  21607728.068   113549386.519        1186.088          48.000  
G20  24619522.014   129376488.1091       2932.048          25.000  
R23  24705222.725                1       3316.402          20.000  
R10  21302341.091   113553502.254       -3241.225          40.000  
R22  20579555.887   109855039.339        1346.217          48.000  
R11  19285824.327   103057570.082         434.943          48.000  
R21  20256403.859   108396091.390       -2093.553          48.000  
S20  37903439.821   199183906.226         108.200          41.000  
> 2017 11 15 18 41 53.2000000  0 15                     
G 2  20899388.690   109826996.975       -1921.826          49.000  
G 5  23813945.049   125143123.800        2198.853          48.000  
G 6  24166859.823   126997503.154       -3247.745          28.000  
G12  20680038.266   108674344.031         306.046          50.000  
R12  21715046.865   115997961.959        3721.654          45.000  
G24  22038614.097   115813635.585       -2890.708          47.000  
G25  21749959.034   114296780.909        2193.789          46.000  
G29  21607682.924   113549149.287        1185.835          48.000  
G20  24619409.599   129375901.6231       2932.366          25.000  
R23  24705098.706                1       3316.402          21.000  
R10  21302462.614   113554150.382       -3241.045          40.000  
R22  20579505.490   109854770.056        1346.182          48.000  
R11  19285807.941   103057483.098         434.682          48.000  
R21  20256482.106   108396510.086       -2093.788          48.000  
S20  37903435.667   199183884.582         107.878          41.000  
> 2017 11 15 18 41 53.4000000  0 15                     
G 2  20899461.701   109827381.367       -1922.028          49.000  
G 5  23813861.393   125142684.016        2198.669          48.000  
G 6  24166984.069   126998152.696       -3247.941          28.000  
G12  20680026.644   108674282.843         305.883          50.000  
R12  21714907.525   115997217.662        3721.401          44.000  
G24  22038724.242   115814213.759       -2890.855          47.000  
G25  21749875.482   114296342.142        2193.862          46.000  
G29  21607637.693   113548912.116        1185.765          48.000  
G20  24619297.395   129375315.2771       2931.329          25.000  
R23  24704975.490                1       3316.402          21.000  
R10  21302584.329   113554798.609       -3241.122          40.000  
R22  20579455.077   109854500.862        1345.866          48.000  
R11  19285791.608   103057396.202         434.399          48.000  
R21  20256560.440   108396928.844       -2093.849          48.000  
S20  37903431.532   199183862.967         107.738          41.000  
> 2017 11 15 18 41 53.6000000  0 15                     
G 2  20899534.853   109827765.810       -1922.412          48.000  
G 5  23813777.771   125142244.249        2198.907          48.000  
G 6  24167108.105   126998802.233       -3247.778          28.000  
G12  20680015.179   108674221.689         305.693          50.000  
R12  21714768.238   115996473.407        3721.221          44.000  
G24  22038834.196   115814791.963       -2891.136          47.000  
G25  21749791.774   114295903.423        2193.284          46.000  
G29  21607592.410   113548674.969        1185.728          48.000  
G20  24619185.294   129374728.8811       2931.789          25.000  
R23  24704851.070                1       3316.402          22.000  
R10  21302705.992   113555446.873       -3241.358          40.000  
R22  20579404.663   109854231.692        1345.744          48.000  
R11  19285775.379   103057309.354         434.096          48.000  
R21  20256638.669   108397347.637       -2094.140          48.000  
S20  37903427.309   199183841.365         108.030          41.000  
> 2017 11 15 18 41 53.8000000  0 15                     
G 2  20899608.004   109828150.263       -1922.522          48.000  
G 5  23813694.220   125141804.509        2198.767          48.000  
G 6  24167232.665   126999451.816       -3247.969          28.000  
G12  20680003.453   108674160.546         305.557          50.000  
R12  21714628.967   115995729.151        3721.205          44.000  
G24  22038944.272   115815370.180       -2891.037          47.000  
G25  21749708.239   114295464.679        2193.585          46.000  
G29  21607547.301   113548437.830        1185.579          48.000  
G20  24619074.241   129374142.4441       2932.643          25.000  
R23  24704726.842                1       3316.402          22.000  
R10  21302827.638   113556095.144       -3241.241          40.000  
R22  20579354.249   109853962.548        1345.505          48.000  
R11  19285758.976   103057222.534         434.101          48.000  
R21  20256716.899   108397766.431       -2094.053          48.000  
S20  37903423.208   199183819.779         107.900          40.000  
> 2017 11 15 18 41 54.0000000  0 14                     
G 2  20899681.138   109828534.763       -1922.345          48.000  
G 5  23813610.581   125141364.793        2198.828          48.000  
G 6  24167358.167   127000101.442       -3248.220          28.000  
G12  20679991.691   108674099.436         305.770          50.000  
R12  21714489.749   115994984.947        3721.247          44.000  
G24  22039054.313   115815948.452       -2891.194          47.000  
G25  21749624.740   114295025.996        2193.297          46.000  
G29  21607502.175   113548200.723        1185.883          48.000  
G20  24618962.350   129373556.1321       2931.707          25.000  
R10  21302949.300   113556743.486       -3241.675          40.000  
R22  20579303.940   109853693.443        1345.681          48.000  
R11  19285742.590   103057135.789         433.864          48.000  
R21  20256795.198   108398185.272       -2094.051          48.000  
S20  37903419.090   199183798.249         107.862          40.000  
> 2017 11 15 18 41 54.2000000  0 14                     
G 2  20899754.219   109828919.313       -1923.218          48.000  
G 5  23813526.959   125140925.110        2197.992          48.000  
G 6  24167481.714   127000751.039       -3248.129          28.000  
G12  20679980.227   108674038.372         304.767          50.000  
R12  21714350.322   115994240.776        3720.254          45.000  
G24  22039164.389   115816526.742       -2892.045          47.000  
G25  21749541.328   114294587.316        2192.759          46.000  
G29  21607457.013   113547963.667        1184.601          48.000  
G20  24618850.145   129372969.7691       2931.773          25.000  
R10  21303070.894   113557391.840       -3242.233          40.000  
R22  20579253.457   109853424.386        1344.856          48.000  
R11  19285726.309   103057049.080         432.963          48.000  
R21  20256873.549   108398604.135       -2094.867          48.000  
S20  37903414.971   199183776.741         106.768          40.000  
> 2017 11 15 18 41 54.4000000  0 14                     
G 2  20899827.475   109829303.895       -1922.974          48.000  
G 5  23813443.320   125140485.435        2198.450          48.000  
G 6  24167603.360   127001400.712       -3248.389          28.000  
G12  20679968.762   108673977.314         305.396          50.000  
R12  21714211.104   115993496.623        3720.883          44.000  
G24  22039274.361   115817105.051       -2891.427          47.000  
G25  21749457.776   114294148.656        2193.148          46.000  
G29  21607411.817   113547726.599        1185.294          48.000  
G20  24618738.551   129372383.4581       2931.623          25.000  
R10  21303192.522   113558040.248       -3241.924          40.000  
R22  20579202.904   109853155.363        1345.184          48.000  
R11  19285710.115   103056962.417         433.299          48.000  
R21  20256951.813   108399023.023       -2094.303          48.000  
S20  37903410.731   199183755.214         107.738          40.000  
> 2017 11 15 18 41 54.6000000  0 14                     
G 2  20899900.522   109829688.483       -1922.931          48.000  
G 5  23813359.664   125140045.758        2198.468          48.000  
G 6  24167726.506   127002050.336       -3248.160          28.000  
G12  20679957.140   108673916.280         305.101          50.000  
R12  21714071.572   115992752.485        3720.579          44.000  
G24  22039384.314   115817683.373       -2891.414          47.000  
G25  21749374.138   114293709.993        2193.039          46.000  
G29  21607366.534   113547489.545        1185.322          48.000  
G20  24618626.852   129371797.1311       2931.707          24.000  
R10  21303314.150   113558688.652       -3242.212          40.000  
R22  20579152.577   109852886.344        1345.067          48.000  
R11  19285693.886   103056875.768         433.269          48.000  
R21  20257030.252   108399441.920       -2094.415          48.000  
S20  37903406.578   199183733.688         108.001          40.000  
> 2017 11 15 18 41 54.8000000  0 14                     
G 2  20899973.743   109830073.090       -1922.888          48.000  
G 5  23813276.165   125139606.085        2198.608          48.000  
G 6  24167850.437   127002700.020       -3248.333          28.000  
G12  20679945.570   108673855.228         305.427          50.000  
R12  21713932.198   115992008.337        3720.823          44.000  
G24  22039494.286   115818261.704       -2891.379          47.000  
G25  21749290.708   114293271.334        2193.318          46.000  
G29  21607321.478   113547252.493        1185.454          48.000  
G20  24618514.840   129371210.6961       2932.546          24.000  
R10  21303435.935   113559337.074       -3242.197          40.000  
R22  20579102.233   109852617.342        1345.185          48.000  
R11  19285677.553   103056789.163         433.204          48.000  
R21  20257108.639   108399860.814       -2094.309          48.000  
S20  37903402.495   199183712.179         107.787          40.000  
> 2017 11 15 18 41 55.0000000  0 14                     
G 2  20900046.877   109830457.707       -1923.242          48.000  
G 5  23813192.474   125139166.384        2198.743          48.000  
G 6  24167975.712   127003349.626       -3247.625          28.000  
G12  20679933.931   108673794.180         305.335          50.000  
R12  21713792.753   115991264.183        3720.698          44.000  
G24  22039604.344   115818840.024       -2891.731          47.000  
G25  21749207.104   114292832.655        2193.147          46.000  
G29  21607276.491   113547015.424        1185.442          48.000  
G20  24618403.664   129370624.303        2931.907          25.000  
R10  21303557.563   113559985.480       -3242.228          40.000  
R22  20579051.837   109852348.339        1345.075          48.000  
R11  19285661.272   103056702.550         432.963          48.000  
R21  20257187.008   108400279.704       -2094.510          48.000  
S20  37903398.359   199183690.642         108.118          40.000  
> 2017 11 15 18 41 55.2000000  0 14                     
G 2  20900120.046   109830842.334       -1923.450          48.000  
G 5  23813108.939   125138726.720        2198.285          48.000  
G 6  24168100.063   127003999.293       -3248.278          28.000  
G12  20679922.082   108673733.155         304.774          50.000  
R12  21713653.500   115990520.048        3720.464          44.000  
G24  22039714.263   115819418.363       -2891.856          47.000  
G25  21749123.587   114292393.992        2192.859          46.000  
G29  21607231.295   113546778.378        1185.085          48.000  
G20  24618292.995   129370037.945        2931.865          25.000  
R10  21303679.173   113560633.920       -3242.428          40.000  
R22  20579001.528   109852079.359        1344.669          48.000  
R11  19285644.886   103056615.987         432.539          48.000  
R21  20257265.289   108400698.610       -2094.782          48.000  
S20  37903394.153   199183669.118         107.474          40.000  
> 2017 11 15 18 41 55.4000000  0 15                     
G 2  20900193.284   109831227.049       -1923.462          48.000  
G 5  23813025.353   125138287.104        2198.151          48.000  
G 6  24168224.134   127004649.024       -3248.808          27.000  
G12  20679910.513   108673672.190         304.809          50.000  
R12  21713514.178   115989775.994        3720.262          44.000  
G24  22039824.409   115819996.765       -2891.987          47.000  
G25  21749040.123   114291955.392        2192.898          46.000  
G29  21607186.204   113546541.392        1184.943          48.000  
G32  25932373.144                1      -1320.100          11.000  
G20  24618182.518   129369451.5921       2931.177          25.000  
R10  21303800.784   113561282.429       -3242.217          40.000  
R22  20578951.010   109851810.456        1344.562          48.000  
R11  19285628.762   103056529.503         432.284          47.000  
R21  20257343.466   108401117.580       -2094.731          48.000  
S20  37903390.122   199183647.614         107.674          40.000  
> 2017 11 15 18 41 55.6000000  0 15                     
G 2  20900266.523   109831611.805       -1923.950          48.000  
G 5  23812941.749   125137847.504        2198.218          48.000  
G 6  24168348.344   127005298.784       -3249.076          27.000  
G12  20679898.909   108673611.258         304.632          50.000  
R12  21713374.907   115989031.969        3719.975          44.000  
G24  22039934.572   115820575.208       -2892.252          47.000  
G25  21748956.554   114291516.831        2192.319          46.000  
G29  21607141.077   113546304.425        1184.750          48.000  
G32  25932423.261                1      -1318.799          12.000  
G20  24618071.430   129368865.1691       2932.163          25.000  
R10  21303922.447   113561931.001       -3242.960          40.000  
R22  20578900.579   109851541.591        1344.255          48.000  
R11  19285612.586   103056443.069         432.046          47.000  
R21  20257421.591   108401536.582       -2095.058          48.000  
S20  37903386.039   199183626.147         107.341          40.000  
> 2017 11 15 18 41 55.8000000  0 16                     
G 2  20900339.726   109831996.564       -1923.682          48.000  
G 5  23812858.075   125137407.918        2198.236          49.000  
G 6  24168471.002   127005948.431       -3248.094          27.000  
G12  20679887.426   108673550.323         304.909          50.000  
R12  21713235.620   115988287.935        3720.323          44.000  
G24  22040044.666   115821153.637       -2891.996          47.000  
G25  21748873.020   114291078.224        2192.964          46.000  
G29  21607096.021   113546067.464        1185.108          48.000  
G32  25932474.215                1      -1318.799          12.000  
G20  24617959.940   129368278.849        2931.610          24.000  
R23  24703491.925                1       3312.425          25.000  
R10  21304044.162   113562579.545       -3242.538          40.000  
R22  20578850.165   109851272.726        1344.545          48.000  
R11  19285596.497   103056356.659         432.210          47.000  
R21  20257499.733   108401955.583       -2094.741          48.000  
S20  37903381.973   199183604.632         108.004          40.000  
> 2017 11 15 18 41 56.0000000  0 16                     
G 2  20900413.052   109832381.328       -1924.030          48.000  
G 5  23812774.471   125136968.297        2198.138          48.000  
G 6  24168594.776   127006598.155       -3248.719          27.000  
G12  20679875.700   108673489.383         304.514          50.000  
R12  21713096.280   115987543.890        3720.119          44.000  
G24  22040154.794   115821732.066       -2892.215          47.000  
G25  21748789.555   114290639.635        2192.458          46.000  
G29  21607051.017   113545830.488        1184.777          48.000  
G32  25932525.432                1      -1319.868          13.000  
G20  24617848.328   129367692.4031       2932.776          24.000  
R23  24703367.644                1       3316.014          25.000  
R10  21304165.807   113563228.101       -3242.879          40.000  
R22  20578799.961   109851003.868        1344.175          48.000  
R11  19285580.198   103056270.254         431.763          47.000  
R21  20257578.049   108402374.574       -2095.079          48.000  
S20  37903377.802   199183583.127         107.368          40.000  
> 2017 11 15 18 41 56.2000000  0 16                     
G 2  20900486.291   109832766.146       -1923.932          48.000  
G 5  23812690.815   125136528.727        2198.322          48.000  
G 6  24168720.069   127007247.793       -3247.487          27.000  
G12  20679864.322   108673428.485         304.776          50.000  
R12  21712956.975   115986799.911        3720.027          44.000  
G24  22040264.992   115822310.537       -2891.992          47.000  
G25  21748706.091   114290201.065        2192.675          46.000  
G29  21607005.943   113545593.553        1185.045          48.000  
G32  25932576.037                1      -1319.868          13.000  
G20  24617736.874   129367106.1021       2932.082          24.000  
R23  24703243.818                1       3313.460          25.000  
R10  21304287.470   113563876.702       -3242.522          40.000  
R22  20578749.634   109850735.060        1344.253          48.000  
R11  19285563.970   103056183.915         431.968          47.000  
R21  20257656.331   108402793.616       -2094.828          48.000  
S20  37903373.667   199183561.633         107.967          40.000  
> 2017 11 15 18 41 56.4000000  0 16                     
G 2  20900559.529   109833150.982       -1924.292          48.000  
G 5  23812607.246   125136089.160        2197.900          48.000  
G 6  24168842.883   127007897.640       -3248.786          27.000  
G12  20679852.683   108673367.599         304.351          50.000  
R12  21712817.705   115986055.919        3719.886          44.000  
G24  22040375.138   115822889.024       -2892.538          47.000  
G25  21748622.592   114289762.509        2192.386          46.000  
G29  21606960.799   113545356.641        1184.317          48.000  
G32  25932627.620                1      -1313.997          14.000  
G20  24617625.559   129366519.7091       2931.526          24.000  
R23  24703120.183                1       3315.492          25.000  
R10  21304409.255   113564525.358       -3243.500          40.000  
R22  20578699.412   109850466.270        1343.852          48.000  
R11  19285547.776   103056097.613         431.403          47.000  
R21  20257734.595   108403212.670       -2095.364          48.000  
S20  37903369.583   199183540.177         106.885          40.000  
> 2017 11 15 18 41 56.6000000  0 16                     
G 2  20900632.611   109833535.833       -1924.432          48.000  
G 5  23812523.589   125135649.583        2198.004          48.000  
G 6  24168966.954   127008547.3691      -3248.604          27.000  
G12  20679841.044   108673306.718         304.301          50.000  
R12  21712678.347   115985311.939        3719.910          44.000  
G24  22040485.214   115823467.508       -2892.471          47.000  
G25  21748539.005   114289323.949        2192.232          46.000  
G29  21606915.743   113545119.698        1184.569          48.000  
G32  25932678.487                1      -1313.997          14.000  
G20  24617514.576   129365933.2981       2932.284          24.000  
R23  24702997.909                1       3314.150          25.000  
R10  21304530.901   113565173.990       -3243.339          40.000  
R22  20578649.016   109850197.486        1343.766          48.000  
R11  19285531.634   103056011.332         431.268          47.000  
R21  20257812.825   108403631.721       -2095.427          49.000  
S20  37903365.378   199183518.669         107.443          40.000  
> 2017 11 15 18 41 56.8000000  0 16                     
G 2  20900705.902   109833920.656       -1924.109          48.000  
G 5  23812439.950   125135209.975        2198.352          48.000  
G 6  24169090.502   127009197.1001      -3248.243          27.000  
G12  20679829.561   108673245.804         304.670          50.000  
R12  21712539.077   115984567.941        3720.179          44.000  
G24  22040595.307   115824045.962       -2892.177          47.000  
G25  21748455.506   114288885.340        2192.767          46.000  
G29  21606870.686   113544882.736        1185.043          48.000  
G32  25932729.652                1      -1316.727          14.000  
G20  24617404.447   129365346.9221       2932.159          24.000  
R23  24702873.559                1       3313.850          25.000  
R10  21304652.581   113565822.599       -3242.906          40.000  
R22  20578598.690   109849928.684        1344.043          48.000  
R11  19285515.458   103055925.039         431.496          47.000  
R21  20257891.176   108404050.742       -2095.019          49.000  
S20  37903361.242   199183497.134         107.691          40.000  
> 2017 11 15 18 41 57.0000000  0 16                     
G 2  20900779.123   109834305.504       -1924.261          48.000  
G 5  23812356.277   125134770.371        2198.291          48.000  
G 6  24169213.927   127009846.763       -3248.108          27.000  
G12  20679817.817   108673184.899         304.522          50.000  
R12  21712399.877   115983823.940        3720.017          44.000  
G24  22040705.540   115824624.431       -2892.488          47.000  
G25  21748372.024   114288446.733        2192.742          45.000  
G29  21606825.647   113544645.788        1184.628          48.000  
G32  25932780.816                1      -1316.727          13.000  
G20  24617293.446   129364760.4011       2932.794          24.000  
R23  24702749.313                1       3314.745          25.000  
R10  21304774.227   113566471.220       -3243.094          40.000  
R22  20578548.451   109849659.898        1343.883          48.000  
R11  19285499.299   103055838.768         431.260          47.000  
R21  20257969.545   108404469.763       -2095.063          48.000  
S20  37903357.141   199183475.598         107.687          40.000  
> 2017 11 15 18 41 57.2000000  0 16                     
G 2  20900852.327   109834690.407       -1924.542          48.000  
G 5  23812272.498   125134330.811        2197.955          48.000  
G 6  24169337.946   127010496.549       -3248.875          27.000  
G12  20679806.265   108673124.045         304.205          50.000  
R12  21712260.554   115983079.986        3719.813          44.000  
G24  22040815.721   115825202.943       -2892.732          47.000  
G25  21748288.629   114288008.191        2192.341          46.000  
G29  21606780.643   113544408.862        1184.685          48.000  
G32  25932832.014                1      -1316.727          14.000  
G20  24617182.864   129364174.1351       2930.500          24.000  
R23  24702624.649                1       3313.741          25.000  
R10  21304895.890   113567119.912       -3243.550          40.000  
R22  20578498.124   109849391.166        1343.615          48.000  
R11  19285483.088   103055752.573         430.924          47.000  
R21  20258048.001   108404888.849       -2095.397          49.000  
S20  37903353.006   199183454.121         107.662          40.000  
> 2017 11 15 18 41 57.4000000  0 16                     
G 2  20900925.600   109835075.304       -1924.622          48.000  
G 5  23812188.877   125133891.225        2198.041          48.000  
G 6  24169461.878   127011146.287       -3248.832          26.000  
G12  20679794.853   108673063.167         304.270          50.000  
R12  21712121.319   115982336.022        3719.868          44.000  
G24  22040925.884   115825781.433       -2892.528          47.000  
G25  21748205.113   114287569.601        2192.237          45.000  
G29  21606735.569   113544171.929        1184.558          48.000  
G32  25932882.463                1      -1309.263          14.000  
G20  24617072.736                1       2933.084          24.000  
R23  24702500.892                1       3313.732          25.000  
R10  21305017.448   113567768.572       -3243.332          40.000  
R22  20578447.885   109849122.421        1343.626          48.000  
R11  19285466.929   103055666.372         430.728          47.000  
R21  20258126.283   108405307.907       -2095.445          49.000  
S20  37903348.992   199183432.607         107.719          40.000  
> 2017 11 15 18 41 57.6000000  0 16                     
G 2  20900998.769   109835460.273       -1924.908          48.000  
G 5  23812105.255   125133451.698        2197.626          48.000  
G 6  24169585.094   127011796.084       -3249.052          27.000  
G12  20679783.266   108673002.359         303.979          50.000  
R12  21711981.996   115981592.129        3719.450          44.000  
G24  22041036.030   115826359.997       -2892.961          47.000  
G25  21748121.701   114287131.070        2192.267          46.000  
G29  21606690.513   113543935.059        1184.317          48.000  
G32  25932932.877                1      -1309.263          14.000  
G20  24616962.294                1       2932.512          24.000  
R23  24702377.379                1       3312.394          25.000  
R10  21305138.989   113568417.328       -3243.735          40.000  
R22  20578397.541   109848853.757        1343.174          48.000  
R11  19285450.735   103055580.259         430.362          47.000  
R21  20258204.512   108405727.030       -2095.750          48.000  
S20  37903344.752   199183411.141         107.621          40.000  
> 2017 11 15 18 41 57.8000000  0 16                     
G 2  20901071.938   109835845.269       -1925.153          48.000  
G 5  23812021.669   125133012.176        2197.601          48.000  
G 6  24169708.152   127012445.887       -3248.560          27.000  
G12  20679771.609   108672941.563         303.788          50.000  
R12  21711842.708   115980848.239        3719.380          44.000  
G24  22041146.210   115826938.571       -2893.095          47.000  
G25  21748038.166   114286692.562        2192.014          46.000  
G29  21606645.526   113543698.183        1184.288          48.000  
G32  25932983.517                1      -1309.263          14.000  
G20  24616852.200                1       2931.455          24.000  
R23  24702253.588                1       3314.191          25.000  
R10  21305260.721   113569066.094       -3243.946          40.000  
R22  20578347.232   109848585.106        1342.996          48.000  
R11  19285434.559   103055494.169         430.171          47.000  
R21  20258282.811   108406146.163       -2095.748          48.000  
S20  37903340.808   199183389.641         107.331          40.000  
> 2017 11 15 18 41 58.0000000  0 16                     
G 2  20901145.141   109836230.345       -1925.342          48.000  
G 5  23811938.065   125132572.729        2197.412          48.000  
G 6  24169831.107   127013095.828       -3249.873          27.000  
G12  20679760.110   108672880.849         303.514          50.000  
R12  21711703.491   115980104.442        3718.917          44.000  
G24  22041256.286   115827517.217       -2893.159          47.000  
G25  21747954.615   114286254.112        2191.774          46.000  
G29  21606600.487   113543461.399        1184.005          48.000  
G32  25933034.367                1      -1321.167          14.000  
G20  24616742.805   129361828.3551       2931.843          25.000  
R23  24702129.394                1       3312.238          25.000  
R10  21305382.419   113569714.937       -3244.128          40.000  
R22  20578296.958   109848316.546        1342.736          48.000  
R11  19285418.505   103055408.178         429.877          47.000  
R21  20258360.988   108406565.387       -2096.188          48.000  
S20  37903336.794   199183368.236         107.048          40.000  
> 2017 11 15 18 41 58.2000000  0 16                     
G 2  20901218.467   109836615.482       -1925.824          48.000  
G 5  23811854.391   125132133.311        2197.217          48.000  
G 6  24169955.527   127013745.633       -3248.991          27.000  
G12  20679748.627   108672820.161         303.374          50.000  
R12  21711564.011   115979360.668        3718.749          44.000  
G24  22041366.432   115828095.905       -2893.641          47.000  
G25  21747871.168   114285815.706        2191.404          45.000  
G29  21606555.483   113543224.643        1183.651          48.000  
G32  25933084.711                1      -1321.167          14.000  
G20  24616633.584   129361242.0571       2931.267          25.000  
R23  24702005.358                1       3313.951          25.000  
R10  21305504.100   113570363.843       -3244.541          40.000  
R22  20578246.701   109848048.031        1342.386          48.000  
R11  19285402.555   103055322.240         429.561          47.000  
R21  20258439.305   108406984.629       -2096.386          48.000  
S20  37903332.729   199183346.822         106.896          40.000  
> 2017 11 15 18 41 58.4000000  0 16                     
G 2  20901291.793   109837000.616       -1925.732          48.000  
G 5  23811770.822   125131693.882        2197.363          48.000  
G 6  24170078.411   127014395.527       -3249.521          27.000  
G12  20679736.918   108672759.486         303.424          50.000  
R12  21711424.741   115978616.902        3718.846          44.000  
G24  22041476.561   115828674.592       -2893.484          47.000  
G25  21747787.703   114285377.281        2191.597          46.000  
G29  21606510.409   113542987.874        1183.962          48.000  
G32  25933134.706                1      -1321.167          14.000  
G20  24616523.717   129360655.6271       2932.229          25.000  
R23  24701882.736                1       3312.010          25.000  
R10  21305625.885   113571012.759       -3244.860          40.000  
R22  20578196.584   109847779.522        1342.602          48.000  
R11  19285386.449   103055236.324         429.590          47.000  
R21  20258517.656   108407403.875       -2096.193          48.000  
S20  37903328.593   199183325.387         107.167          40.000  
> 2017 11 15 18 41 58.6000000  0 16                     
G 2  20901365.189   109837385.810       -1925.940          48.000  
G 5  23811687.288   125131254.500        2197.290          48.000  
G 6  24170202.220   127015045.518       -3250.028          27.000  
G12  20679725.436   108672698.849         303.235          50.000  
R12  21711285.506   115977873.189        3718.638          44.000  
G24  22041586.706   115829253.319       -2893.681          47.000  
G25  21747704.099   114284938.892        2191.523          45.000  
G29  21606465.318   113542751.168        1183.486          48.000  
G32  25933185.224                1      -1321.167          14.000  
G20  24616413.502   129360069.2601       2931.823          25.000  
R23  24701758.071                1       3313.050          25.000  
R10  21305747.565   113571661.704       -3244.888          40.000  
R22  20578146.398   109847511.076        1342.223          48.000  
R11  19285370.551   103055150.471         429.310          47.000  
R21  20258596.008   108407823.174       -2096.347          48.000  
S20  37903324.667   199183303.975         106.930          40.000  
> 2017 11 15 18 41 58.8000000  0 16                     
G 2  20901438.340   109837771.005       -1925.916          48.000  
G 5  23811603.596   125130815.103        2197.333          48.000  
G 6  24170325.663   127015695.422       -3249.593          27.000  
G12  20679713.919   108672638.203         303.426          50.000  
R12  21711146.218   115977129.456        3718.855          44.000  
G24  22041696.904   115829832.043       -2893.536          47.000  
G25  21747620.548   114284500.487        2191.776          45.000  
G29  21606420.366   113542514.425        1183.760          48.000  
G32  25933235.219                1      -1321.167          13.000  
G20  24616303.513   129359482.928        2931.806          25.000  
R23  24701634.454                1       3313.890          25.000  
R10  21305869.245   113572310.668       -3244.752          40.000  
R22  20578096.193   109847242.617        1342.327          48.000  
R11  19285354.480   103055064.631         429.261          47.000  
R21  20258674.290   108408242.456       -2096.293          48.000  
S20  37903320.461   199183282.546         107.467          40.000  
> 2017 11 15 18 41 59.0000000  0 16                     
G 2  20901511.788   109838156.189       -1925.922          48.000  
G 5  23811519.923   125130375.694        2197.156          48.000  
G 6  24170449.211   127016345.302       -3249.504          27.000  
G12  20679702.314   108672577.553         303.221          50.000  
R12  21711006.861   115976385.717        3718.755          44.000  
G24  22041807.033   115830410.750       -2893.529          47.000  
G25  21747537.066   114284062.070        2191.802          45.000  
G29  21606375.222   113542277.676        1183.835          48.000  
G32  25933285.930                1      -1321.167          13.000  
G20  24616193.908   129358896.477        2932.512          25.000  
R23  24701511.081                1       3312.740          25.000  
R10  21305990.926   113572959.625       -3244.911          40.000  
R22  20578045.780   109846974.155        1342.284          48.000  
R11  19285338.251   103054978.792         429.153          47.000  
R21  20258752.606   108408661.731       -2096.389          48.000  
S20  37903316.413   199183261.121         107.248          40.000  
> 2017 11 15 18 41 59.2000000  0 16                     
G 2  20901585.096   109838541.412       -1926.453          48.000  
G 5  23811436.301   125129936.278        2197.052          48.000  
G 6  24170572.758   127016995.248       -3249.936          27.000  
G12  20679690.745   108672516.910         302.993          50.000  
R12  21710867.643   115975642.006        3718.172          44.000  
G24  22041917.283   115830989.483       -2893.897          47.000  
G25  21747453.444   114283623.670        2191.410          45.000  
G29  21606330.235   113542040.946        1183.435          48.000  
G32  25933336.134                1      -1318.924          13.000  
G20  24616084.007   129358310.1321       2931.807          25.000  
R23  24701388.371                1       3313.365          25.000  
R10  21306112.711   113573608.591       -3245.365          39.000  
R22  20577995.575   109846705.722        1341.884          48.000  
R11  19285322.197   103054892.993         428.641          47.000  
R21  20258830.853   108409081.013       -2096.719          48.000  
S20  37903312.207   199183239.708         106.718          41.000  
> 2017 11 15 18 41 59.4000000  0 16                     
G 2  20901658.265   109838926.667       -1926.483          48.000  
G 5  23811352.592   125129496.896        2197.089          48.000  
G 6  24170695.835   127017645.156       -3249.513          27.000  
G12  20679679.367   108672456.300         302.897          50.000  
R12  21710728.372   115974898.309        3718.158          44.000  
G24  22042027.586   115831568.242       -2893.939          47.000  
G25  21747369.928   114283185.277        2191.593          45.000  
G29  21606285.319   113541804.237        1183.427          48.000  
G32  25933386.356                1      -1318.924          12.000  
G20  24615973.826   129357723.7311       2931.793          25.000  
R23  24701264.823                1       3312.984          25.000  
R10  21306234.304   113574257.614       -3245.394          39.000  
R22  20577945.301   109846437.316        1341.936          48.000  
R11  19285306.090   103054807.237         428.562          47.000  
R21  20258908.960   108409500.323       -2096.598          48.000  
S20  37903308.141   199183218.319         106.609          41.000  
> 2017 11 15 18 41 59.6000000  0 16                     
G 2  20901731.695   109839311.985       -1926.752          48.000  
G 5  23811268.988   125129057.557        2196.777          48.000  
G 6  24170820.220   127018295.173       -3250.067          27.000  
G12  20679667.833   108672395.736         302.727          50.000  
R12  21710589.242   115974154.661        3718.192          44.000  
G24  22042137.802   115832147.040       -2893.940          47.000  
G25  21747286.463   114282746.954        2190.991          45.000  
G29  21606240.227   113541567.572        1183.315          48.000  
G32  25933436.839                1      -1318.924          12.000  
G20  24615864.012   129357137.3391       2932.268          25.000  
R23  24701140.438                1       3313.242          25.000  
R10  21306355.932   113574906.675       -3245.607          39.000  
R22  20577895.114   109846168.975        1341.594          48.000  
R11  19285290.036   103054721.560         428.314          47.000  
R21  20258987.381   108409919.691       -2097.021          48.000  
S20  37903304.145   199183196.963         106.248          41.000  
> 2017 11 15 18 41 59.8000000  0 16                     
G 2  20901805.021   109839697.339       -1927.191          48.000  
G 5  23811185.419   125128618.244        2196.576          48.000  
G 6  24170944.082   127018945.149       -3250.006          27.000  
G12  20679656.281   108672335.209         302.401          50.000  
R12  21710450.111   115973411.052        3717.895          44.000  
G24  22042248.087   115832725.886       -2894.381          47.000  
G25  21747202.912   114282308.634        2190.569          45.000  
G29  21606195.188   113541330.935        1183.063          48.000  
G32  25933488.352                1      -1318.924          12.000  
G20  24615754.599   129356551.0301       2931.516          25.000  
R23  24701016.681                1       3313.606          25.000  
R10  21306477.577   113575555.780       -3245.813          39.000  
R22  20577844.963   109845900.668        1341.275          48.000  
R11  19285273.999   103054635.936         427.891          47.000  
R21  20259065.838   108410339.080       -2097.175          48.000  
S20  37903300.201   199183175.574         106.365          41.000  
> 2017 11 15 18 42  0.0000000  0 16                     
G 2  20901878.417   109840082.751       -1926.923          48.000  
G 5  23811101.885   125128178.977        2196.857          49.000  
G 6  24171067.559   127019595.227       -3250.280          27.000  
G12  20679644.816   108672274.730         302.559          50.000  
R12  21710310.859   115972667.493        3717.937          44.000  
G24  22042358.250   115833304.775       -2894.062          47.000  
G25  21747119.447   114281870.336        2191.415          45.000  
G29  21606150.219   113541094.352        1183.094          48.000  
G32  25933539.795                1      -1323.211          12.000  
G20  24615645.029   129355964.7621       2931.149          25.000  
R23  24700892.436                1       3312.734          25.000  
R10  21306599.310   113576204.947       -3245.586          39.000  
R22  20577794.880   109845632.426        1341.395          48.000  
R11  19285258.172   103054550.387         427.853          47.000  
R21  20259144.172   108410758.531       -2097.061          48.000  
S20  37903296.048   199183154.285         106.700          41.000  
> 2017 11 15 18 42  0.2000000  0 16                     
G 2  20901951.760   109840468.197       -1927.191          48.000  
G 5  23811018.351   125127739.735        2196.332          49.000  
G 6  24171191.875   127020245.258       -3250.666          27.000  
G12  20679633.316   108672214.272         302.412          50.000  
R12  21710171.606   115971923.952        3717.815          44.000  
G24  22042468.413   115833883.686       -2894.368          47.000  
G25  21747036.105   114281432.090        2191.153          45.000  
G29  21606105.285   113540857.789        1182.778          48.000  
G32  25933590.924                1      -1323.211          12.000  
G20  24615536.175   129355378.4101       2931.659          25.000  
R23  24700768.522                1       3312.657          25.000  
R10  21306721.148   113576854.148       -3245.914          39.000  
R22  20577744.606   109845364.217        1341.028          48.000  
R11  19285242.188   103054464.868         427.692          47.000  
R21  20259222.506   108411177.997       -2097.226          48.000  
S20  37903292.192   199183132.993         106.621          41.000  
> 2017 11 15 18 42  0.4000000  0 16                     
G 2  20902025.173   109840853.690       -1927.527          48.000  
G 5  23810934.852   125127300.506        2196.094          49.000  
G 6  24171315.649   127020895.396       -3250.621          27.000  
G12  20679621.764   108672153.854         301.920          50.000  
R12  21710032.371   115971180.463        3717.333          44.000  
G24  22042578.542   115834462.640       -2894.876          47.000  
G25  21746952.745   114280993.867        2190.471          45.000  
G29  21606060.490   113540621.240        1182.615          48.000  
G32  25933641.548                1      -1323.211          12.000  
G20  24615427.407   129354792.1451       2931.163          25.000  
R23  24700644.329                1       3311.568          25.000  
R10  21306842.793   113577503.393       -3246.312          39.000  
R22  20577694.350   109845096.042        1340.659          48.000  
R11  19285226.133   103054379.425         427.013          47.000  
R21  20259300.944   108411597.502       -2097.635          48.000  
S20  37903288.178   199183111.732         106.267          41.000  
> 2017 11 15 18 42  0.6000000  0 16                     
G 2  20902098.516   109841239.181       -1927.527          48.000  
G 5  23810851.230   125126861.265        2196.362          49.000  
G 6  24171439.197   127021545.408       -3250.031          27.000  
G12  20679610.247   108672093.416         302.086          50.000  
R12  21709893.013   115970436.943        3717.438          44.000  
G24  22042688.810   115835041.580       -2894.775          47.000  
G25  21746869.298   114280555.610        2190.967          45.000  
G29  21606015.486   113540384.682        1182.731          48.000  
G32  25933691.630                1      -1323.211          11.000  
G20  24615316.703   129354205.8011       2931.107          25.000  
R23  24700519.804                1       3313.459          24.000  
R10  21306964.561   113578152.631       -3246.378          39.000  
R22  20577644.145   109844827.858        1340.918          48.000  
R11  19285210.236   103054293.973         427.175          48.000  
R21  20259379.383   108412016.983       -2097.419          48.000  
S20  37903284.165   199183090.426         106.314          41.000  
> 2017 11 15 18 42  0.8000000  0 16                     
G 2  20902171.860   109841624.692       -1927.814          48.000  
G 5  23810767.696   125126422.032        2196.027          49.000  
G 6  24171563.006   127022195.543       -3250.763          27.000  
G12  20679598.957   108672032.995         301.951          50.000  
R12  21709753.830   115969693.449        3717.339          44.000  
G24  22042799.008   115835620.520       -2894.931          47.000  
G25  21746785.939   114280117.366        2190.771          45.000  
G29  21605970.482   113540148.144        1182.400          48.000  
G32  25933742.829                1      -1323.211          11.000  
G20  24615207.151   129353619.4261       2932.015          25.000  
R23  24700396.204                1       3311.550          24.000  
R10  21307086.224   113578801.913       -3246.876          39.000  
R22  20577594.011   109844559.709        1340.493          48.000  
R11  19285194.217   103054208.562         426.849          48.000  
R21  20259457.804   108412436.490       -2097.723          48.000  
S20  37903280.116   199183069.134         106.188          40.000  
> 2017 11 15 18 42  1.0000000  0 16                     
G 2  20902245.186   109842010.281       -1928.271          48.000  
G 5  23810684.179   125125982.856        2195.715          49.000  
G 6  24171686.152   127022845.673       -3250.908          27.000  
G12  20679587.248   108671972.642         301.510          50.000  
R12  21709614.647   115968950.022        3716.931          44.000  
G24  22042909.171   115836199.541       -2895.362          47.000  
G25  21746702.422   114279679.190        2190.128          45.000  
G29  21605925.565   113539911.659        1182.197          48.000  
G32  25933793.783                1      -1323.211          11.000  
G20  24615097.302   129353033.0961       2931.292          25.000  
R23  24700272.238                1       3301.397          24.000  
R10  21307207.991   113579451.211       -3246.737          39.000  
R22  20577543.842   109844291.627        1340.034          48.000  
R11  19285178.093   103054123.245         426.166          48.000  
R21  20259536.191   108412856.054       -2098.072          48.000  
S20  37903275.963   199183047.901         105.709          40.000  
> 2017 11 15 18 42  1.2000000  0 16                     
G 2  20902318.564   109842395.914       -1928.131          48.000  
G 5  23810600.610   125125543.713        2195.911          49.000  
G 6  24171809.577   127023495.871       -3250.982          27.000  
G12  20679575.765   108671912.319         301.629          50.000  
R12  21709475.464   115968206.627        3717.064          44.000  
G24  22043019.404   115836778.590       -2895.167          47.000  
G25  21746619.010   114279241.039        2190.413          45.000  
G29  21605880.561   113539675.211        1182.396          48.000  
G32  25933844.092                1      -1315.902          11.000  
G20  24614987.243   129352446.9731       2930.392          25.000  
R23  24700148.760                1       3310.786          23.000  
R10  21307329.724   113580100.590       -3246.709          39.000  
R22  20577493.812   109844023.590        1340.228          48.000  
R11  19285162.056   103054037.972         426.415          48.000  
R21  20259614.629   108413275.656       -2097.855          48.000  
S20  37903272.089   199183026.676         106.171          40.000  
> 2017 11 15 18 42  1.4000000  0 16                     
G 2  20902391.959   109842781.574       -1928.467          48.000  
G 5  23810516.989   125125104.579        2195.667          49.000  
G 6  24171932.287   127024146.033       -3250.737          27.000  
G12  20679564.493   108671852.013         301.495          50.000  
R12  21709336.264   115967463.252        3716.747          44.000  
G24  22043129.550   115837357.652       -2895.479          47.000  
G25  21746535.615   114278802.889        2190.259          45.000  
G29  21605835.539   113539438.779        1181.963          48.000  
G32  25933894.523                1      -1315.902          10.000  
G20  24614877.202   129351860.6011       2931.293          25.000  
R23  24700024.061                1       3308.125          23.000  
R10  21307451.561   113580749.991       -3247.172          39.000  
R22  20577443.573   109843755.574        1339.970          48.000  
R11  19285146.107   103053952.741         426.021          48.000  
R21  20259693.051   108413695.270       -2098.147          48.000  
S20  37903268.075   199183005.456         105.998          40.000  
> 2017 11 15 18 42  1.6000000  0 15                     
G 2  20902465.390   109843167.294       -1928.802          48.000  
G 5  23810433.437   125124665.487        2195.551          49.000  
G 6  24172056.707   127024796.300       -3251.262          27.000  
G12  20679552.888   108671791.763         301.133          50.000  
R12  21709197.064   115966719.933        3716.508          44.000  
G24  22043239.818   115837936.769       -2895.746          47.000  
G25  21746452.308   114278364.791        2190.158          45.000  
G29  21605790.710   113539202.377        1181.879          48.000  
G32  25933945.740                1      -1315.902          11.000  
G20  24614766.428                1       2931.503          25.000  
R10  21307573.399   113581399.445       -3247.532          39.000  
R22  20577393.456   109843487.615        1339.696          48.000  
R11  19285130.157   103053867.582         425.688          48.000  
R21  20259771.315   108414114.937       -2098.340          48.000  
S20  37903263.992   199182984.236         105.887          40.000  
> 2017 11 15 18 42  1.8000000  0 15                     
G 2  20902538.820   109843553.026       -1928.772          48.000  
G 5  23810349.990   125124226.408        2195.490          49.000  
G 6  24172181.337   127025446.497       -3251.069          27.000  
G12  20679541.458   108671731.519         301.189          50.000  
R12  21709057.758   115965976.611        3716.492          44.000  
G24  22043349.929   115838515.887       -2895.616          47.000  
G25  21746368.948   114277926.691        2189.925          45.000  
G29  21605745.828   113538965.989        1182.042          48.000  
G32  25933995.961                1      -1315.902          11.000  
G20  24614655.794                1       2932.362          25.000  
R10  21307695.236   113582048.912       -3247.177          39.000  
R22  20577343.426   109843219.675        1339.554          48.000  
R11  19285114.295   103053782.451         425.501          48.000  
R21  20259849.719   108414534.609       -2098.384          48.000  
S20  37903260.013   199182963.054         105.750          40.000  
> 2017 11 15 18 42  2.0000000  0 15                     
G 2  20902612.251   109843938.854       -1929.272          48.000  
G 5  23810266.508   125123787.388        2195.099          49.000  
G 6  24172305.233   127026096.818       -3252.056          27.000  
G12  20679530.168   108671671.357         300.701          50.000  
R12  21708918.593   115965233.388        3715.872          44.000  
G24  22043460.284   115839095.091       -2896.073          47.000  
G25  21746285.711   114277488.658        2189.820          45.000  
G29  21605700.841   113538729.693        1181.225          48.000  
G32  25934046.340                1      -1315.902          10.000  
G20  24614546.573                1       2930.633          25.000  
R10  21307816.951   113582698.475       -3247.735          39.000  
R22  20577293.274   109842951.828        1339.092          48.000  
R11  19285098.223   103053697.417         425.076          48.000  
R21  20259928.227   108414954.366       -2098.959          48.000  
S20  37903255.948   199182941.891         105.539          40.000  
> 2017 11 15 18 42  2.2000000  0 14                     
G 2  20902685.716   109844324.645       -1928.979          48.000  
G 5  23810182.922   125123348.324        2195.538          49.000  
G 6  24172428.711   127026747.086       -3251.109          27.000  
G12  20679518.546   108671611.154         300.957          50.000  
R12  21708779.532   115964490.110        3716.355          44.000  
G24  22043570.482   115839674.258       -2895.897          47.000  
G25  21746202.369   114277050.592        2189.912          45.000  
G29  21605655.872   113538493.330        1181.549          48.000  
G20  24614436.968                1       2931.656          25.000  
R10  21307938.667   113583347.994       -3247.509          39.000  
R22  20577243.122   109842683.935        1339.305          48.000  
R11  19285082.378   103053612.358         425.184          48.000  
R21  20260006.736   108415374.076       -2098.597          48.000  
S20  37903251.934   199182920.707         105.953          40.000  
> 2017 11 15 18 42  2.4000000  0 14                     
G 2  20902759.217   109844710.513       -1929.333          48.000  
G 5  23810099.422   125122909.321        2195.111          49.000  
G 6  24172552.730   127027397.393       -3251.831          27.000  
G12  20679507.134   108671551.015         300.622          50.000  
R12  21708640.157   115963746.907        3715.922          44.000  
G24  22043680.663   115840253.478       -2896.037          47.000  
G25  21746119.079   114276612.585        2189.509          46.000  
G29  21605610.868   113538257.024        1181.627          48.000  
G20  24614326.456                1       2931.321          25.000  
R10  21308060.434   113583997.609       -3248.167          39.000  
R22  20577192.988   109842416.124        1339.007          48.000  
R11  19285066.499   103053527.370         424.953          48.000  
R21  20260085.279   108415793.849       -2098.939          48.000  
S20  37903247.903   199182899.564         105.644          40.000  
> 2017 11 15 18 42  2.6000000  0 14                     
G 2  20902832.490   109845096.381       -1929.541          48.000  
G 5  23810016.063   125122470.300        2195.062          49.000  
G 6  24172675.911   127028047.690       -3251.413          27.000  
G12  20679495.861   108671490.860         300.583          50.000  
R12  21708501.097   115963003.676        3716.097          44.000  
G24  22043790.931   115840832.698       -2896.228          47.000  
G25  21746035.649   114276174.546        2189.612          46.000  
G29  21605565.846   113538020.715        1181.455          48.000  
G20  24614215.874                1       2931.263          25.000  
R10  21308182.237   113584647.189       -3248.135          39.000  
R22  20577142.801   109842148.298        1338.943          48.000  
R11  19285050.549   103053442.411         424.513          48.000  
R21  20260163.770   108416213.609       -2098.930          48.000  
S20  37903244.029   199182878.408         105.625          40.000  
> 2017 11 15 18 42  2.8000000  0 14                     
G 2  20902905.851   109845482.285       -1929.645          48.000  
G 5  23809932.563   125122031.302        2195.142          49.000  
G 6  24172798.272   127028698.042       -3251.815          27.000  
G12  20679484.396   108671430.734         300.652          50.000  
R12  21708361.879   115962260.488        3715.910          44.000  
G24  22043901.146   115841411.941       -2896.143          47.000  
G25  21745952.307   114275736.520        2189.802          45.000  
G29  21605520.912   113537784.431        1181.375          48.000  
G20  24614104.838                1       2931.168          25.000  
R10  21308304.004   113585296.831       -3248.348          39.000  
R22  20577092.649   109841880.520        1338.891          48.000  
R11  19285034.757   103053357.470         424.608          48.000  
R21  20260242.192   108416633.404       -2099.096          48.000  
S20  37903240.050   199182857.262         105.621          40.000  
> 2017 11 15 18 42  3.0000000  0 15                     
G 2  20902979.177   109845868.181       -1929.364          48.000  
G 5  23809849.012   125121592.293        2195.215          49.000  
G 6  24172922.134   127029348.306       -3251.242          27.000  
G12  20679472.827   108671370.597         300.837          50.000  
R12  21708222.591   115961517.287        3715.981          44.000  
G24  22044011.309   115841991.178       -2896.105          47.000  
G25  21745868.825   114275298.487        2190.393          45.000  
G29  21605476.047   113537548.119        1181.763          48.000  
G20  24613993.279                1       2932.419          25.000  
R10  21308425.929   113585946.443       -3248.185          39.000  
G14  25666751.356                1       -810.684          31.000  
R22  20577042.549   109841612.729        1339.112          48.000  
R11  19285018.877   103053272.548         424.672          48.000  
R21  20260320.805   108417053.173       -2098.780          48.000  
S20  37903235.967   199182836.090         105.896          40.000  
> 2017 11 15 18 42  3.2000000  0 15                     
G 2  20903052.520   109846254.095       -1929.669          48.000  
G 5  23809765.460   125121153.266        2195.245          49.000  
G 6  24173044.564   127029998.643       -3251.724          27.000  
G12  20679461.432   108671310.468         300.616          50.000  
R12  21708083.303   115960774.073        3716.042          44.000  
G24  22044121.665   115842570.405       -2896.213          47.000  
G25  21745785.518   114274860.458        2189.795          45.000  
G29  21605431.078   113537311.819        1181.542          48.000  
G20  24613882.226                1       2931.417          24.000  
R10  21308547.697   113586596.081       -3248.490          39.000  
G14  25666784.005                1       -812.498          31.000  
R22  20576992.397   109841344.950        1338.872          48.000  
R11  19285003.050   103053187.644         424.418          48.000  
R21  20260399.383   108417472.953       -2098.915          48.000  
S20  37903231.727   199182814.910         106.000          40.000  
> 2017 11 15 18 42  3.4000000  0 15                     
G 2  20903125.968   109846639.993       -1929.132          48.000  
G 5  23809681.926   125120714.222        2195.734          48.000  
G 6  24173167.571   127030648.909       -3251.007          27.000  
G12  20679450.072   108671250.315         301.003          50.000  
R12  21707944.155   115960030.860        3716.395          44.000  
G24  22044231.775   115843149.628       -2895.725          47.000  
G25  21745702.088   114274422.386        2190.516          45.000  
G29  21605386.091   113537075.488        1182.137          48.000  
G20  24613770.980                1       2932.060          24.000  
R10  21308669.656   113587245.684       -3247.759          39.000  
G14  25666815.974                1       -810.837          31.000  
R22  20576942.367   109841077.162        1339.266          48.000  
R11  19284987.362   103053102.744         424.782          48.000  
R21  20260477.735   108417892.710       -2098.412          48.000  
S20  37903227.591   199182793.691         106.429          40.000  
> 2017 11 15 18 42  3.6000000  0 15                     
G 2  20903199.416   109847025.928       -1929.901          48.000  
G 5  23809598.392   125120275.187        2195.007          48.000  
G 6  24173290.194   127031299.247       -3252.167          27.000  
G12  20679438.572   108671190.174         300.517          50.000  
R12  21707804.990   115959287.659        3715.719          44.000  
G24  22044342.026   115843728.856       -2896.404          47.000  
G25  21745618.833   114273984.341        2189.978          45.000  
G29  21605341.035   113536839.178        1181.387          48.000  
G20  24613660.241                1       2931.372          25.000  
R10  21308791.529   113587895.330       -3248.518          39.000  
G14  25666846.093                1       -810.915          31.000  
R22  20576892.181   109840809.396        1338.584          48.000  
R11  19284971.552   103053017.877         424.103          48.000  
R21  20260556.226   108418312.494       -2099.170          48.000  
S20  37903223.595   199182772.480         106.020          40.000  
> 2017 11 15 18 42  3.8000000  0 15                     
G 2  20903272.881   109847411.859       -1929.974          47.000  
G 5  23809514.910   125119836.143        2194.995          47.000  
G 6  24173413.270   127031949.469       -3251.462          26.000  
G12  20679427.107   108671130.033         300.436          49.000  
R12  21707665.789   115958544.447        3716.102          44.000  
G24  22044452.329   115844308.094       -2896.545          45.000  
G25  21745535.491   114273546.276        2190.195          44.000  
G29  21605296.188   113536602.848        1181.518          46.000  
G20  24613549.188                1       2932.551          24.000  
R10  21308913.401   113588544.982       -3248.483          39.000  
G14  25666879.912   134880336.9453       -811.331          30.000  
R22  20576842.099   109840541.632        1338.595          48.000  
R11  19284955.795   103052933.029         423.955          48.000  
R21  20260634.664   108418732.257       -2098.923          48.000  
S20  37903219.564   199182751.241         105.776          38.000  
> 2017 11 15 18 42  4.0000000  0 15                     
G 2  20903346.399   109847797.827       -1929.846          47.000  
G 5  23809431.358   125119397.119        2195.081          47.000  
G 6  24173536.399   127032599.850       -3252.150          26.000  
G12  20679415.782   108671069.923         300.505          49.000  
R12  21707526.659   115957801.287        3715.769          44.000  
G24  22044562.597   115844887.350       -2896.432          45.000  
G25  21745452.114   114273108.249        2190.050          44.000  
G29  21605251.219   113536366.558        1181.397          46.000  
G20  24613436.407                1       2931.046          24.000  
R10  21309035.291   113589194.669       -3248.785          39.000  
G14  25666910.485   134880499.2743       -811.911          30.000  
R22  20576791.999   109840273.912        1338.555          48.000  
R11  19284940.002   103052848.237         423.883          48.000  
R21  20260713.208   108419152.072       -2099.100          48.000  
S20  37903215.585   199182730.013         106.227          38.000  
> 2017 11 15 18 42  4.2000000  0 15                     
G 2  20903419.917   109848183.860       -1930.084          47.000  
G 5  23809347.754   125118958.130        2195.148          47.000  
G 6  24173659.737   127033250.111       -3251.324          26.000  
G12  20679404.265   108671009.855         300.359          49.000  
R12  21707387.563   115957058.145        3715.730          44.000  
G24  22044672.865   115845466.653       -2896.451          45.000  
G25  21745368.859   114272670.246        2190.067          44.000  
G29  21605206.372   113536130.300        1181.294          46.000  
G20  24613324.412                1       2931.266          24.000  
R10  21309157.093   113589844.381       -3248.458          39.000  
G14  25666942.698   134880661.5893       -811.452          30.000  
R22  20576741.952   109840006.238        1338.391          48.000  
R11  19284924.140   103052763.501         423.706          48.000  
R21  20260791.716   108419571.914       -2099.170          48.000  
S20  37903211.572   199182708.821         106.097          38.000  
> 2017 11 15 18 42  4.4000000  0 15                     
G 2  20903493.382   109848569.923       -1930.810          47.000  
G 5  23809264.273   125118519.183        2194.220          47.000  
G 6  24173783.581   127033900.489       -3251.942          26.000  
G12  20679392.782   108670949.814         299.824          49.000  
R12  21707248.276   115956315.045        3715.038          44.000  
G24  22044783.063   115846045.992       -2897.051          45.000  
G25  21745285.552   114272232.270        2189.611          44.000  
G29  21605161.368   113535894.069        1180.835          46.000  
G20  24613213.202                1       2932.161          24.000  
R10  21309278.948   113590494.153       -3248.870          39.000  
G14  25666972.154   134880823.9063       -811.096          30.000  
R22  20576691.765   109839738.601        1337.832          48.000  
R11  19284908.417   103052678.815         422.959          48.000  
R21  20260870.312   108419991.794       -2099.758          48.000  
S20  37903207.628   199182687.648         105.774          38.000  
> 2017 11 15 18 42  4.6000000  0 15                     
G 2  20903566.725   109848956.026       -1930.731          47.000  
G 5  23809180.860   125118080.235        2194.623          47.000  
G 6  24173907.652   127034550.857       -3251.693          26.000  
G12  20679381.405   108670889.805         299.980          49.000  
R12  21707109.197   115955571.962        3715.416          44.000  
G24  22044893.278   115846625.359       -2897.006          45.000  
G25  21745202.314   114271794.331        2189.418          44.000  
G29  21605116.555   113535657.861        1180.977          46.000  
G20  24613102.846                1       2931.248          24.000  
R10  21309400.873   113591143.970       -3249.323          40.000  
G14  25666998.818   134880986.3983       -812.464          29.000  
R22  20576641.508   109839471.004        1337.858          48.000  
R11  19284892.712   103052594.186         422.922          48.000  
R21  20260948.664   108420411.696       -2099.657          48.000  
S20  37903203.597   199182666.505         105.690          38.000  
> 2017 11 15 18 42  4.8000000  0 15                     
G 2  20903640.313   109849342.115       -1930.432          47.000  
G 5  23809097.396   125117641.268        2194.958          47.000  
G 6  24174031.147   127035201.257       -3251.856          25.000  
G12  20679369.992   108670829.778         300.232          49.000  
R12  21706970.189   115954828.882        3715.344          44.000  
G24  22045003.459   115847204.700       -2896.638          45.000  
G25  21745118.832   114271356.325        2190.271          44.000  
G29  21605071.604   113535421.642        1181.161          46.000  
G20  24612991.532   129341893.6891       2932.552          24.000  
R10  21309522.832   113591793.756       -3249.081          40.000  
G14  25667029.007   134881148.8163       -811.881          29.000  
R22  20576591.321   109839203.392        1338.098          47.000  
R11  19284876.989   103052509.540         423.338          48.000  
R21  20261027.085   108420831.577       -2099.241          48.000  
S20  37903199.740   199182645.346         105.955          38.000  
> 2017 11 15 18 42  5.0000000  0 15                     
G 2  20903713.744   109849728.289       -1931.110          46.000  
G 5  23809014.054   125117202.395        2194.110          47.000  
G 6  24174154.695   127035851.687       -3252.286          25.000  
G12  20679358.580   108670769.823         299.527          49.000  
R12  21706831.058   115954085.856        3714.839          44.000  
G24  22045113.640   115847784.131       -2897.556          45.000  
G25  21745035.577   114270918.417        2189.222          44.000  
G29  21605026.565   113535185.484        1180.436          46.000  
G20  24612880.356   129341307.5011       2930.728          24.000  
R10  21309644.652   113592443.638       -3249.703          39.000  
G14  25667058.916   134881311.2593       -812.043          29.000  
R22  20576541.152   109838935.865        1337.338          47.000  
R11  19284861.371   103052425.009         422.235          47.000  
R21  20261105.541   108421251.536       -2100.098          47.000  
S20  37903195.814   199182624.242         105.271          38.000  
> 2017 11 15 18 42  5.2000000  0 15                     
G 2  20903787.244   109850114.537       -1931.427          46.000  
G 5  23808930.572   125116763.541        2194.043          47.000  
G 6  24174278.085   127036502.230       -3253.208          25.000  
G12  20679347.237   108670709.926         299.420          49.000  
R12  21706691.998   115953342.913        3714.634          44.000  
G24  22045223.960   115848363.593       -2897.476          45.000  
G25  21744952.252   114270480.584        2188.879          44.000  
G29  21604981.718   113534949.369        1180.485          46.000  
G20  24612768.884   129340721.1571       2931.460          24.000  
R10  21309766.647   113593093.582       -3250.133          39.000  
G14  25667086.732   134881473.7743       -812.963          29.000  
R22  20576490.983   109838668.404        1337.237          47.000  
R11  19284845.666   103052340.543         422.082          47.000  
R21  20261184.102   108421671.547       -2100.250          47.000  
S20  37903191.888   199182603.184         105.056          38.000  
> 2017 11 15 18 42  5.4000000  0 15                     
G 2  20903860.657   109850500.780       -1931.183          46.000  
G 5  23808847.003   125116324.683        2194.281          47.000  
G 6  24174401.005   127037152.641       -3252.685          25.000  
G12  20679335.912   108670650.024         299.511          49.000  
R12  21706552.972   115952599.941        3714.657          43.000  
G24  22045334.141   115848943.062       -2897.328          45.000  
G25  21744868.945   114270042.687        2189.327          44.000  
G29  21604936.731   113534713.265        1180.601          46.000  
G20  24612657.116   129340134.9621       2930.568          24.000  
R10  21309888.641   113593743.516       -3249.766          39.000  
G14  25667119.364   134881636.2853       -812.503          29.000  
R22  20576440.935   109838400.950        1337.188          47.000  
R11  19284829.891   103052256.088         422.239          47.000  
R21  20261262.454   108422091.545       -2099.969          47.000  
S20  37903187.857   199182582.108         105.451          38.000  
> 2017 11 15 18 42  5.6000000  0 15                     
G 2  20903934.227   109850887.089       -1931.756          46.000  
G 5  23808763.539   125115885.875        2193.903          47.000  
G 6  24174524.360   127037803.202       -3253.533          25.000  
G12  20679324.465   108670590.170         299.015          49.000  
R12  21706413.946   115951857.032        3714.327          43.000  
G24  22045444.356   115849522.586       -2897.785          45.000  
G25  21744785.795   114269604.875        2188.719          44.000  
G29  21604891.797   113534477.199        1180.059          46.000  
G20  24612544.980   129339548.7081       2931.345          24.000  
R10  21310010.618   113594393.501       -3249.873          39.000  
G14  25667152.397   134881798.9083       -812.945          29.000  
R22  20576390.784   109838133.549        1336.673          47.000  
R11  19284814.221   103052171.714         421.607          47.000  
R21  20261340.962   108422511.604       -2100.480          47.000  
S20  37903183.808   199182561.060         105.164          38.000  
> 2017 11 15 18 42  5.8000000  0 14                     
G 2  20904007.727   109851273.472       -1932.159          46.000  
G 5  23808680.004   125115447.126        2193.738          47.000  
G 6  24174647.663   127038453.6801      -3252.775          25.000  
G12  20679313.227   108670530.382         298.777          49.000  
R12  21706274.920   115951114.181        3713.864          43.000  
G24  22045554.624   115850102.172       -2898.121          45.000  
G25  21744702.505   114269167.074        2188.729          44.000  
G29  21604846.915   113534241.192        1179.877          46.000  
G20  24612433.823   129338962.4611       2931.373          23.000  
R10  21310132.630   113595043.589       -3250.620          39.000  
R22  20576340.736   109837866.210        1336.589          47.000  
R11  19284798.498   103052087.416         421.257          47.000  
R21  20261419.348   108422931.722       -2100.705          47.000  
S20  37903179.934   199182540.093         104.477          39.000  
> 2017 11 15 18 42  6.0000000  0 14                     
G 2  20904081.332   109851659.838       -1931.885          46.000  
G 5  23808596.610   125115008.367        2193.665          47.000  
G 6  24174771.734   127039104.2421      -3253.014          25.000  
G12  20679302.006   108670470.579         298.869          49.000  
R12  21706135.719   115950371.304        3714.398          43.000  
G24  22045664.909   115850681.743       -2897.971          45.000  
G25  21744619.215   114268729.260        2189.373          44.000  
G29  21604801.945   113534005.166        1179.910          46.000  
G20  24612322.054   129338376.2821       2930.869          23.000  
R10  21310254.572   113595693.644       -3250.470          39.000  
R22  20576290.654   109837598.878        1336.521          47.000  
R11  19284782.828   103052003.123         421.306          47.000  
R21  20261497.857   108423351.826       -2100.670          47.000  
S20  37903175.973   199182519.092         104.884          39.000  
> 2017 11 15 18 42  6.2000000  0 14                     
G 2  20904154.902   109852046.269       -1932.281          49.000  
G 5  23808513.110   125114569.633        2193.396          49.000  
G 6  24174895.474   127039754.817       -3252.888          26.000  
G12  20679290.524   108670410.820         298.687          51.000  
R12  21705996.729   115949628.491        3713.871          43.000  
G24  22045775.230   115851261.359       -2898.369          47.000  
G25  21744535.977   114268291.529        2188.841          47.000  
G29  21604757.081   113533769.177        1179.820          48.000  
G20  24612210.652   129337790.0251       2931.432          23.000  
R10  21310376.602   113596343.746       -3250.940          39.000  
R22  20576240.502   109837331.587        1336.426          47.000  
R11  19284767.193   103051918.894         420.949          47.000  
R21  20261576.174   108423771.968       -2100.870          47.000  
S20  37903171.907   199182498.105         104.661          40.000  
> 2017 11 15 18 42  6.4000000  0 14                     
G 2  20904228.333   109852432.730       -1932.367          49.000  
G 5  23808429.437   125114130.915        2193.372          49.000  
G 6  24175019.929   127040405.426       -3253.016          26.000  
G12  20679279.129   108670351.085         298.613          51.000  
R12  21705857.650   115948885.695        3714.032          43.000  
G24  22045885.533   115851840.985       -2898.000          47.000  
G25  21744452.722   114267853.782        2188.968          47.000  
G29  21604712.024   113533533.211        1179.853          48.000  
G20  24612099.092   129337203.9051       2930.752          24.000  
R10  21310498.561   113596993.886       -3250.529          40.000  
R22  20576190.263   109837064.343        1336.255          47.000  
R11  19284751.540   103051834.704         420.907          47.000  
R21  20261654.612   108424192.130       -2100.656          47.000  
S20  37903167.789   199182477.123         105.080          40.000  
> 2017 11 15 18 42  6.6000000  0 14                     
G 2  20904301.955   109852819.256       -1932.629          49.000  
G 5  23808345.850   125113692.240        2193.365          49.000  
G 6  24175144.733   127041056.055       -3252.969          26.000  
G12  20679267.909   108670291.404         298.481          51.000  
R12  21705718.729   115948142.951        3714.036          43.000  
G24  22045995.835   115852420.685       -2898.383          47.000  
G25  21744369.520   114267416.090        2188.891          47.000  
G29  21604667.090   113533297.303        1179.486          48.000  
G20  24611986.905   129336617.7431       2930.769          24.000  
R10  21310620.608   113597644.107       -3251.112          40.000  
R22  20576140.216   109836797.153        1335.981          47.000  
R11  19284735.992   103051750.594         420.564          47.000  
R21  20261733.243   108424612.354       -2100.980          47.000  
S20  37903163.810   199182456.227         104.462          41.000  
> 2017 11 15 18 42  6.8000000  0 14                     
G 2  20904375.508   109853205.791       -1932.874          50.000  
G 5  23808262.351   125113253.587        2192.816          50.000  
G 6  24175270.776   127041706.740       -3253.483          27.000  
G12  20679256.496   108670231.730         298.166          52.000  
R12  21705579.738   115947400.221        3713.607          43.000  
G24  22046106.016   115853000.404       -2898.989          48.000  
G25  21744286.247   114266978.390        2188.771          47.000  
G29  21604622.208   113533061.390        1179.273          49.000  
G20  24611875.276   129336031.5461       2930.677          24.000  
R10  21310742.777   113598294.350       -3252.030          40.000  
R22  20576090.204   109836529.992        1335.464          47.000  
R11  19284720.374   103051666.502         420.032          47.000  
R21  20261811.751   108425032.574       -2101.274          47.000  
S20  37903159.814   199182435.305         104.185          41.000  
> 2017 11 15 18 42  7.0000000  0 14                     
G 2  20904449.061   109853592.296       -1932.123          48.000  
G 5  23808178.799   125112814.959        2193.323          48.000  
G 6  24175394.201   127042357.302       -3252.477          27.000  
G12  20679245.014   108670172.030         298.844          50.000  
R12  21705440.730   115946657.421        3714.430          43.000  
G24  22046216.214   115853580.184       -2898.406          47.000  
G25  21744202.957   114266540.646        2189.519          46.000  
G29  21604577.361   113532825.461        1180.046          48.000  
G20  24611762.774   129335445.4471       2930.812          25.000  
R10  21310864.754   113598944.641       -3251.248          40.000  
R22  20576040.104   109836262.834        1336.049          47.000  
R11  19284704.686   103051582.420         420.776          47.000  
R21  20261890.086   108425452.730       -2100.370          47.000  
S20  37903155.836   199182414.402         105.035          40.000  
> 2017 11 15 18 42  7.2000000  0 14                     
G 2  20904522.753   109853978.809       -1932.550          48.000  
G 5  23808095.056   125112376.370        2192.993          48.000  
G 6  24175517.592   127043007.858       -3252.586          27.000  
G12  20679233.602   108670112.323         298.553          50.000  
R12  21705301.756   115945914.605        3714.216          43.000  
G24  22046326.395   115854160.030       -2899.455          46.000  
G25  21744119.702   114266102.903        2188.713          46.000  
G29  21604532.374   113532589.535        1179.598          48.000  
G20  24611651.041   129334859.3391       2930.357          25.000  
R10  21310986.801   113599595.007       -3251.995          40.000  
R22  20575989.917   109835995.699        1335.643          47.000  
R11  19284689.016   103051498.375         420.282          47.000  
R21  20261968.594   108425872.861       -2100.536          47.000  
S20  37903151.822   199182393.534         104.376          40.000  
> 2017 11 15 18 42  7.4000000  0 14                     
G 2  20904596.323   109854365.333       -1932.623          49.000  
G 5  23808011.644   125111937.832        2192.792          48.000  
G 6  24175640.843   127043658.424       -3252.836          28.000  
G12  20679222.276   108670052.626         298.491          50.000  
R12  21705162.573   115945171.744        3714.339          42.000  
G24  22046436.698   115854739.938       -2899.833          46.000  
G25  21744036.744   114265665.109        2188.688          46.000  
G29  21604487.388   113532353.625        1179.630          49.000  
G20  24611536.620   129334273.4211       2929.002          25.000  
R10  21311108.900   113600245.381       -3251.937          40.000  
R22  20575939.818   109835728.598        1335.491          46.000  
R11  19284673.171   103051414.363         419.996          47.000  
R21  20262047.155   108426293.002       -2100.729          48.000  
S20  37903147.966   199182372.701         103.819          40.000  
> 2017 11 15 18 42  7.6000000  0 14                     
G 2  20904669.928   109854751.883       -1932.660          48.000  
G 5  23807928.109   125111499.369        2192.206          48.000  
G 6  24175760.691   127044308.923       -3253.180          28.000  
G12  20679210.829   108669992.982         298.261          50.000  
R12  21705023.565   115944428.899        3714.122          43.000  
G24  22046547.227   115855319.940       -2900.180          47.000  
G25  21743953.489   114265227.304        2189.334          47.000  
G29  21604442.523   113532117.759        1179.427          49.000  
G20  24611424.502   129333687.5361       2929.539          25.000  
R10  21311230.964   113600895.979       -3253.569          40.000  
R22  20575889.753   109835461.591        1334.990          47.000  
R11  19284657.535   103051330.423         419.585          47.000  
R21  20262125.821   108426713.160       -2100.551          49.000  
S20  37903144.092   199182351.930         103.798          40.000  
> 2017 11 15 18 42  7.8000000  0 14                     
G 2  20904743.655   109855138.444       -1933.368          48.000  
G 5  23807844.453   125111060.954        2191.931          47.000  
G 6  24175882.441   127044959.325       -3252.339          28.000  
G12  20679199.486   108669933.320         298.037          50.000  
R12  21704884.295   115943686.043        3714.286          43.000  
G24  22046657.460   115855900.048       -2900.913          46.000  
G25  21743870.356   114264789.533        2188.391          47.000  
G29  21604397.851   113531881.871        1179.261          49.000  
G20  24611311.459   129333101.6571       2929.520          25.000  
R10  21311352.924   113601546.550       -3253.378          40.000  
R22  20575839.898   109835194.620        1334.443          48.000  
R11  19284641.830   103051246.536         419.010          47.000  
R21  20262204.416   108427133.268       -2101.014          48.000  
S20  37903140.026   199182331.122         104.141          39.000  
> 2017 11 15 18 42  8.0000000  0 14                     
G 2  20904817.243   109855525.020       -1932.580          48.000  
G 5  23807760.884   125110622.574        2191.687          47.000  
G 6  24176007.297   127045609.773       -3251.915          28.000  
G12  20679188.301   108669873.682         298.254          50.000  
R12  21704745.216   115942943.175        3714.228          43.000  
G24  22046767.920   115856480.177       -2900.750          47.000  
G25  21743787.136   114264351.712        2189.286          47.000  
G29  21604353.213   113531646.046        1179.228          49.000  
G20  24611198.312                1       2929.632          24.000  
R10  21311474.953   113602197.235       -3253.662          40.000  
R22  20575789.868   109834927.707        1334.464          47.000  
R11  19284626.195   103051162.694         419.359          47.000  
R21  20262282.820   108427553.394       -2100.231          48.000  
S20  37903136.012   199182310.402         103.900          39.000  
> 2017 11 15 18 42  8.2000000  0 14                     
G 2  20904890.900   109855911.581       -1932.941          48.000  
G 5  23807677.420   125110184.208        2191.821          46.000  
G 6  24176129.431   127046260.171       -3251.759          28.000  
G12  20679176.958   108669814.024         298.377          49.000  
R12  21704606.103   115942200.235        3714.772          43.000  
G24  22046878.328   115857060.376       -2900.601          47.000  
G25  21743703.899   114263913.896        2188.829          45.000  
G29  21604308.401   113531410.182        1179.661          47.000  
G20  24611085.601                1       2924.808          25.000  
R10  21311596.965   113602847.971       -3254.160          40.000  
R22  20575739.733   109834660.769        1334.833          48.000  
R11  19284610.490   103051078.847         419.123          47.000  
R21  20262361.346   108427973.490       -2100.495          48.000  
S20  37903131.981   199182289.626         103.443          39.000  
> 2017 11 15 18 42  8.4000000  0 14                     
G 2  20904964.540   109856298.178       -1932.611          48.000  
G 5  23807594.095   125109745.903        2191.852          46.000  
G 6  24176255.160   127046910.636       -3253.367          32.000  
G12  20679165.563   108669754.410         298.144          50.000  
R12  21704467.130   115941457.384        3714.744          43.000  
G24  22046988.840   115857640.714       -2901.758          47.000  
G25  21743620.417   114263476.048        2188.981          45.000  
G29  21604263.536   113531174.350        1179.152          49.000  
G20  24610974.304                1       2930.637          25.000  
R10  21311718.995   113603498.806       -3254.488          40.000  
R22  20575689.686   109834393.931        1334.043          46.000  
R11  19284595.081   103050995.100         418.659          47.000  
R21  20262439.942   108428393.609       -2100.755          48.000  
S20  37903128.055   199182268.991         103.897          40.000  
> 2017 11 15 18 42  8.6000000  0 14                     
G 2  20905038.355   109856684.855       -1933.350          48.000  
G 5  23807510.595   125109307.713        2190.833          46.000  
G 6  24176380.051   127047560.965       -3251.268          32.000  
G12  20679154.430   108669694.851         297.994          50.000  
R12  21704327.825   115940714.515        3714.418          42.000  
G24  22047099.248   115858221.126       -2902.802          46.000  
G25  21743537.075   114263038.271        2189.721          45.000  
G29  21604218.846   113530938.594        1178.944          48.000  
G20  24610860.406                1       2928.589          25.000  
R10  21311841.286   113604149.705       -3254.707          42.000  
R22  20575639.621   109834127.139        1334.194          47.000  
R11  19284579.219   103050911.398         418.707          47.000  
R21  20262518.398   108428813.728       -2100.133          48.000  
S20  37903124.094   199182248.413         102.567          40.000  
> 2017 11 15 18 42  8.8000000  0 14                     
G 2  20905111.960   109857071.460       -1933.331          49.000  
G 5  23807427.463   125108869.459        2191.040          47.000  
G 6  24176504.052   127048211.361       -3252.662          32.000  
G12  20679142.983   108669635.246         297.794          50.000  
R12  21704188.764   115939971.600        3714.885          42.000  
G24  22047209.742   115858801.488       -2901.842          46.000  
G25  21743453.855   114262600.444        2189.025          46.000  
G29  21604174.034   113530702.778        1178.993          49.000  
G20  24610745.654                1       2928.782          31.000  
R10  21311963.420   113604800.659       -3254.050          41.000  
R22  20575589.819   109833860.391        1333.623          47.000  
R11  19284563.653   103050827.716         418.175          47.000  
R21  20262597.151   108429233.833       -2100.456          48.000  
S20  37903120.202   199182227.747         103.038          40.000  
> 2017 11 15 18 42  9.0000000  0 14                     
G 2  20905185.565   109857458.127       -1933.344          49.000  
G 5  23807343.981   125108431.337        2190.857          48.000  
G 6  24176627.338   127048861.726       -3252.777          32.000  
G12  20679131.518   108669575.681         297.926          51.000  
R12  21704049.668   115939228.717        3715.255          41.000  
G24  22047320.202   115859381.922       -2902.236          47.000  
G25  21743370.582   114262162.617        2188.643          47.000  
G29  21604129.100   113530467.000        1178.857          49.000  
G20  24610624.706                1       2925.641          31.000  
R10  21312085.519   113605451.658       -3255.058          41.000  
R22  20575539.667   109833593.605        1333.934          47.000  
R11  19284547.843   103050744.081         418.058          47.000  
R21  20262675.607   108429653.944       -2100.695          48.000  
S20  37903116.224   199182207.153         103.079          40.000  
> 2017 11 15 18 42  9.2000000  0 14                     
G 2  20905259.117   109857844.799       -1933.673          49.000  
G 5  23807260.639   125107993.085        2191.010          48.000  
G 6  24176750.048   127049512.077       -3252.073          33.000  
G12  20679120.472   108669516.105         297.641          51.000  
R12  21703910.677   115938485.901        3714.077          42.000  
G24  22047430.557   115859962.314       -2902.330          47.000  
G25  21743287.222   114261724.782        2188.884          47.000  
G29  21604084.166   113530231.193        1178.797          49.000  
G20  24610505.853                1       2925.625          31.000  
R10  21312207.671   113606102.586       -3254.668          40.000  
R22  20575489.567   109833326.850        1333.597          47.000  
R11  19284532.103   103050660.465         417.865          47.000  
R21  20262754.081   108430074.076       -2100.691          48.000  
S20  37903112.262   199182186.468         103.810          40.000  
> 2017 11 15 18 42  9.4000000  0 14                     
G 2  20905332.653   109858231.486       -1933.154          49.000  
G 5  23807177.366   125107554.901        2191.547          48.000  
G 6  24176871.519   127050162.439       -3250.712          32.000  
G12  20679109.182   108669456.527         297.745          51.000  
R12  21703771.651   115937743.007        3713.591          44.000  
G24  22047540.982   115860542.745       -2902.444          47.000  
G25  21743203.985   114261286.971        2188.995          47.000  
G29  21604039.022   113529995.426        1178.731          49.000  
G20  24610388.046                1       2926.910          31.000  
R10  21312329.735   113606753.562       -3254.520          41.000  
R22  20575439.520   109833060.105        1333.720          47.000  
R11  19284516.416   103050576.828         417.969          47.000  
R21  20262832.467   108430494.210       -2100.554          47.000  
S20  37903108.354   199182165.859         103.350          40.000  
> 2017 11 15 18 42  9.6000000  0 14                     
G 2  20905406.293   109858618.249       -1934.058          49.000  
G 5  23807093.902   125107116.726        2190.051          47.000  
G 6  24176994.979   127050812.944       -3252.950          32.000  
G12  20679097.629   108669397.019         297.824          51.000  
R12  21703632.765   115937000.195        3713.253          44.000  
G24  22047651.407   115861123.194       -2902.850          47.000  
G25  21743120.712   114260849.178        2188.995          47.000  
G29  21603994.157   113529759.658        1179.126          49.000  
G20  24610279.436                1       2927.513          31.000  
R10  21312451.921   113607404.593       -3255.149          42.000  
R22  20575389.560   109832793.412        1333.428          47.000  
R11  19284500.780   103050493.322         417.652          47.000  
R21  20262911.098   108430914.417       -2101.398          48.000  
S20  37903104.288   199182145.229         102.263          40.000  
> 2017 11 15 18 42  9.8000000  0 14                     
G 2  20905479.967   109859004.984       -1933.893          49.000  
G 5  23807010.298   125106678.517        2191.101          47.000  
G 6  24177120.132   127051463.361       -3252.904          32.000  
G12  20679086.357   108669337.500         297.286          51.000  
R12  21703493.617   115936257.353        3713.691          43.000  
G24  22047761.989   115861703.646       -2902.777          47.000  
G25  21743037.510   114260411.377        2188.773          47.000  
G29  21603949.275   113529523.943        1177.884          49.000  
G20  24610166.481                1       2927.478          30.000  
R10  21312573.968   113608055.618       -3255.208          42.000  
R22  20575339.582   109832526.738        1333.151          47.000  
R11  19284485.127   103050409.791         417.093          47.000  
R21  20262989.397   108431334.562       -2101.067          48.000  
S20  37903100.327   199182124.548         103.773          40.000  
> 2017 11 15 18 42 10.0000000  0 14                     
G 2  20905553.450   109859391.850       -1934.192          49.000  
G 5  23806926.955   125106240.466        2189.612          49.000  
G 6  24177244.692   127052113.937       -3253.614          31.000  
G12  20679075.433   108669278.066         296.958          51.000  
R12  21703354.626   115935514.597        3713.727          42.000  
G24  22047872.711   115862284.260       -2903.769          48.000  
G25  21742954.185   114259973.631        2189.493          47.000  
G29  21603904.359   113529288.261        1178.676          49.000  
G20  24610053.979                1       2927.867          30.000  
R10  21312696.154   113608706.813       -3256.094          42.000  
R22  20575289.378   109832260.186        1332.536          46.000  
R11  19284469.422   103050326.407         416.904          47.000  
R21  20263068.062   108431754.825       -2101.108          48.000  
S20  37903096.243   199182104.110         102.048          40.000  
> 2017 11 15 18 42 10.2000000  0 14                     
G 2  20905627.195   109859778.702       -1934.064          49.000  
G 5  23806843.770   125105802.432        2190.582          50.000  
G 6  24177367.036   127052764.510       -3254.962          31.000  
G12  20679064.020   108669218.631         297.451          51.000  
R12  21703215.495   115934771.835        3714.330          43.000  
G24  22047983.188   115862864.886       -2903.467          47.000  
G25  21742870.878   114259535.934        2189.032          47.000  
G29  21603859.773   113529052.615        1178.230          49.000  
G20  24609946.172                1       2927.274          23.000  
R10  21312818.323   113609358.050       -3255.775          42.000  
R22  20575239.540   109831993.616        1332.991          47.000  
R11  19284453.822   103050243.028         416.816          47.000  
R21  20263146.623   108432175.045       -2101.007          48.000  
S20  37903092.334   199182083.593         102.202          40.000  
> 2017 11 15 18 42 10.4000000  0 14                     
G 2  20905700.782   109860165.665       -1935.260          49.000  
G 5  23806760.550   125105364.468        2189.563          48.000  
G 6  24177491.962                1      -3253.053          31.000  
G12  20679052.730   108669159.299         296.594          51.000  
R12  21703076.679   115934029.204        3712.880          43.000  
G24  22048093.718   115863445.538       -2903.824          47.000  
G25  21742787.466   114259098.319        2187.850          47.000  
G29  21603814.717   113528817.037        1177.730          48.000  
G20  24609835.066                1       2930.424          23.000  
R10  21312940.545   113610009.312       -3256.272          42.000  
R22  20575189.650   109831727.157        1332.189          47.000  
R11  19284438.134   103050159.763         416.037          47.000  
R21  20263225.062   108432595.387       -2101.834          48.000  
S20  37903088.356   199182063.075         102.235          40.000  
> 2017 11 15 18 42 10.6000000  0 14                     
G 2  20905774.300   109860552.672       -1935.437          49.000  
G 5  23806677.243   125104926.469        2189.789          48.000  
G 6  24177614.811                1      -3253.332          31.000  
G12  20679041.387   108669099.988         295.989          50.000  
R12  21702937.793   115933286.583        3712.877          44.000  
G24  22048204.073   115864026.200       -2903.674          47.000  
G25  21742704.071   114258660.696        2187.616          45.000  
G29  21603769.905   113528581.477        1177.660          49.000  
G20  24609725.653                1       2928.919          23.000  
R10  21313062.714   113610660.643       -3256.531          42.000  
R22  20575139.655   109831460.671        1332.236          47.000  
R11  19284422.464   103050076.526         416.058          47.000  
R21  20263303.623   108433015.768       -2102.138          47.000  
S20  37903084.429   199182042.659         102.005          41.000  
> 2017 11 15 18 42 10.8000000  0 14                     
G 2  20905848.115   109860939.695       -1934.845          50.000  
G 5  23806593.709   125104488.566        2189.624          47.000  
G 6  24177741.552                1      -3252.853          31.000  
G12  20679029.975   108669040.714         296.608          50.000  
R12  21702798.697   115932543.976        3713.052          44.000  
G24  22048314.533   115864606.962       -2904.159          47.000  
G25  21742620.624   114258223.108        2187.980          46.000  
G29  21603725.127   113528345.954        1177.637          49.000  
G20  24609612.140                1       2927.969          24.000  
R10  21313184.935   113611312.032       -3257.358          42.000  
R22  20575089.573   109831194.354        1331.512          47.000  
R11  19284406.863   103049993.384         415.555          47.000  
R21  20263382.184   108433436.162       -2101.606          47.000  
S20  37903080.608   199182022.235         102.067          40.000  
> 2017 11 15 18 42 11.0000000  0 14                     
G 2  20905921.859   109861326.780       -1935.468          49.000  
G 5  23806510.436   125104050.628        2189.270          47.000  
G 6  24177864.820   127055524.3983      -3253.202          32.000  
G12  20679018.824   108668981.463         296.357          51.000  
R12  21702659.741   115931801.400        3712.724          44.000  
G24  22048424.941   115865187.741       -2903.762          47.000  
G25  21742537.387   114257785.506        2188.046          47.000  
G29  21603680.333   113528110.486        1177.362          49.000  
G20  24609495.066                1       2926.960          24.000  
R10  21313307.052   113611963.443       -3257.162          41.000  
R22  20575039.788   109830927.985        1331.983          47.000  
R11  19284391.385   103049910.247         415.797          47.000  
R21  20263460.762   108433856.597       -2101.743          48.000  
S20  37903076.594   199182001.798         102.185          39.000  
> 2017 11 15 18 42 11.2000000  0 14                     
G 2  20905995.412   109861713.969       -1936.383          49.000  
G 5  23806427.356   125103612.742        2189.520          49.000  
G 6  24177986.867   127056175.1642      -3253.656          34.000  
G12  20679007.691   108668922.320         295.370          51.000  
R12  21702520.855   115931058.964        3711.534          44.000  
G24  22048535.209   115865768.526       -2904.236          47.000  
G25  21742454.306   114257348.060        2186.900          47.000  
G29  21603635.311   113527875.048        1177.361          48.000  
G20  24609383.088                1       2924.942          25.000  
R10  21313429.325   113612614.842       -3257.570          40.000  
R22  20574989.932   109830661.718        1331.293          47.000  
R11  19284375.889   103049827.251         414.859          47.000  
R21  20263539.445   108434277.142       -2103.182          48.000  
S20  37903072.563   199181981.468         101.253          40.000  
> 2017 11 15 18 42 11.4000000  0 14                     
G 2  20906069.069   109862101.225       -1936.401          50.000  
G 5  23806343.996   125103174.926        2189.099          49.000  
G 6  24178105.145   127056825.9982      -3253.404          31.000  
G12  20678996.488   108668863.222         295.163          51.000  
R12  21702381.811   115930316.561        3711.744          43.000  
G24  22048645.686   115866349.371       -2904.467          47.000  
G25  21742370.929   114256910.648        2186.545          47.000  
G29  21603590.621   113527639.723        1176.025          49.000  
G20  24609271.494                1       2925.501          30.000  
R10  21313551.616   113613266.284       -3257.511          40.000  
R22  20574940.025   109830395.524        1330.506          46.000  
R11  19284360.376   103049744.322         414.206          47.000  
R21  20263618.024   108434697.728       -2103.222          48.000  
S20  37903068.759   199181961.139         101.793          40.000  
> 2017 11 15 18 42 11.6000000  0 14                     
G 2  20906142.849   109862488.528       -1936.450          49.000  
G 5  23806260.532   125102737.183        2188.544          48.000  
G 6  24178230.420   127057476.9102      -3255.323          31.000  
G12  20678985.023   108668804.166         295.250          50.000  
R12  21702242.681   115929574.221        3711.894          43.000  
G24  22048756.250   115866930.271       -2904.843          47.000  
G25  21742287.691   114256473.251        2187.040          45.000  
G29  21603545.652   113527404.375        1176.802          47.000  
G20  24609158.661                1       2926.590          30.000  
R10  21313673.873   113613917.838       -3257.625          40.000  
R22  20574890.222   109830129.356        1330.692          48.000  
R11  19284344.862   103049661.432         414.328          47.000  
R21  20263696.689   108435118.356       -2103.158          48.000  
S20  37903064.850   199181940.854         101.552          40.000  
> 2017 11 15 18 42 11.8000000  0 14                     
G 2  20906216.489   109862875.898       -1936.774          48.000  
G 5  23806177.346   125102299.459        2188.422          47.000  
G 6  24178353.531   127058127.5812      -3253.159          30.000  
G12  20678973.907   108668745.155         295.148          50.000  
R12  21702103.602   115928831.881        3712.005          43.000  
G24  22048866.763   115867511.221       -2904.166          47.000  
G25  21742204.314   114256035.872        2186.891          46.000  
G29  21603501.136   113527169.082        1176.530          49.000  
G20  24609047.049                1       2927.453          30.000  
R10  21313796.199   113614569.470       -3258.071          41.000  
R22  20574840.332   109829863.244        1330.739          46.000  
R11  19284329.471   103049578.607         413.945          47.000  
R21  20263775.198   108435539.025       -2103.341          47.000  
S20  37903060.924   199181920.655         101.387          39.000  
> 2017 11 15 18 42 12.0000000  0 14                     
G 2  20906290.233   109863263.241       -1937.012          48.000  
G 5  23806094.057   125101861.735        2188.690          47.000  
G 6  24178477.463   127058778.6473      -3254.906          30.000  
G12  20678962.704   108668686.109         294.855          50.000  
R12  21701964.611   115928089.553        3711.514          44.000  
G24  22048977.292   115868092.241       -2905.297          46.000  
G25  21742121.181   114255598.462        2186.994          45.000  
G29  21603456.411   113526933.743        1176.167          48.000  
G20  24608934.914                1       2926.885          29.000  
R10  21313918.542   113615221.140       -3258.567          41.000  
R22  20574790.599   109829597.142        1329.992          48.000  
R11  19284314.045   103049495.789         413.920          47.000  
R21  20263853.689   108435959.658       -2103.226          47.000  
S20  37903057.067   199181900.462         100.473          39.000  
> 2017 11 15 18 42 12.2000000  0 14                     
G 2  20906364.030   109863650.683       -1937.329          48.000  
G 5  23806010.767   125101424.144        2188.422          45.000  
G 6  24178602.860   127059429.5453      -3254.407          29.000  
G12  20678951.205   108668627.181         295.333          49.000  
R12  21701825.900   115927347.231        3711.985          44.000  
G24  22049087.909   115868673.292       -2905.186          46.000  
G25  21742038.153   114255161.162        2186.840          45.000  
G29  21603411.634   113526698.536        1176.464          47.000  
G20  24608821.087                1       2926.109          29.000  
R10  21314040.798   113615872.916       -3258.319          41.000  
R22  20574740.708   109829331.131        1330.411          48.000  
R11  19284298.672   103049413.097         413.785          47.000  
R21  20263932.407   108436380.379       -2103.045          48.000  
S20  37903053.316   199181880.329         100.170          39.000  
> 2017 11 15 18 42 12.4000000  0 14                     
G 2  20906437.740   109864038.167       -1937.787          47.000  
G 5  23805927.669   125100986.464        2188.373          47.000  
G 6  24178727.053   127060080.4643      -3254.180          29.000  
G12  20678940.141   108668568.287         294.082          50.000  
R12  21701687.135   115926605.060        3710.652          44.000  
G24  22049198.561   115869254.337       -2904.977          46.000  
G25  21741954.916   114254723.898        2186.136          45.000  
G29  21603367.031   113526463.309        1176.002          49.000  
G20  24608710.051                1       2926.818          29.000  
R10  21314163.090   113616524.665       -3258.380          41.000  
R22  20574690.906   109829065.145        1329.827          47.000  
R11  19284283.298   103049330.415         412.814          47.000  
R21  20264011.072   108436801.142       -2104.140          48.000  
S20  37903049.494   199181860.140         100.759          39.000  
> 2017 11 15 18 42 12.6000000  0 14                     
G 2  20906511.467   109864425.667       -1937.341          47.000  
G 5  23805844.204   125100548.881        2187.659          46.000  
G 6  24178851.857   127060731.5373      -3255.329          29.000  
G12  20678929.025   108668509.360         294.233          48.000  
R12  21701548.214   115925862.842        3710.754          43.000  
G24  22049309.004   115869835.432       -2905.682          45.000  
G25  21741871.853   114254286.588        2186.148          46.000  
G29  21603322.394   113526228.117        1175.531          47.000  
G20  24608600.568                1       2927.699          28.000  
R10  21314285.224   113617176.438       -3259.600          41.000  
R22  20574640.893   109828799.181        1329.340          47.000  
R11  19284267.872   103049247.802         412.901          47.000  
R21  20264089.528   108437221.912       -2104.083          48.000  
S20  37903045.707   199181839.991         100.622          39.000  
> 2017 11 15 18 42 12.8000000  0 14                     
G 2  20906585.125   109864813.121       -1937.335          48.000  
G 5  23805760.984   125100111.159        2188.123          46.000  
G 6  24178978.127   127061382.3833      -3253.936          29.000  
G12  20678917.753   108668450.409         294.978          50.000  
R12  21701409.258   115925120.586        3711.291          43.000  
G24  22049419.516   115870416.455       -2904.919          46.000  
G25  21741788.825   114253849.267        2186.461          47.000  
G29  21603277.233   113525992.898        1176.170          47.000  
G20  24608490.614                1       2927.292          28.000  
R10  21314407.410   113617828.133       -3258.678          41.000  
R22  20574590.951   109828533.184        1329.979          47.000  
R11  19284252.411   103049165.119         413.177          47.000  
R21  20264168.107   108437642.638       -2103.633          47.000  
S20  37903041.973   199181819.725         101.348          39.000  
> 2017 11 15 18 42 13.0000000  0 14                     
G 2  20906659.183   109865200.673       -1938.403          49.000  
G 5  23805677.659   125099673.517        2187.817          47.000  
G 6  24179100.627   127062033.3923      -3254.856          29.000  
G12  20678906.532   108668391.513         294.161          50.000  
R12  21701270.354   115924378.404        3710.914          43.000  
G24  22049530.150   115870997.599       -2905.273          47.000  
G25  21741705.622   114253411.961        2186.464          47.000  
G29  21603232.595   113525757.691        1176.204          48.000  
G20  24608385.459                1       2928.198          28.000  
R10  21314529.701   113618479.991       -3259.576          43.000  
R22  20574540.938   109828267.289        1329.406          47.000  
R11  19284236.985   103049082.556         412.976          47.000  
R21  20264246.720   108438063.440       -2104.248          48.000  
S20  37903038.029   199181799.543         100.906          39.000  
> 2017 11 15 18 42 13.2000000  0 14                     
G 2  20906732.841   109865588.223       -1938.080          49.000  
G 5  23805594.596   125099235.928        2188.440          49.000  
G 6  24179227.543   127062684.5633      -3256.301          28.000  
G12  20678895.416   108668332.676         293.992          50.000  
R12  21701131.433   115923636.242        3710.946          43.000  
G24  22049640.627   115871578.750       -2905.598          47.000  
G25  21741622.489   114252974.710        2186.751          47.000  
G29  21603187.783   113525522.587        1175.115          48.000  
G20  24608277.495                1       2929.223          28.000  
R10  21314652.080   113619131.850       -3259.916          43.000  
R22  20574491.083   109828001.401        1329.449          47.000  
R11  19284221.489   103049000.037         412.495          46.000  
R21  20264325.490   108438484.269       -2104.200          48.000  
S20  37903034.225   199181779.402         100.532          40.000  
> 2017 11 15 18 42 13.4000000  0 14                     
G 2  20906806.690   109865975.773       -1937.396          48.000  
G 5  23805511.341   125098798.354        2188.574          49.000  
G 6  24179355.366   127063335.4933      -3254.299          28.000  
G12  20678884.213   108668273.770         294.808          50.000  
R12  21700992.495   115922894.049        3711.478          43.000  
G24  22049751.279   115872159.885       -2905.114          47.000  
G25  21741539.356   114252537.455        2186.770          47.000  
G29  21603142.866   113525287.367        1176.449          49.000  
G20  24608168.640                1       2929.818          28.000  
R10  21314774.510   113619783.686       -3259.056          43.000  
R22  20574441.367   109827735.524        1329.462          47.000  
R11  19284206.290   103048917.502         412.661          47.000  
R21  20264404.103   108438905.035       -2103.810          48.000  
S20  37903030.369   199181759.186         101.310          40.000  
> 2017 11 15 18 42 13.6000000  0 14                     
G 2  20906880.365   109866363.358       -1937.726          48.000  
G 5  23805427.894   125098360.703        2188.324          47.000  
G 6  24179482.368   127063986.4023      -3252.991          29.000  
G12  20678873.045   108668214.889         294.564          50.000  
R12  21700853.504   115922151.867        3711.033          43.000  
G24  22049861.879   115872741.002       -2905.625          47.000  
G25  21741455.997   114252100.155        2186.277          47.000  
G29  21603098.141   113525052.174        1175.994          48.000  
G20  24608055.336                1       2922.657          27.000  
R10  21314896.836   113620435.546       -3259.437          43.000  
R22  20574391.564   109827469.581        1329.569          47.000  
R11  19284190.690   103048834.994         412.612          47.000  
R21  20264482.787   108439325.804       -2103.608          47.000  
S20  37903026.530   199181738.926         101.865          40.000  
> 2017 11 15 18 42 13.8000000  0 15                     
G21  26235426.032                1       3921.000          24.000  
G 2  20906954.144   109866750.955       -1938.110          49.000  
G 5  23805344.535   125097923.060        2188.318          47.000  
G 6  24179607.975                1      -3254.400          29.000  
G12  20678861.929   108668156.033         294.102          50.000  
R12  21700714.617   115921409.722        3710.405          43.000  
G24  22049972.426   115873322.133       -2905.332          46.000  
G25  21741372.881   114251662.867        2186.670          46.000  
G29  21603053.521   113524817.037        1175.842          49.000  
G20  24607940.200                1       2925.565          27.000  
R10  21315019.162   113621087.391       -3259.230          41.000  
R22  20574341.779   109827203.746        1329.872          47.000  
R11  19284175.264   103048752.520         412.437          47.000  
R21  20264561.470   108439746.651       -2104.303          47.000  
S20  37903022.691   199181718.699         101.164          40.000  
> 2017 11 15 18 42 14.0000000  0 15                     
G21  26235275.105                1       3921.000          24.000  
G 2  20907028.046   109867138.547       -1937.891          49.000  
G 5  23805261.262   125097485.413        2188.220          47.000  
G 6  24179731.348                1      -3253.240          29.000  
G12  20678850.657   108668097.153         294.692          50.000  
R12  21700575.557   115920667.567        3710.451          43.000  
G24  22050083.008   115873903.228       -2905.398          46.000  
G25  21741289.539   114251225.605        2186.784          46.000  
G29  21603008.674   113524581.831        1175.857          48.000  
G20  24607824.505                1       2927.014          27.000  
R10  21315141.384   113621739.199       -3258.744          41.000  
R22  20574291.854   109826937.867        1329.005          46.000  
R11  19284159.890   103048670.062         412.341          47.000  
R21  20264640.083   108440167.455       -2103.904          47.000  
S20  37903018.817   199181698.399         101.370          40.000  
> 2017 11 15 18 42 14.2000000  0 14                     
G 2  20907101.756   109867526.239       -1938.629          48.000  
G 5  23805177.972   125097047.849        2187.463          46.000  
G 6  24179857.164                1      -3256.038          29.000  
G12  20678839.296   108668038.384         293.855          50.000  
R12  21700436.531   115919925.492        3710.186          43.000  
G24  22050193.642   115874484.424       -2906.339          46.000  
G25  21741206.127   114250788.393        2185.898          46.000  
G29  21602963.966   113524346.754        1175.554          48.000  
G20  24607711.008                1       2924.989          27.000  
R10  21315263.692   113622391.173       -3260.133          42.000  
R22  20574242.086   109826672.089        1329.265          48.000  
R11  19284144.517   103048587.715         411.497          47.000  
R21  20264718.713   108440588.333       -2104.580          47.000  
S20  37903014.978   199181678.201         100.552          39.000  
> 2017 11 15 18 42 14.4000000  0 14                     
G 2  20907175.483   109867913.957       -1938.623          48.000  
G 5  23805094.875   125096610.265        2188.074          47.000  
G 6  24179978.513                1      -3255.484          29.000  
G12  20678828.076   108667979.576         293.617          50.000  
R12  21700297.540   115919183.391        3710.243          43.000  
G24  22050304.277   115875065.623       -2906.179          46.000  
G25  21741122.959   114250351.156        2185.662          46.000  
G29  21602919.364   113524111.624        1174.945          49.000  
G20  24607598.105                1       2926.178          27.000  
R10  21315386.245   113623043.152       -3260.376          43.000  
R22  20574192.283   109826406.332        1327.889          46.000  
R11  19284129.073   103048505.362         411.464          47.000  
R21  20264797.396   108441009.218       -2104.657          48.000  
S20  37903011.051   199181658.018         100.595          39.000  
> 2017 11 15 18 42 14.6000000  0 14                     
G 2  20907249.385   109868301.684       -1938.531          49.000  
G 5  23805011.428   125096172.719        2188.696          46.000  
G 6  24180098.728   127067241.5233      -3254.212          30.000  
G12  20678817.082   108667920.829         294.076          50.000  
R12  21700158.619   115918441.328        3710.596          44.000  
G24  22050414.894   115875646.848       -2905.690          46.000  
G25  21741039.617   114249913.965        2185.896          45.000  
G29  21602874.586   113523876.509        1175.865          48.000  
G20  24607483.213                1       2926.247          28.000  
R10  21315508.554   113623695.139       -3260.070          41.000  
R22  20574142.358   109826140.532        1329.496          47.000  
R11  19284113.717   103048423.084         411.659          47.000  
R21  20264876.149   108441430.149       -2104.602          48.000  
S20  37903007.195   199181637.861         101.209          39.000  
> 2017 11 15 18 42 14.8000000  0 14                     
G 2  20907323.181   109868689.421       -1938.910          48.000  
G 5  23804928.260   125095735.209        2187.268          47.000  
G 6  24180218.000   127067892.5643      -3254.209          34.000  
G12  20678805.687   108667862.064         293.841          50.000  
R12  21700019.889   115917699.254        3710.753          44.000  
G24  22050525.563   115876228.080       -2906.624          47.000  
G25  21740956.362   114249476.727        2186.204          45.000  
G29  21602830.053   113523641.404        1175.579          49.000  
G20  24607369.403                1       2927.643          28.000  
R10  21315631.002   113624347.134       -3260.750          42.000  
R22  20574092.415   109825874.815        1328.187          47.000  
R11  19284098.273   103048340.775         411.448          47.000  
R21  20264954.763   108441851.037       -2104.645          48.000  
S20  37903003.286   199181617.676         100.221          39.000  
> 2017 11 15 18 42 15.0000000  0 14                     
G 2  20907396.909   109869077.228       -1939.392          48.000  
G 5  23804844.830   125095297.658        2187.396          46.000  
G 6  24180341.547   127068543.6522      -3255.421          36.000  
G12  20678794.554   108667803.350         293.251          51.000  
R12  21699881.212   115916957.270        3709.826          44.000  
G24  22050636.354   115876809.361       -2906.851          47.000  
G25  21740873.404   114249039.568        2185.140          47.000  
G29  21602785.328   113523406.348        1175.093          48.000  
G20  24607259.362                1       2926.637          29.000  
R10  21315753.258   113624999.167       -3260.796          42.000  
R22  20574042.682   109825609.107        1328.873          47.000  
R11  19284082.865   103048258.616         410.489          47.000  
R21  20265033.393   108442272.002       -2104.990          48.000  
S20  37902999.394   199181597.524         100.098          39.000  
> 2017 11 15 18 42 15.2000000  0 14                     
G 2  20907470.583   109869465.026       -1938.696          48.000  
G 5  23804761.610   125094860.158        2187.994          47.000  
G 6  24180465.234   127069194.7382      -3255.514          38.000  
G12  20678783.491   108667744.616         293.763          50.000  
R12  21699742.413   115916215.278        3709.841          43.000  
G24  22050746.901   115877390.681       -2906.867          47.000  
G25  21740790.375   114248602.364        2185.954          47.000  
G29  21602740.656   113523171.344        1174.922          48.000  
G20  24607143.841                1       2925.390          29.000  
R10  21315875.619   113625651.220       -3260.017          42.000  
R22  20573992.879   109825343.492        1327.744          47.000  
R11  19284067.474   103048176.406         410.878          47.000  
R21  20265112.041   108442692.965       -2105.124          48.000  
S20  37902995.555   199181577.386         100.981          39.000  
> 2017 11 15 18 42 15.4000000  0 14                     
G 2  20907544.363   109869852.875       -1939.130          49.000  
G 5  23804678.460   125094422.663        2187.463          46.000  
G 6  24180587.857   127069845.7812      -3255.442          38.000  
G12  20678772.410   108667685.950         293.422          50.000  
R12  21699603.579   115915473.272        3709.951          41.000  
G24  22050857.518   115877971.991       -2907.463          47.000  
G25  21740707.190   114248165.196        2185.812          45.000  
G29  21602695.931   113522936.297        1174.754          48.000  
G20  24607034.080                1       2927.233          29.000  
R10  21315997.928   113626303.317       -3260.044          41.000  
R22  20573943.373   109825077.815        1328.380          48.000  
R11  19284052.135   103048094.293         410.477          47.000  
R21  20265190.742   108443113.928       -2104.749          48.000  
S20  37902991.734   199181557.230         101.128          40.000  
> 2017 11 15 18 42 15.6000000  0 14                     
G 2  20907618.177   109870240.726       -1939.746          49.000  
G 5  23804595.188   125093985.145        2187.817          47.000  
G 6  24180711.771   127070496.8882      -3256.174          38.000  
G12  20678761.277   108667627.238         293.333          51.000  
R12  21699464.571   115914731.309        3709.703          41.000  
G24  22050968.100   115878553.272       -2906.866          46.000  
G25  21740623.726   114247728.060        2186.098          44.000  
G29  21602651.224   113522701.290        1174.849          48.000  
G20  24606920.461                1       2925.559          29.000  
R10  21316120.254   113626955.447       -3260.846          41.000  
R22  20573893.640   109824812.254        1327.635          47.000  
R11  19284036.727   103048012.163         410.100          47.000  
R21  20265269.512   108443534.911       -2105.270          48.000  
S20  37902987.982   199181537.097         100.456          39.000  
> 2017 11 15 18 42 15.8000000  0 14                     
G 2  20907691.992   109870628.618       -1939.728          49.000  
G 5  23804511.758   125093547.657        2186.719          45.000  
G 6  24180836.610   127071148.0202      -3256.715          38.000  
G12  20678750.126   108667568.559         293.161          50.000  
R12  21699325.807   115913989.359        3710.199          41.000  
G24  22051078.717   115879134.588       -2906.811          47.000  
G25  21740540.610   114247290.988        2185.111          46.000  
G29  21602606.359   113522466.274        1174.865          48.000  
G20  24606811.799   129309710.8823       2924.247          29.000  
R10  21316242.527   113627607.555       -3261.254          41.000  
R22  20573843.924   109824546.623        1327.901          47.000  
R11  19284021.405   103047930.092         410.374          47.000  
R21  20265348.143   108443955.897       -2104.929          48.000  
S20  37902984.126   199181516.972         100.691          40.000  
> 2017 11 15 18 42 16.0000000  0 14                     
G 2  20907765.789   109871016.549       -1939.569          49.000  
G 5  23804428.625   125093110.150        2187.415          46.000  
G 6  24180957.523   127071799.1502      -3256.280          37.000  
G12  20678738.993   108667509.977         293.215          49.000  
R12  21699186.886   115913247.466        3709.969          41.000  
G24  22051189.422   115879715.920       -2906.349          46.000  
G25  21740457.478   114246853.844        2185.295          46.000  
G29  21602561.617   113522231.288        1174.960          48.000  
G20  24606702.682                1       2932.539          29.000  
R10  21316364.836   113628259.700       -3260.421          41.000  
R22  20573794.069   109824281.085        1327.679          47.000  
R11  19284006.084   103047848.076         410.036          47.000  
R21  20265426.721   108444376.938       -2104.835          47.000  
S20  37902980.199   199181496.846         100.443          39.000  
> 2017 11 15 18 42 16.2000000  0 14                     
G 2  20907839.708   109871404.484       -1939.654          49.000  
G 5  23804345.405   125092672.691        2188.055          47.000  
G 6  24181078.627   127072450.2682      -3255.303          37.000  
G12  20678727.894   108667451.305         293.179          51.000  
R12  21699047.982   115912505.531        3709.585          42.000  
G24  22051299.969   115880297.271       -2906.307          46.000  
G25  21740374.205   114246416.678        2185.717          46.000  
G29  21602516.874   113521996.278        1175.183          48.000  
G20  24606592.519                1       2924.032          29.000  
R10  21316487.214   113628911.884       -3260.703          41.000  
R22  20573744.214   109824015.514        1327.707          47.000  
R11  19283990.832   103047766.040         409.828          47.000  
R21  20265505.526   108444797.952       -2104.980          47.000  
S20  37902976.465   199181476.705         100.766          40.000  
> 2017 11 15 18 42 16.4000000  0 14                     
G 2  20907913.557   109871792.422       -1939.606          49.000  
G 5  23804262.185   125092235.294        2187.329          47.000  
G 6  24181208.631   127073101.4172      -3255.879          39.000  
G12  20678716.656   108667392.670         293.213          50.000  
R12  21698909.131   115911763.584        3709.851          42.000  
G24  22051410.760   115880878.660       -2906.621          46.000  
G25  21740291.003   114245979.525        2185.865          46.000  
G29  21602472.289   113521761.293        1175.103          49.000  
G20  24606481.641                1       2925.952          29.000  
R10  21316609.523   113629564.133       -3261.285          42.000  
R22  20573694.481   109823749.995        1327.519          47.000  
R11  19283975.616   103047684.070         410.339          47.000  
R21  20265584.174   108445218.986       -2104.614          48.000  
S20  37902972.591   199181456.613         100.728          40.000  
> 2017 11 15 18 42 16.6000000  0 14                     
G 2  20907987.215   109872180.380       -1939.697          48.000  
G 5  23804179.157   125091797.793        2187.830          49.000  
G 6  24181328.148   127073752.4982      -3255.339          41.000  
G12  20678705.523   108667334.059         293.364          51.000  
R12  21698770.314   115911021.668        3709.800          42.000  
G24  22051521.429   115881460.001       -2906.165          48.000  
G25  21740207.957   114245542.404        2185.837          47.000  
G29  21602427.721   113521526.277        1175.405          49.000  
G20  24606371.076                1       2928.780          33.000  
R10  21316732.006   113630216.287       -3260.748          43.000  
R22  20573644.905   109823484.391        1328.422          47.000  
R11  19283960.399   103047602.095         409.806          48.000  
R21  20265662.840   108445640.020       -2104.730          48.000  
S20  37902968.839   199181436.354         100.538          40.000  
> 2017 11 15 18 42 16.8000000  0 14                     
G 2  20908061.099   109872568.360       -1939.691          48.000  
G 5  23804095.675   125091360.336        2186.896          45.000  
G 6  24181455.552   127074403.5862      -3255.081          41.000  
G12  20678694.337   108667275.385         293.476          50.000  
R12  21698631.445   115910279.740        3709.650          42.000  
G24  22051632.134   115882041.339       -2906.365          46.000  
G25  21740124.597   114245105.208        2186.567          45.000  
G29  21602383.153   113521291.253        1175.060          48.000  
G20  24606257.667                1       2928.192          30.000  
R10  21316854.402   113630868.454       -3260.108          43.000  
R22  20573595.102   109823218.883        1327.034          46.000  
R11  19283945.183   103047520.104         409.936          46.000  
R21  20265741.575   108446061.015       -2104.998          48.000  
S20  37902964.983   199181416.177         101.787          40.000  
> 2017 11 15 18 42 17.0000000  0 14                     
G 2  20908135.123   109872956.272       -1939.844          49.000  
G 5  23804012.193   125090922.764        2187.219          46.000  
G 6  24181577.895   127075054.6162      -3255.128          41.000  
G12  20678683.117   108667216.715         293.470          50.000  
R12  21698492.454   115909537.766        3709.928          41.000  
G24  22051742.559   115882622.701       -2906.750          46.000  
G25  21740041.412   114244668.017        2186.277          46.000  
G29  21602338.620   113521056.241        1175.071          48.000  
G20  24606143.892                1       2928.369          30.000  
R10  21316976.745   113631520.675       -3260.621          41.000  
R22  20573545.281   109822953.309        1328.128          47.000  
R11  19283929.949   103047438.166         409.767          48.000  
R21  20265820.101   108446481.957       -2104.582          48.000  
S20  37902961.248   199181396.009         101.010          40.000  
> 2017 11 15 18 42 17.2000000  0 14                     
G 2  20908208.850   109873344.198       -1940.137          48.000  
G 5  23803928.816   125090485.186        2187.561          45.000  
G 6  24181699.855   127075705.6832      -3255.830          41.000  
G12  20678672.158   108667158.037         293.167          50.000  
R12  21698353.620   115908795.814        3709.042          41.000  
G24  22051853.071   115883203.996       -2906.395          46.000  
G25  21739958.384   114244230.842        2185.576          46.000  
G29  21602293.965   113520821.157        1175.104          49.000  
G20  24606032.088   129305591.1463       2927.897          30.000  
R10  21317099.211   113632172.820       -3260.860          41.000  
R22  20573495.548   109822687.771        1327.427          47.000  
R11  19283914.453   103047356.182         409.348          47.000  
R21  20265898.715   108446902.962       -2105.153          47.000  
S20  37902957.305   199181375.722         101.415          40.000  
> 2017 11 15 18 42 17.4000000  0 14                     
G 2  20908282.717   109873732.183       -1939.929          47.000  
G 5  23803845.683   125090047.568        2188.934          47.000  
G 6  24181823.769   127076356.7462      -3255.125          41.000  
G12  20678660.920   108667099.365         293.290          50.000  
R12  21698214.891   115908053.882        3709.785          41.000  
G24  22051963.740   115883785.263       -2906.106          46.000  
G25  21739875.286   114243793.658        2185.554          46.000  
G29  21602249.345   113520586.110        1175.535          48.000  
G20  24605918.243   129305005.5383       2928.822          31.000  
R10  21317221.450   113632824.925       -3260.685          42.000  
R22  20573445.623   109822422.194        1328.015          47.000  
R11  19283899.027   103047274.254         410.002          47.000  
R21  20265977.502   108447324.006       -2105.886          48.000  
S20  37902953.308   199181355.449         100.863          39.000  
> 2017 11 15 18 42 17.6000000  0 14                     
G 2  20908356.409   109874120.126       -1939.612          47.000  
G 5  23803762.411   125089609.922        2188.593          46.000  
G 6  24181947.299   127077007.8322      -3255.292          41.000  
G12  20678649.543   108667040.649         293.776          49.000  
R12  21698075.987   115907311.967        3709.703          41.000  
G24  22052074.113   115884366.426       -2905.324          46.000  
G25  21739792.101   114243356.432        2185.624          46.000  
G29  21602204.446   113520350.997        1175.490          47.000  
G20  24605809.685   129304419.8653       2929.677          31.000  
R10  21317343.793   113633476.934       -3259.314          43.000  
R22  20573395.838   109822156.597        1328.335          47.000  
R11  19283883.636   103047192.270         409.724          47.000  
R21  20266056.150   108447744.924       -2105.105          48.000  
S20  37902949.557   199181334.977         102.706          41.000  
> 2017 11 15 18 42 17.8000000  0 14                     
G 2  20908430.345   109874508.067       -1940.076          48.000  
G 5  23803679.348   125089172.112        2188.763          47.000  
G 6  24182071.736   127077658.9322      -3256.545          41.000  
G12  20678638.514   108666981.902         293.602          50.000  
R12  21697937.136   115906570.092        3709.113          41.000  
G24  22052184.852   115884947.432       -2905.164          46.000  
G25  21739708.724   114242919.207        2186.444          45.000  
G29  21602159.616   113520115.897        1175.811          47.000  
G20  24605697.951   129303834.0583       2930.455          31.000  
R10  21317466.206   113634128.867       -3259.868          43.000  
R22  20573346.000   109821890.918        1328.535          46.000  
R11  19283868.384   103047110.291         409.868          47.000  
R21  20266134.694   108448165.920       -2104.488          48.000  
S20  37902945.665   199181314.497         102.592          39.000  
> 2017 11 15 18 42 18.0000000  0 14                     
G 2  20908504.404   109874896.012       -1939.789          48.000  
G 5  23803596.058   125088734.339        2188.983          47.000  
G 6  24182195.563   127078309.9582      -3254.878          39.000  
G12  20678627.590   108666923.173         293.640          50.000  
R12  21697798.250   115905828.147        3709.427          41.000  
G24  22052295.399   115885528.443       -2904.649          46.000  
G25  21739625.451   114242481.985        2186.035          45.000  
G29  21602114.629   113519880.740        1175.661          48.000  
G20  24605586.340   129303248.1452       2929.159          31.000  
R10  21317588.620   113634780.767       -3259.167          43.000  
R22  20573296.144   109821625.221        1328.380          46.000  
R11  19283852.906   103047028.280         410.007          47.000  
R21  20266213.447   108448586.917       -2105.379          48.000  
S20  37902941.704   199181293.960         103.163          39.000  
> 2017 11 15 18 42 18.2000000  0 14                     
G 2  20908578.166   109875284.018       -1940.149          48.000  
G 5  23803512.698   125088296.495        2189.490          47.000  
G 6  24182320.960   127078960.6591      -3256.187          41.000  
G12  20678616.248   108666864.490         293.383          50.000  
R12  21697659.276   115905086.350        3709.168          40.000  
G24  22052405.859   115886109.419       -2904.809          46.000  
G25  21739542.353   114242044.837        2185.797          45.000  
G29  21602069.939   113519645.606        1175.445          49.000  
G20  24605476.176   129302662.0982       2931.941          31.000  
R10  21317710.841   113635432.652       -3259.433          42.000  
R22  20573246.534   109821359.550        1328.400          46.000  
R11  19283837.742   103046946.344         409.668          47.000  
R21  20266292.147   108449007.977       -2105.285          48.000  
S20  37902937.795   199181273.420         102.460          39.000  
> 2017 11 15 18 42 18.4000000  0 14                     
G 2  20908652.103   109875672.049       -1940.082          48.000  
G 5  23803429.269   125087858.635        2189.661          46.000  
G 6  24182442.868   127079611.860       -3255.684          41.000  
G12  20678605.027   108666805.782         293.548          50.000  
R12  21697520.599   115904344.562        3709.118          40.000  
G24  22052516.441   115886690.291       -2904.279          46.000  
G25  21739459.098   114241607.641        2186.028          45.000  
G29  21602025.389   113519410.463        1175.757          49.000  
G20  24605361.127   129302076.0852       2929.236          31.000  
R10  21317833.062   113636084.481       -3259.177          42.000  
R22  20573196.835   109821093.876        1328.443          46.000  
R11  19283822.647   103046864.413         409.698          47.000  
R21  20266370.813   108449429.051       -2105.328          48.000  
S20  37902933.782   199181252.819         102.854          39.000  
> 2017 11 15 18 42 18.6000000  0 14                     
G 2  20908726.022   109876060.132       -1940.802          48.000  
G 5  23803345.839   125087420.766        2189.124          46.000  
G 6  24182568.178   127080263.060       -3256.305          41.000  
G12  20678594.086   108666747.129         293.026          50.000  
R12  21697381.696   115903602.796        3708.330          40.000  
G24  22052627.197   115887271.189       -2904.495          46.000  
G25  21739376.105   114241170.507        2185.785          46.000  
G29  21601980.716   113519175.366        1175.260          48.000  
G20  24605244.525   129301490.0682       2929.906          31.000  
R10  21317955.336   113636736.293       -3258.886          43.000  
R22  20573146.945   109820828.236        1327.988          46.000  
R11  19283807.239   103046782.525         409.166          46.000  
R21  20266449.583   108449850.170       -2105.960          48.000  
S20  37902929.838   199181232.200         103.439          39.000  
> 2017 11 15 18 42 18.8000000  0 14                     
G 2  20908799.906   109876448.297       -1941.125          48.000  
G 5  23803262.357   125086982.877        2189.117          46.000  
G 6  24182693.592   127080914.382       -3256.950          41.000  
G12  20678582.935   108666688.536         292.635          50.000  
R12  21697242.827   115902861.142        3708.037          40.000  
G24  22052737.675   115887852.067       -2904.508          46.000  
G25  21739293.147   114240733.490        2185.094          46.000  
G29  21601935.939   113518940.304        1174.793          48.000  
G20  24605135.827   129300903.8342       2931.726          30.000  
R10  21318077.679   113637388.120       -3259.437          43.000  
R22  20573097.038   109820562.630        1327.662          46.000  
R11  19283791.813   103046700.697         408.709          46.000  
R21  20266528.127   108450271.375       -2106.450          48.000  
S20  37902926.086   199181211.630         102.690          39.000  
> 2017 11 15 18 42 19.0000000  0 14                     
G 2  20908873.738   109876836.486       -1940.967          48.000  
G 5  23803178.910   125086544.979        2189.600          46.000  
G 6  24182816.372   127081565.726       -3256.692          41.000  
G12  20678571.732   108666629.941         293.104          50.000  
R12  21697104.063   115902119.502        3708.251          40.000  
G24  22052848.169   115888432.933       -2904.390          46.000  
G25  21739210.084   114240296.457        2185.203          46.000  
G29  21601891.075   113518705.231        1175.271          47.000  
G20  24605025.385   129300317.6362       2931.179          31.000  
R10  21318199.918   113638039.938       -3259.399          43.000  
R22  20573047.217   109820297.019        1328.038          46.000  
R11  19283776.299   103046618.888         408.956          46.000  
R21  20266606.705   108450692.600       -2105.998          48.000  
S20  37902922.230   199181191.020         102.994          40.000  
> 2017 11 15 18 42 19.2000000  0 15                     
G 2  20908947.483   109877224.674       -1940.649          48.000  
G 5  23803095.586   125086106.965        2190.637          46.000  
G 6  24182940.495   127082217.101       -3256.808          41.000  
G12  20678560.704   108666571.344         293.128          50.000  
R12  21696965.333   115901377.932        3708.049          40.000  
G24  22052958.769   115889013.688       -2903.567          46.000  
G25  21739127.108   114239859.476        2184.723          46.000  
G29  21601846.210   113518470.203        1174.915          47.000  
G20  24604913.232   129299731.2772       2932.108          31.000  
R23  24689008.471                1       3306.825          25.000  
R10  21318322.174   113638691.610       -3257.907          42.000  
R22  20572997.501   109820031.428        1327.682          46.000  
R11  19283760.804   103046537.090         409.025          46.000  
R21  20266685.423   108451113.880       -2106.403          48.000  
S20  37902918.338   199181170.292         104.054          40.000  
> 2017 11 15 18 42 19.4000000  0 16                     
G21  26231245.954                1       3929.428          24.000  
G 2  20909021.140   109877612.900       -1940.906          47.000  
G 5  23803012.226   125085669.037        2190.533          46.000  
G 6  24183064.340   127082868.437       -3256.654          41.000  
G12  20678549.605   108666512.770         293.093          50.000  
R12  21696826.499   115900636.353        3707.748          40.000  
G24  22053069.368   115889594.563       -2903.832          46.000  
G25  21739043.940   114239422.464        2185.043          46.000  
G29  21601801.398   113518235.163        1175.290          47.000  
G20  24604804.587   129299145.0402       2931.601          31.000  
R23  24688885.866                1       3303.968          25.000  
R10  21318444.466   113639343.444       -3258.415          41.000  
R22  20572947.699   109819765.849        1328.194          47.000  
R11  19283745.325   103046455.332         409.036          45.000  
R21  20266764.001   108451535.133       -2106.184          48.000  
S20  37902914.464   199181149.634         104.041          40.000  
> 2017 11 15 18 42 19.6000000  0 16                     
G21  26231097.715                1       3926.222          24.000  
G 2  20909094.885   109878001.163       -1940.997          47.000  
G 5  23802929.076   125085231.105        2190.192          46.000  
G 6  24183188.166   127083519.819       -3256.498          41.000  
G12  20678538.263   108666454.229         292.984          50.000  
R12  21696687.875   115899894.806        3707.892          39.000  
G24  22053179.863   115890175.424       -2904.330          46.000  
G25  21738960.947   114238985.509        2184.658          46.000  
G29  21601756.481   113518000.175        1175.006          47.000  
G20  24604694.703   129298558.7872       2930.612          31.000  
R23  24688763.767                1       3304.265          25.000  
R10  21318566.757   113639995.273       -3259.106          41.000  
R22  20572898.070   109819500.327        1327.915          47.000  
R11  19283729.795   103046373.636         408.681          46.000  
R21  20266842.771   108451956.451       -2106.218          48.000  
S20  37902910.538   199181128.992         103.401          40.000  
> 2017 11 15 18 42 19.8000000  0 16                     
G21  26230950.365                1       3924.956          24.000  
G 2  20909168.682   109878389.410       -1941.156          47.000  
G 5  23802845.908   125084793.151        2190.118          46.000  
G 6  24183313.407   127084171.171       -3256.634          41.000  
G12  20678527.182   108666395.672         292.902          50.000  
R12  21696549.181   115899153.259        3707.765          39.000  
G24  22053290.567   115890756.246       -2903.844          46.000  
G25  21738877.779   114238548.508        2184.738          46.000  
G29  21601711.582   113517765.157        1175.170          47.000  
G20  24604583.982   129297972.3982       2932.234          31.000  
R23  24688641.284                1       3304.187          25.000  
R10  21318689.100   113640647.072       -3259.040          41.000  
R22  20572848.442   109819234.794        1327.901          48.000  
R11  19283714.264   103046291.929         408.677          46.000  
R21  20266921.454   108452377.750       -2106.402          48.000  
S20  37902906.455   199181108.276         103.399          39.000  
> 2017 11 15 18 42 20.0000000  0 16                     
G21  26230802.736                1       3927.814          24.000  
G 2  20909242.409   109878777.691       -1941.504          47.000  
G 5  23802762.705   125084355.222        2189.838          47.000  
G 6  24183436.954   127084822.514       -3256.749          41.000  
G12  20678516.310   108666337.141         292.539          50.000  
R12  21696410.521   115898411.726        3707.427          39.000  
G24  22053401.132   115891337.128       -2904.366          46.000  
G25  21738794.699   114238111.517        2184.763          46.000  
G29  21601666.787   113517530.164        1174.754          47.000  
G20  24604467.833   129297386.1032       2932.128          31.000  
R23  24688517.858                1       3303.685          25.000  
R10  21318811.356   113641298.912       -3259.220          41.000  
R22  20572798.831   109818969.296        1327.372          48.000  
R11  19283698.716   103046210.284         408.088          46.000  
R21  20267000.137   108452799.061       -2106.619          48.000  
S20  37902902.441   199181087.580         103.197          39.000  
> 2017 11 15 18 42 20.2000000  0 16                     
G21  26230653.886                1       3928.014          24.000  
G 2  20909316.153   109879165.987       -1941.504          47.000  
G 5  23802679.625   125083917.274        2190.088          47.000  
G 6  24183561.043   127085473.890       -3256.729          41.000  
G12  20678505.212   108666278.597         292.719          50.000  
R12  21696271.949   115897670.202        3707.632          39.000  
G24  22053511.662   115891917.983       -2904.177          46.000  
G25  21738711.583   114237674.544        2184.795          46.000  
G29  21601622.167   113517295.161        1175.064          47.000  
G20  24604355.558   129296799.7862       2930.684          31.000  
R23  24688393.630                1       3302.720          25.000  
R10  21318933.735   113641950.731       -3259.095          41.000  
R22  20572749.150   109818703.799        1327.446          48.000  
R11  19283683.429   103046128.630         408.343          46.000  
R21  20267078.890   108453220.378       -2106.530          47.000  
S20  37902898.462   199181066.844         104.016          39.000  
> 2017 11 15 18 42 20.4000000  0 15                     
G21  26230505.594                1       3934.551          24.000  
G 2  20909389.950   109879554.340       -1942.139          47.000  
G 5  23802596.597   125083479.368        2189.508          46.000  
G 6  24183684.852   127086125.284       -3257.148          41.000  
G12  20678494.079   108666220.110         292.209          50.000  
R12  21696133.167   115896928.728        3707.143          39.000  
G24  22053622.296   115892498.882       -2904.562          46.000  
G25  21738628.416   114237237.596        2184.447          46.000  
G29  21601577.407   113517060.213        1174.664          47.000  
G20  24604241.905   129296213.4342       2931.092          30.000  
R10  21319056.061   113642602.633       -3259.916          41.000  
R22  20572699.487   109818438.356        1327.098          48.000  
R11  19283668.143   103046047.075         407.488          46.000  
R21  20267157.538   108453641.751       -2107.110          47.000  
S20  37902894.379   199181046.169         103.556          39.000  
> 2017 11 15 18 42 20.6000000  0 15                     
G21  26230358.768                1       3928.185          24.000  
G 2  20909463.782   109879942.731       -1941.711          46.000  
G 5  23802513.551   125083041.464        2190.100          46.000  
G 6  24183808.557   127086776.723       -3256.923          39.000  
G12  20678483.120   108666161.641         292.586          49.000  
R12  21695994.595   115896187.281        3707.638          38.000  
G24  22053733.000   115893079.795       -2904.333          45.000  
G25  21738545.230   114236800.674        2184.528          46.000  
G29  21601532.647   113516825.258        1175.026          47.000  
G20  24604130.782   129295627.0292       2932.458          30.000  
R10  21319178.335   113643254.535       -3259.061          41.000  
R22  20572649.858   109818172.929        1327.351          48.000  
R11  19283652.804   103045965.537         407.711          46.000  
R21  20267236.221   108454063.139       -2106.779          47.000  
S20  37902890.488   199181025.480         103.891          39.000  
> 2017 11 15 18 42 20.8000000  0 15                     
G21  26230211.889                1       3924.567          24.000  
G 2  20909537.736   109880331.155       -1942.139          46.000  
G 5  23802430.418   125082603.607        2189.520          46.000  
G 6  24183932.383   127087428.152       -3257.127          39.000  
G12  20678472.022   108666103.194         292.446          49.000  
R12  21695855.936   115895445.860        3707.263          38.000  
G24  22053843.687   115893660.741       -2904.896          44.000  
G25  21738462.063   114236363.755        2184.718          45.000  
G29  21601487.957   113516590.349        1174.667          47.000  
G20  24604020.113   129295040.7452       2932.087          30.000  
R10  21319300.695   113643906.493       -3259.605          41.000  
R22  20572600.038   109817907.549        1326.996          48.000  
R11  19283637.396   103045884.051         407.474          46.000  
R21  20267314.904   108454484.548       -2106.901          47.000  
S20  37902886.474   199181004.785         103.813          39.000  
> 2017 11 15 18 42 21.0000000  0 15                     
G21  26230063.563                1       3925.296          24.000  
G 2  20909611.516   109880719.634       -1942.377          46.000  
G 5  23802347.338   125082165.775        2189.374          46.000  
G 6  24184055.948   127088079.651       -3257.652          39.000  
G12  20678461.028   108666044.808         291.949          49.000  
R12  21695717.329   115894704.503        3706.778          38.000  
G24  22053954.426   115894241.711       -2904.724          44.000  
G25  21738378.860   114235926.879        2184.419          45.000  
G29  21601443.145   113516355.474        1174.356          47.000  
G20  24603907.733   129294454.4632       2931.506          29.000  
R10  21319423.021   113644558.493       -3260.033          41.000  
R22  20572550.270   109817642.222        1326.660          48.000  
R11  19283621.987   103045802.635         406.968          46.000  
R21  20267393.692   108454906.020       -2107.312          47.000  
S20  37902882.495   199180984.137         103.435          39.000  
> 2017 11 15 18 42 21.2000000  0 15                     
G21  26229916.562                1       3923.093          24.000  
G 2  20909685.365   109881108.149       -1942.432          45.000  
G 5  23802264.100   125081727.972        2188.916          46.000  
G 6  24184180.142   127088731.177       -3258.019          39.000  
G12  20678449.912   108665986.427         291.894          49.000  
R12  21695578.617   115893963.142        3706.633          38.000  
G24  22054065.008   115894822.715       -2905.023          44.000  
G25  21738295.780   114235489.998        2184.603          45.000  
G29  21601398.403   113516120.590        1174.464          47.000  
G20  24603797.832   129293868.2192       2930.830          29.000  
R10  21319545.313   113645210.533       -3260.299          41.000  
R22  20572500.397   109817376.894        1326.678          48.000  
R11  19283606.718   103045721.239         407.050          46.000  
R21  20267472.323   108455327.478       -2107.247          47.000  
S20  37902878.587   199180963.527         103.041          39.000  
> 2017 11 15 18 42 21.4000000  0 15                     
G21  26229769.125                1       3928.375          24.000  
G 2  20909759.162   109881496.701       -1942.859          45.000  
G 5  23802180.810   125081290.174        2188.702          46.000  
G 6  24184303.427   127089382.673       -3257.515          39.000  
G12  20678438.954   108665928.064         291.784          50.000  
R12  21695439.870   115893221.777        3706.801          38.000  
G24  22054175.590   115895403.715       -2904.971          44.000  
G25  21738212.751   114235053.122        2184.693          45.000  
G29  21601353.713   113515885.700        1174.340          47.000  
G20  24603683.777   129293281.8512       2932.038          29.000  
R10  21319667.674   113645862.603       -3260.706          41.000  
R22  20572450.647   109817111.581        1326.574          48.000  
R11  19283591.414   103045639.878         406.743          46.000  
R21  20267551.058   108455748.959       -2107.347          47.000  
S20  37902874.678   199180942.889         103.421          39.000  
> 2017 11 15 18 42 21.6000000  0 15                     
G21  26229620.222                1       3922.933          24.000  
G 2  20909833.151   109881885.254       -1942.938          45.000  
G 5  23802097.625   125080852.371        2188.782          46.000  
G 6  24184426.975   127090034.214       -3257.692          38.000  
G12  20678427.873   108665869.702         291.716          50.000  
R12  21695301.228   115892480.441        3706.543          38.000  
G24  22054286.259   115895984.726       -2905.238          44.000  
G25  21738129.636   114234616.254        2184.583          45.000  
G29  21601308.866   113515650.831        1174.061          47.000  
G20  24603570.874   129292695.5502       2931.583          28.000  
R10  21319790.069   113646514.661       -3260.697          41.000  
R22  20572400.966   109816846.292        1326.311          48.000  
R11  19283576.233   103045558.546         406.581          46.000  
R21  20267629.794   108456170.437       -2107.523          47.000  
S20  37902870.717   199180922.276         102.930          39.000  
> 2017 11 15 18 42 21.8000000  0 15                     
G21  26229472.000                1       3926.613          24.000  
G 2  20909907.070   109882273.831       -1942.957          45.000  
G 5  23802014.457   125080414.575        2188.751          46.000  
G 6  24184550.906   127090685.746       -3257.799          38.000  
G12  20678416.687   108665811.351         291.717          50.000  
R12  21695162.551   115891739.083        3706.686          38.000  
G24  22054396.841   115896565.723       -2905.151          44.000  
G25  21738046.503   114234179.384        2184.574          45.000  
G29  21601264.123   113515415.944        1174.186          47.000  
G20  24603458.338   129292109.2192       2931.182          28.000  
R10  21319912.326   113647166.728       -3260.283          41.000  
R22  20572351.076   109816581.001        1326.212          48.000  
R11  19283561.016   103045477.239         406.479          46.000  
R21  20267708.459   108456591.923       -2107.547          47.000  
S20  37902866.773   199180901.613         103.236          39.000  
> 2017 11 15 18 42 22.0000000  0 15                     
G21  26229324.197                1       3927.336          25.000  
G 2  20909981.042   109882662.446       -1942.792          45.000  
G 5  23801931.290   125079976.800        2189.178          46.000  
G 6  24184674.750   127091337.306       -3257.486          38.000  
G12  20678405.833   108665753.029         291.928          50.000  
R12  21695023.822   115890997.780        3706.787          38.000  
G24  22054507.423   115897146.760       -2904.785          44.000  
G25  21737963.353   114233742.542        2184.704          45.000  
G29  21601219.328   113515181.088        1174.622          47.000  
G20  24603346.081   129291522.9072       2931.505          28.000  
R10  21320034.669   113647818.856       -3260.392          41.000  
R22  20572301.290   109816315.754        1326.523          48.000  
R11  19283545.782   103045395.973         406.729          46.000  
R21  20267787.142   108457013.432       -2107.238          47.000  
S20  37902863.038   199180880.997         103.720          40.000  
> 2017 11 15 18 42 22.2000000  0 15                     
G21  26229175.416                1       3930.507          25.000  
G 2  20910054.856   109883051.094       -1943.225          45.000  
G 5  23801847.965   125079539.050        2188.593          46.000  
G 6  24184798.752   127091988.895       -3258.112          38.000  
G12  20678394.770   108665694.733         291.473          50.000  
R12  21694885.058   115890256.488        3706.261          38.000  
G24  22054617.971   115897727.821       -2905.195          43.000  
G25  21737880.168   114233305.731        2184.296          45.000  
G29  21601174.534   113514946.265        1174.205          47.000  
G20  24603238.169   129290936.5482       2931.626          28.000  
R10  21320157.013   113648470.990       -3260.681          41.000  
R22  20572251.540   109816050.545        1326.155          47.000  
R11  19283530.531   103045314.759         406.158          47.000  
R21  20267865.895   108457434.962       -2107.579          47.000  
S20  37902859.025   199180860.392         103.002          40.000  
> 2017 11 15 18 42 22.4000000  0 15                     
G21  26229027.037                1       3928.692          25.000  
G 2  20910128.705   109883439.802       -1943.524          45.000  
G 5  23801764.710   125079101.335        2188.287          46.000  
G 6  24184922.823   127092640.503       -3257.977          37.000  
G12  20678383.689   108665636.485         291.217          50.000  
R12  21694746.207   115889515.248        3706.100          38.000  
G24  22054728.587   115898308.934       -2905.595          43.000  
G25  21737796.983   114232868.950        2183.975          45.000  
G29  21601129.844   113514711.487        1173.914          47.000  
G20  24603124.952   129290350.2632       2931.296          28.000  
R10  21320279.373   113649123.203       -3260.898          41.000  
R22  20572201.562   109815785.389        1325.770          47.000  
R11  19283515.419   103045233.620         405.708          47.000  
R21  20267944.386   108457856.549       -2107.871          47.000  
S20  37902855.151   199180839.829         102.783          40.000  
> 2017 11 15 18 42 22.6000000  0 15                     
G21  26228878.815                1       3926.655          25.000  
G 2  20910202.642   109883828.507       -1943.732          45.000  
G 5  23801681.455   125078663.590        2188.843          46.000  
G 6  24185046.807   127093292.099       -3258.010          37.000  
G12  20678372.730   108665578.216         291.363          50.000  
R12  21694607.460   115888773.986        3706.052          38.000  
G24  22054839.222   115898890.007       -2905.342          43.000  
G25  21737713.797   114232432.143        2183.849          45.000  
G29  21601085.101   113514476.677        1174.041          47.000  
G20  24603013.410   129289763.9272       2931.764          28.000  
R10  21320401.630   113649775.392       -3260.948          41.000  
R22  20572151.794   109815520.220        1325.774          47.000  
R11  19283500.359   103045152.473         405.701          47.000  
R21  20268023.104   108458278.110       -2107.883          47.000  
S20  37902851.294   199180819.195         103.386          40.000  
> 2017 11 15 18 42 22.8000000  0 15                     
G21  26228730.907                1       3928.310          26.000  
G 2  20910276.561   109884217.233       -1943.689          45.000  
G 5  23801598.113   125078225.869        2188.806          46.000  
G 6  24185170.755   127093943.713       -3257.998          37.000  
G12  20678361.649   108665519.984         291.278          50.000  
R12  21694468.818   115888032.783        3705.571          38.000  
G24  22054949.839   115899471.127       -2905.595          44.000  
G25  21737630.647   114231995.369        2183.803          46.000  
G29  21601040.499   113514241.902        1173.990          48.000  
G20  24602902.444   129289177.5832       2931.948          28.000  
R10  21320523.921   113650427.614       -3261.081          41.000  
R22  20572101.974   109815255.091        1325.609          46.000  
R11  19283485.317   103045071.383         405.492          47.000  
R21  20268101.717   108458699.705       -2108.036          47.000  
S20  37902847.438   199180798.608         103.287          40.000  
> 2017 11 15 18 42 23.0000000  0 15                     
G21  26228580.783                1       3927.485          26.000  
G 2  20910350.375   109884605.957       -1943.896          45.000  
G 5  23801514.823   125077788.120        2188.715          46.000  
G 6  24185294.827   127094595.305       -3258.048          37.000  
G12  20678350.429   108665461.750         290.932          50.000  
R12  21694330.071   115887291.588        3705.394          38.000  
G24  22055060.368   115900052.291       -2906.024          44.000  
G25  21737547.322   114231558.632        2183.213          46.000  
G29  21600995.809   113514007.197        1173.329          48.000  
G20  24602792.019   129288591.2382       2931.633          28.000  
R10  21320646.421   113651079.853       -3261.409          41.000  
R22  20572051.996   109814990.046        1324.867          46.000  
R11  19283470.327   103044990.342         404.909          47.000  
R21  20268180.470   108459121.300       -2108.173          47.000  
S20  37902843.494   199180777.997         102.752          40.000  
> 2017 11 15 18 42 23.2000000  0 15                     
G21  26228432.665                1       3927.706          26.000  
G 2  20910424.434   109884994.712       -1943.677          45.000  
G 5  23801431.568   125077350.375        2189.197          46.000  
G 6  24185418.863   127095246.912       -3258.091          37.000  
G12  20678339.191   108665403.538         291.113          50.000  
R12  21694191.360   115886550.484        3705.536          38.000  
G24  22055171.073   115900633.507       -2906.110          44.000  
G25  21737464.172   114231121.928        2183.288          46.000  
G29  21600951.084   113513772.567        1172.957          48.000  
G20  24602679.098   129288004.8492       2932.298          28.000  
R10  21320768.765   113651732.113       -3261.175          42.000  
R22  20572002.159   109814725.090        1324.589          46.000  
R11  19283455.442   103044909.362         404.738          48.000  
R21  20268259.223   108459542.947       -2108.310          47.000  
S20  37902839.655   199180757.401         103.067          41.000  
> 2017 11 15 18 42 23.4000000  0 16                     
G21  26228281.389                1       3929.017          25.000  
G 2  20910498.336   109885383.469       -1943.573          45.000  
G 5  23801348.191   125076912.608        2189.050          46.000  
G 6  24185542.829   127095898.490       -3257.872          37.000  
G12  20678328.057   108665345.337         291.083          50.000  
R12  21694052.561   115885809.423        3705.506          38.000  
G24  22055281.672   115901214.754       -2906.182          44.000  
G25  21737381.144   114230685.255        2183.616          46.000  
G29  21600906.446   113513537.989        1172.875          48.000  
G20  24602571.047   129287418.5962       2931.039          28.000  
R23  24686417.044                1       3301.767          23.000  
R10  21320891.073   113652384.406       -3261.260          42.000  
R22  20571952.600   109814460.176        1324.720          47.000  
R11  19283440.435   103044828.424         404.807          48.000  
R21  20268338.011   108459964.608       -2108.284          47.000  
S20  37902835.746   199180736.800         103.139          41.000  
> 2017 11 15 18 42 23.6000000  0 16                     
G21  26228130.515                1       3926.291          25.000  
G 2  20910572.325   109885772.234       -1944.012          45.000  
G 5  23801264.796   125076474.815        2189.038          45.000  
G 6  24185666.743   127096550.000       -3257.798          36.000  
G12  20678316.767   108665287.143         290.788          50.000  
R12  21693913.796   115885068.389        3704.716          38.000  
G24  22055392.167   115901796.020       -2906.437          43.000  
G25  21737297.924   114230248.630        2182.884          46.000  
G29  21600861.878   113513303.457        1172.363          48.000  
G20  24602462.838   129286832.3142       2931.033          27.000  
R23  24686293.165                1       3301.545          23.000  
R10  21321013.260   113653036.708       -3261.589          40.000  
R22  20571903.163   109814195.321        1324.002          47.000  
R11  19283425.445   103044747.539         404.141          48.000  
R21  20268416.921   108460386.297       -2108.622          47.000  
S20  37902831.715   199180716.140         103.517          41.000  
> 2017 11 15 18 42 23.8000000  0 16                     
G21  26227981.088                1       3928.896          24.000  
G 2  20910646.279   109886160.939       -1943.896          45.000  
G 5  23801181.279   125076036.934        2189.020          45.000  
G 6  24185790.674   127097201.499       -3258.315          36.000  
G12  20678305.599   108665228.903         291.081          50.000  
R12  21693774.928   115884327.355        3705.204          38.000  
G24  22055502.574   115902377.282       -2906.242          43.000  
G25  21737214.931   114229811.943        2183.521          46.000  
G29  21600817.345   113513068.926        1172.606          48.000  
G20  24602348.679   129286246.0952       2931.254          27.000  
R23  24686169.914                1       3301.784          23.000  
R10  21321135.516   113653688.950       -3261.376          40.000  
R22  20571853.465   109813930.523        1323.875          46.000  
R11  19283410.281   103044666.640         404.218          47.000  
R21  20268495.883   108460807.943       -2108.365          47.000  
S20  37902827.841   199180695.404         103.475          41.000  
> 2017 11 15 18 42 24.0000000  0 16                     
G21  26227830.703                1       3928.882          24.000  
G 2  20910720.407   109886549.620       -1943.243          46.000  
G 5  23801097.955   125075598.999        2189.929          46.000  
G 6  24185914.746   127097852.943       -3256.861          37.000  
G12  20678294.553   108665170.631         291.480          50.000  
R12  21693636.129   115883586.349        3704.936          38.000  
G24  22055613.209   115902958.485       -2905.830          43.000  
G25  21737131.850   114229375.300        2183.168          46.000  
G29  21600772.969   113512834.408        1172.305          48.000  
G20  24602239.772   129285659.6622       2932.638          27.000  
R23  24686046.593                1       3300.265          23.000  
R10  21321257.755   113654341.189       -3260.946          41.000  
R22  20571803.854   109813665.700        1323.978          47.000  
R11  19283395.134   103044585.733         404.379          47.000  
R21  20268574.810   108461229.548       -2107.972          48.000  
S20  37902823.775   199180674.620         104.097          41.000  
> 2017 11 15 18 42 24.2000000  0 15                     
G21  26227679.793                1       3927.935          24.000  
G 2  20910794.518   109886938.256       -1943.384          46.000  
G 5  23801014.508   125075160.981        2190.204          45.000  
G 6  24186038.712   127098504.278       -3256.151          36.000  
G12  20678283.472   108665112.322         291.379          50.000  
R12  21693497.417   115882845.309        3704.984          38.000  
G24  22055723.826   115903539.775       -2906.505          43.000  
G25  21737048.647   114228938.636        2183.281          46.000  
G29  21600728.436   113512599.932        1172.228          48.000  
G20  24602130.760   129285072.7191       2932.390          27.000  
R10  21321379.994   113654993.399       -3261.063          41.000  
R22  20571754.261   109813400.979        1323.485          47.000  
R11  19283380.127   103044504.836         404.562          47.000  
R21  20268653.650   108461651.128       -2108.088          49.000  
S20  37902819.762   199180653.752         104.299          40.000  
> 2017 11 15 18 42 24.4000000  0 15                     
G21  26227529.547                1       3922.085          23.000  
G 2  20910868.595   109887326.914       -1942.987          46.000  
G 5  23800930.991   125074722.973        2190.405          46.000  
G 6  24186162.835   127099155.672       -3256.707          36.000  
G12  20678272.077   108665054.017         291.608          49.000  
R12  21693358.670   115882104.327        3705.167          38.000  
G24  22055834.268   115904121.040       -2906.442          42.000  
G25  21736965.392   114228501.997        2183.184          46.000  
G29  21600684.060   113512365.518        1171.811          49.000  
G20  24602022.028   129284486.251        2932.601          28.000  
R10  21321502.424   113655645.559       -3261.087          42.000  
R22  20571704.877   109813136.321        1322.637          47.000  
R11  19283365.033   103044424.004         404.115          47.000  
R21  20268732.438   108462072.750       -2108.063          47.000  
S20  37902815.818   199180632.881         104.980          39.000  
> 2017 11 15 18 42 24.6000000  0 15                     
G21  26227379.335                1       3923.676          23.000  
G 2  20910942.601   109887715.569       -1943.268          46.000  
G 5  23800847.526   125074284.920        2190.027          46.000  
G 6  24186286.732   127099806.961       -3257.601          36.000  
G12  20678260.909   108664995.723         291.565          49.000  
R12  21693220.046   115881363.404        3704.559          38.000  
G24  22055944.693   115904702.331       -2906.955          43.000  
G25  21736882.312   114228065.423        2183.018          46.000  
G29  21600639.545   113512131.163        1171.674          49.000  
G20  24601911.690   129283899.797        2932.288          32.000  
R10  21321624.768   113656297.805       -3261.136          42.000  
R22  20571655.458   109812871.703        1323.032          47.000  
R11  19283349.903   103044343.222         403.847          47.000  
R21  20268811.296   108462494.392       -2108.216          49.000  
S20  37902811.700   199180611.969         104.351          39.000  
> 2017 11 15 18 42 24.8000000  0 15                     
G21  26227229.979                1       3926.493          23.000  
G 2  20911016.590   109888104.198       -1942.914          46.000  
G 5  23800763.922   125073846.773        2191.278          45.000  
G 6  24186410.698   127100458.167       -3255.345          35.000  
G12  20678249.846   108664937.392         291.854          50.000  
R12  21693081.316   115880622.535        3704.694          41.000  
G24  22056055.240   115905283.636       -2905.438          43.000  
G25  21736799.336   114227628.869        2182.788          46.000  
G29  21600594.995   113511896.872        1171.813          49.000  
G20  24601796.432   129283313.201        2933.658          28.000  
R10  21321747.059   113656949.985       -3260.768          42.000  
R22  20571605.916   109812607.198        1322.775          46.000  
R11  19283334.809   103044262.459         404.136          47.000  
R21  20268890.240   108462916.035       -2107.835          48.000  
S20  37902807.669   199180591.009         104.777          41.000  
> 2017 11 15 18 42 25.0000000  0 15                     
G21  26227079.785                1       3926.115          23.000  
G 2  20911090.736   109888492.878       -1943.902          46.000  
G 5  23800680.266   125073408.663        2190.955          45.000  
G 6  24186534.682   127101109.511       -3256.413          35.000  
G12  20678238.520   108664879.107         291.096          49.000  
R12  21692942.779   115879881.786        3703.381          41.000  
G24  22056165.875   115905864.987       -2907.423          43.000  
G25  21736716.168   114227192.355        2182.503          46.000  
G29  21600550.427   113511662.583        1171.151          49.000  
G20  24601684.855   129282726.881        2931.119          28.000  
R10  21321869.455   113657602.194       -3261.526          42.000  
R22  20571556.271   109812342.711        1321.905          46.000  
R11  19283319.697   103044181.767         403.026          47.000  
R21  20268969.272   108463337.746       -2109.038          48.000  
S20  37902803.638   199180570.034         104.124          40.000  
> 2017 11 15 18 42 25.2000000  0 15                     
G21  26226929.922                1       3926.616          22.000  
G 2  20911164.707   109888881.584       -1943.835          47.000  
G 5  23800596.889   125072970.614        2190.503          45.000  
G 6  24186658.701   127101760.752       -3255.153          32.000  
G12  20678227.195   108664820.848         291.481          49.000  
R12  21692803.997   115879140.963        3703.529          38.000  
G24  22056276.701   115906446.346       -2906.755          44.000  
G25  21736633.018   114226755.823        2182.574          46.000  
G29  21600506.068   113511428.308        1171.371          49.000  
G20  24601573.575   129282140.388        2933.161          28.000  
R10  21321991.746   113658254.466       -3260.984          42.000  
R22  20571506.572   109812078.214        1322.311          46.000  
R11  19283304.725   103044101.089         403.196          48.000  
R21  20269048.095   108463759.426       -2108.331          48.000  
S20  37902799.607   199180549.063         104.549          39.000  
> 2017 11 15 18 42 25.4000000  0 15                     
G21  26226780.653                1       3931.263          22.000  
G 2  20911238.696   109889270.318       -1943.500          46.000  
G 5  23800513.512   125072532.568        2189.990          45.000  
G 6  24186782.754   127102412.245       -3256.958          35.000  
G12  20678216.167   108664762.627         290.922          50.000  
R12  21692665.355   115878400.045        3705.731          38.000  
G24  22056387.353   115907027.726       -2906.888          44.000  
G25  21736549.973   114226319.304        2182.566          46.000  
G29  21600461.832   113511194.055        1171.346          49.000  
G20  24601466.675   129281553.897        2932.087          28.000  
R10  21322114.264   113658906.750       -3261.407          42.000  
R22  20571457.049   109811813.741        1322.528          46.000  
R11  19283289.753   103044020.467         403.241          48.000  
R21  20269126.883   108464181.157       -2108.625          47.000  
S20  37902795.541   199180528.126         105.442          39.000  
> 2017 11 15 18 42 25.6000000  0 15                     
G21  26226631.175                1       3926.525          21.000  
G 2  20911312.842   109889659.124       -1943.805          47.000  
G 5  23800430.379   125072094.566        2189.349          47.000  
G 6  24186906.825   127103063.622       -3257.047          35.000  
G12  20678204.929   108664704.409         291.094          49.000  
R12  21692526.626   115877659.332        3703.394          36.000  
G24  22056498.022   115907609.161       -2907.041          43.000  
G25  21736466.944   114225882.793        2182.545          46.000  
G29  21600417.508   113510959.828        1171.171          49.000  
G20  24601350.840   129280967.409        2933.061          28.000  
R10  21322236.695   113659559.086       -3262.081          42.000  
R22  20571407.507   109811549.318        1322.254          46.000  
R11  19283274.588   103043939.855         402.958          47.000  
R21  20269205.670   108464602.929       -2108.752          47.000  
S20  37902791.475   199180507.269         104.681          39.000  
> 2017 11 15 18 42 25.8000000  0 15                     
G21  26226480.893                1       3926.525          21.000  
G 2  20911386.901   109890047.991       -1944.983          46.000  
G 5  23800347.019   125071656.566        2189.246          46.000  
G 6  24187030.914   127103715.021       -3258.304          32.000  
G12  20678193.830   108664646.277         290.520          49.000  
R12  21692387.775   115876918.563        3703.117          38.000  
G24  22056608.656   115908190.587       -2907.326          43.000  
G25  21736383.812   114225446.326        2182.356          46.000  
G29  21600373.063   113510725.624        1170.553          48.000  
G20  24601236.663   129280381.060        2931.306          28.000  
R10  21322359.108   113660211.474       -3261.964          42.000  
R22  20571357.966   109811284.930        1322.004          47.000  
R11  19283259.633   103043859.353         402.356          47.000  
R21  20269284.441   108465024.743       -2109.200          48.000  
S20  37902787.514   199180486.464         103.597          41.000  
> 2017 11 15 18 42 26.0000000  0 15                     
G21  26226330.211                1       3925.858          21.000  
G 2  20911460.855   109890436.798       -1943.701          45.000  
G 5  23800263.642   125071218.552        2191.003          45.000  
G 6  24187154.880   127104366.404       -3256.509          32.000  
G12  20678182.837   108664588.095         291.220          50.000  
R12  21692249.150   115876177.822        3704.645          40.000  
G24  22056719.064   115908772.074       -2906.895          42.000  
G25  21736300.539   114225009.882        2182.284          46.000  
G29  21600328.408   113510491.370        1171.828          48.000  
G20  24601124.441   129279794.6271       2932.631          28.000  
R10  21322481.556   113660863.846       -3261.664          42.000  
R22  20571308.669   109811020.562        1322.368          48.000  
R11  19283244.417   103043778.839         402.935          47.000  
R21  20269363.229   108465446.493       -2108.687          48.000  
S20  37902783.535   199180465.526         104.711          40.000  
> 2017 11 15 18 42 26.2000000  0 15                     
G21  26226180.191                1       3935.120          21.000  
G 2  20911534.896   109890825.646       -1943.970          46.000  
G 5  23800180.265   125070780.504        2190.717          44.000  
G 6  24187278.707   127105017.742       -3256.378          33.000  
G12  20678171.738   108664529.904         291.072          50.000  
R12  21692110.508   115875437.146        3703.780          40.000  
G24  22056829.733   115909353.494       -2907.209          43.000  
G25  21736217.528   114224573.395        2182.580          46.000  
G29  21600283.805   113510257.197        1171.357          48.000  
G20  24601012.795   129279208.056        2932.515          29.000  
R10  21322603.899   113661516.232       -3261.721          41.000  
R22  20571259.215   109810756.216        1321.895          48.000  
R11  19283229.427   103043698.345         402.638          47.000  
R21  20269441.964   108465868.287       -2108.624          48.000  
S20  37902779.592   199180444.607         104.757          40.000  
> 2017 11 15 18 42 26.4000000  0 15                     
G21  26226031.044                1       3935.120          20.000  
G 2  20911608.972   109891214.477       -1944.653          46.000  
G 5  23800096.766   125070342.456        2190.356          45.000  
G 6  24187402.656   127105669.149       -3257.275          36.000  
G12  20678160.640   108664471.739         290.913          50.000  
R12  21691971.901   115874696.433        3703.137          41.000  
G24  22056940.176   115909934.924       -2907.070          43.000  
G25  21736134.500   114224136.934        2182.566          46.000  
G29  21600239.359   113510023.008        1171.220          48.000  
G20  24600902.213   129278621.693        2932.245          29.000  
R10  21322726.348   113662168.613       -3261.704          41.000  
R22  20571209.587   109810491.915        1321.751          46.000  
R11  19283214.315   103043617.876         402.248          47.000  
R21  20269520.891   108466290.059       -2108.700          48.000  
S20  37902775.595   199180423.646         104.435          40.000  
> 2017 11 15 18 42 26.6000000  0 16                     
G21  26225881.356                1       3925.088          19.000  
G 2  20911682.996   109891603.379       -1944.433          46.000  
G 5  23800013.319   125069904.470        2190.082          46.000  
G 6  24187526.622   127106320.496       -3255.300          36.000  
G12  20678149.577   108664413.589         290.691          50.000  
R12  21691833.416   115873955.747        3703.291          42.000  
G24  22057050.897   115910516.423       -2907.495          44.000  
G25  21736051.402   114223700.468        2182.404          46.000  
G29  21600194.879   113509788.854        1170.507          49.000  
G20  24600792.276   129278035.033        2932.935          29.000  
R23  24684444.681                1       3299.013          23.000  
R10  21322848.883   113662821.024       -3262.729          42.000  
R22  20571160.185   109810227.599        1320.977          46.000  
R11  19283199.081   103043537.462         402.049          47.000  
R21  20269599.819   108466711.878       -2109.101          49.000  
S20  37902771.512   199180402.729         104.194          40.000  
> 2017 11 15 18 42 26.8000000  0 16                     
G21  26225731.616                1       3925.088          19.000  
G 2  20911757.107   109891992.316       -1944.427          46.000  
G 5  23799930.029   125069466.547        2190.314          45.000  
G 6  24187650.588   127106971.951       -3257.358          35.000  
G12  20678138.723   108664355.498         290.318          50.000  
R12  21691694.757   115873215.000        3703.946          39.000  
G24  22057161.619   115911097.933       -2907.667          44.000  
G25  21735968.374   114223264.056        2182.141          46.000  
G29  21600150.258   113509554.669        1170.881          49.000  
G20  24600680.804   129277448.8631       2929.521          22.000  
R23  24684321.814                1       3300.367          24.000  
R10  21322971.296   113663473.492       -3262.257          41.000  
R22  20571110.766   109809963.309        1321.336          46.000  
R11  19283184.179   103043457.079         401.746          47.000  
R21  20269678.763   108467133.733       -2109.304          48.000  
S20  37902767.603   199180381.838         104.906          40.000  
> 2017 11 15 18 42 27.0000000  0 16                     
G21  26225582.434                1       3925.088          18.000  
G 2  20911831.131   109892381.328       -1945.020          46.000  
G 5  23799846.634   125069028.629        2189.246          46.000  
G 6  24187774.450   127107623.480       -3257.355          35.000  
G12  20678127.205   108664297.428         290.553          49.000  
R12  21691556.272   115872474.423        3703.462          37.000  
G24  22057272.114   115911679.508       -2907.762          42.000  
G25  21735885.416   114222827.660        2182.015          46.000  
G29  21600105.708   113509320.569        1170.748          49.000  
G20  24600569.036                1       2933.208          29.000  
R23  24684198.842                1       3299.503          24.000  
R10  21323093.832   113664126.029       -3262.342          42.000  
R22  20571061.382   109809699.085        1321.068          47.000  
R11  19283169.294   103043376.805         401.726          47.000  
R21  20269757.621   108467555.629       -2109.411          49.000  
S20  37902763.607   199180360.960         104.367          40.000  
> 2017 11 15 18 42 27.2000000  0 16                     
G21  26225433.409                1       3925.088          18.000  
G 2  20911905.172   109892770.317       -1944.775          46.000  
G 5  23799763.484   125068590.685        2189.630          46.000  
G 6  24187898.277   127108274.871       -3257.499          33.000  
G12  20678116.316   108664239.366         290.436          50.000  
R12  21691417.700   115871733.814        3702.728          39.000  
G24  22057382.643   115912261.044       -2907.865          42.000  
G25  21735802.126   114222391.237        2182.073          45.000  
G29  21600060.931   113509086.411        1170.410          48.000  
G20  24600454.580   129276275.7801       2931.195          29.000  
R23  24684075.521                1       3299.382          25.000  
R10  21323216.245   113664778.530       -3262.656          42.000  
R22  20571011.946   109809434.845        1321.135          47.000  
R11  19283154.339   103043296.480         401.478          47.000  
R21  20269836.426   108467977.524       -2109.468          49.000  
S20  37902759.471   199180340.056         104.759          40.000  
> 2017 11 15 18 42 27.4000000  0 16                     
G21  26225283.494                1       3925.088          17.000  
G 2  20911979.318   109893159.359       -1945.257          47.000  
G 5  23799680.386   125068152.769        2189.441          47.000  
G 6  24188022.330   127108926.391       -3256.910          33.000  
G12  20678105.602   108664181.311         290.196          50.000  
R12  21691279.005   115870993.237        3702.533          37.000  
G24  22057493.225   115912842.611       -2907.749          42.000  
G25  21735719.098   114221954.810        2182.642          47.000  
G29  21600016.276   113508852.303        1170.794          48.000  
G20  24600344.469   129275689.260        2932.854          30.000  
R23  24683951.276                1       3299.079          25.000  
R10  21323338.589   113665431.101       -3262.611          42.000  
R22  20570962.527   109809170.655        1320.853          47.000  
R11  19283139.384   103043216.225         401.626          47.000  
R21  20269915.109   108468399.375       -2109.006          49.000  
S20  37902755.388   199180319.142         104.947          40.000  
> 2017 11 15 18 42 27.6000000  0 16                     
G21  26225133.143                1       3930.084          16.000  
G 2  20912053.429   109893548.380       -1945.190          46.000  
G 5  23799597.096   125067714.816        2189.508          46.000  
G 6  24188146.157   127109577.926       -3258.105          33.000  
G12  20678094.329   108664123.262         290.023          50.000  
R12  21691140.311   115870252.556        3703.105          37.000  
G24  22057604.104   115913424.139       -2907.598          43.000  
G25  21735636.035   114221518.416        2182.088          47.000  
G29  21599971.603   113508618.142        1170.786          48.000  
G20  24600231.374   129275102.8971       2930.883          29.000  
R23  24683827.938                1       3304.728          25.000  
R10  21323460.932   113666083.657       -3263.350          42.000  
R22  20570913.003   109808906.413        1321.177          47.000  
R11  19283124.377   103043135.991         400.870          47.000  
R21  20269994.054   108468821.306       -2109.813          49.000  
S20  37902751.375   199180298.217         104.166          40.000  
> 2017 11 15 18 42 27.8000000  0 16                     
G21  26224982.862                1       3930.084          16.000  
G 2  20912127.541   109893937.501       -1945.453          46.000  
G 5  23799513.963   125067276.939        2190.308          47.000  
G 6  24188269.984   127110229.453       -3257.666          33.000  
G12  20678083.283   108664065.273         290.133          50.000  
R12  21691001.722   115869511.971        3703.529          41.000  
G24  22057714.826   115914005.811       -2908.446          43.000  
G25  21735552.972   114221082.085        2181.104          47.000  
G29  21599927.053   113508384.138        1169.795          48.000  
G20  24600120.984   129274516.2491       2933.600          29.000  
R23  24683705.489                1       3298.010          25.000  
R10  21323583.223   113666736.231       -3262.507          41.000  
R22  20570863.602   109808642.305        1320.538          46.000  
R11  19283109.370   103043055.815         400.838          47.000  
R21  20270073.138   108469243.239       -2109.451          48.000  
S20  37902747.378   199180277.294         104.897          40.000  
> 2017 11 15 18 42 28.0000000  0 16                     
G21  26224833.174                1       3930.084          15.000  
G 2  20912201.704   109894326.611       -1945.947          46.000  
G 5  23799430.551   125066839.072        2189.087          46.000  
G 6  24188393.968   127110880.934       -3257.485          33.000  
G12  20678072.482   108664007.275         289.854          50.000  
R12  21690863.219   115868771.513        3702.511          39.000  
G24  22057825.460   115914587.439       -2907.998          43.000  
G25  21735469.961   114220645.721        2181.879          47.000  
G29  21599882.345   113508150.070        1169.991          48.000  
G20  24600008.029   129273929.8691       2932.544          29.000  
R23  24683582.343                1       3301.247          25.000  
R10  21323705.584   113667388.919       -3263.110          41.000  
R22  20570814.200   109808378.235        1320.267          46.000  
R11  19283094.362   103042975.705         400.416          47.000  
R21  20270152.135   108469665.229       -2110.168          48.000  
S20  37902743.452   199180256.405         104.889          40.000  
> 2017 11 15 18 42 28.2000000  0 16                     
G21  26224684.585                1       3930.084          15.000  
G 2  20912275.745   109894715.703       -1945.569          47.000  
G 5  23799347.261   125066401.163        2188.794          47.000  
G 6  24188518.056   127111532.413       -3256.142          29.000  
G12  20678061.488   108663949.286         289.960          50.000  
R12  21690724.490   115868030.902        3702.548          41.000  
G24  22057935.850   115915169.025       -2907.805          41.000  
G25  21735386.950   114220209.309        2182.126          47.000  
G29  21599837.725   113507915.957        1170.508          47.000  
G20  24599895.440                1       2932.538          29.000  
R23  24683458.150                1       3298.028          24.000  
R10  21323828.120   113668041.539       -3263.579          41.000  
R22  20570764.886   109808114.040        1321.148          47.000  
R11  19283079.355   103042895.534         400.612          47.000  
R21  20270231.150   108470087.158       -2109.588          49.000  
S20  37902739.473   199180235.519         104.373          40.000  
> 2017 11 15 18 42 28.4000000  0 16                     
G21  26224535.438                1       3930.084          14.000  
G 2  20912349.839   109895104.762       -1944.940          46.000  
G 5  23799263.727   125065963.192        2189.783          46.000  
G 6  24188642.127   127112183.842       -3258.956          30.000  
G12  20678050.320   108663891.233         290.172          50.000  
R12  21690585.778   115867290.291        3702.854          39.000  
G24  22058046.450   115915750.645       -2908.647          42.000  
G25  21735304.044   114219772.952        2181.726          46.000  
G29  21599793.192   113507681.902        1170.458          48.000  
G20  24599789.185                1       2932.735          29.000  
R23  24683334.829                1       3297.872          24.000  
R10  21323950.480   113668694.103       -3263.753          41.000  
R22  20570715.414   109807849.945        1321.248          47.000  
R11  19283064.348   103042815.419         400.616          47.000  
R21  20270309.990   108470509.077       -2109.434          49.000  
S20  37902735.495   199180214.563         104.452          40.000  
> 2017 11 15 18 42 28.6000000  0 16                     
G21  26224386.099                1       3923.118          14.000  
G 2  20912423.741   109895493.897       -1945.245          46.000  
G 5  23799180.245   125065525.299        2189.270          46.000  
G 6  24188766.163   127112835.263       -3256.057          32.000  
G12  20678039.187   108663833.242         290.287          50.000  
R12  21690446.962   115866549.720        3703.484          40.000  
G24  22058157.102   115916332.237       -2908.189          42.000  
G25  21735221.173   114219336.584        2181.938          46.000  
G29  21599748.921   113507447.811        1170.022          49.000  
G20  24599677.068                1       2932.107          28.000  
R23  24683211.718                1       3299.899          24.000  
R10  21324072.911   113669346.750       -3262.688          41.000  
R22  20570665.908   109807585.874        1320.331          47.000  
R11  19283049.376   103042735.341         400.385          47.000  
R21  20270388.813   108470931.001       -2109.337          49.000  
S20  37902731.516   199180193.629         105.233          40.000  
> 2017 11 15 18 42 28.8000000  0 16                     
G21  26224237.790                1       3923.118          14.000  
G 2  20912497.729   109895883.066       -1945.911          46.000  
G 5  23799096.554   125065087.354        2189.105          46.000  
G 6  24188890.217   127113486.801       -3258.822          29.000  
G12  20678028.175   108663775.234         290.223          50.000  
R12  21690308.215   115865809.226        3702.335          41.000  
G24  22058267.788   115916913.880       -2908.263          43.000  
G25  21735137.971   114218900.163        2182.422          46.000  
G29  21599704.597   113507213.770        1170.460          49.000  
G20  24599565.648                1       2930.570          28.000  
R23  24683088.694                1       3298.617          24.000  
R10  21324195.464   113669999.406       -3263.240          42.000  
R22  20570616.332   109807321.806        1320.633          47.000  
R11  19283034.334   103042655.302         400.104          48.000  
R21  20270467.600   108471352.979       -2109.918          49.000  
S20  37902727.555   199180172.686         104.513          40.000  
> 2017 11 15 18 42 29.0000000  0 16                     
G21  26224089.812                1       3923.118          14.000  
G 2  20912571.701   109896272.296       -1945.972          46.000  
G 5  23799013.264   125064649.530        2189.221          46.000  
G 6  24189014.131   127114138.451       -3258.290          28.000  
G12  20678017.234   108663717.372         289.184          50.000  
R12  21690169.538   115865068.703        3702.632          41.000  
G24  22058378.510   115917495.539       -2908.403          42.000  
G25  21735055.082   114218463.854        2181.474          46.000  
G29  21599660.012   113506979.723        1170.162          48.000  
G20  24599447.807                1       2931.577          28.000  
R23  24682965.530                1       3300.699          24.000  
R10  21324317.912   113670652.136       -3263.769          41.000  
R22  20570567.000   109807057.781        1320.320          47.000  
R11  19283019.518   103042575.309         399.883          48.000  
R21  20270546.475   108471774.951       -2109.919          49.000  
S20  37902723.507   199180151.859         104.038          40.000  
> 2017 11 15 18 42 29.2000000  0 16                     
G21  26223940.630                1       3923.118          13.000  
G 2  20912645.795   109896661.573       -1946.893          46.000  
G 5  23798929.765   125064211.705        2189.441          46.000  
G 6  24189137.644   127114789.750       -3255.755          28.000  
G12  20678006.101   108663659.456         289.346          49.000  
R12  21690030.914   115864328.254        3701.771          40.000  
G24  22058489.249   115918077.310       -2908.941          41.000  
G25  21734972.019   114218027.553        2181.515          47.000  
G29  21599615.409   113506745.742        1169.710          48.000  
G20  24599340.313                1       2933.926          28.000  
R23  24682842.663                1       3296.927          24.000  
R10  21324440.326   113671304.967       -3264.118          41.000  
R22  20570517.668   109806793.829        1319.622          47.000  
R11  19283004.564   103042495.411         399.329          48.000  
R21  20270625.368   108472196.998       -2110.497          49.000  
S20  37902719.563   199180131.011         104.838          39.000  
> 2017 11 15 18 42 29.4000000  0 16                     
G21  26223791.431                1       3923.118          13.000  
G 2  20912719.783   109897050.860       -1946.893          46.000  
G 5  23798846.493   125063773.940        2188.867          46.000  
G 6  24189260.790   127115441.3971      -3257.481          28.000  
G12  20677995.317   108663601.584         289.163          50.000  
R12  21689892.394   115863587.801        3701.630          43.000  
G24  22058599.814   115918659.090       -2908.932          43.000  
G25  21734888.869   114217591.284        2180.940          47.000  
G29  21599571.103   113506511.740        1170.076          49.000  
G20  24599227.602                1       2932.035          32.000  
R23  24682719.168                1       3299.379          25.000  
R10  21324562.843   113671957.748       -3264.216          41.000  
R22  20570468.249   109806529.884        1319.788          47.000  
R11  19282989.748   103042415.530         399.127          47.000  
R21  20270704.225   108472619.064       -2110.855          49.000  
S20  37902715.584   199180110.241         103.412          39.000  
> 2017 11 15 18 42 29.6000000  0 16                     
G21  26223641.690                1       3923.118          12.000  
G 2  20912793.895   109897440.163       -1945.764          46.000  
G 5  23798763.220   125063336.129        2189.166          46.000  
G 6  24189387.234   127116092.9971      -3256.189          32.000  
G12  20677984.358   108663543.752         289.758          49.000  
R12  21689753.804   115862847.495        3701.836          41.000  
G24  22058710.413   115919240.911       -2909.184          43.000  
G25  21734805.806   114217155.036        2181.930          47.000  
G29  21599526.553   113506277.892        1169.622          48.000  
G20  24599112.239                1       2932.155          28.000  
R23  24682595.533                1       3296.508          25.000  
R10  21324685.379   113672610.598       -3263.656          41.000  
R22  20570418.830   109806266.063        1319.055          46.000  
R11  19282974.846   103042335.729         399.363          48.000  
R21  20270783.065   108473041.141       -2109.737          49.000  
S20  37902711.763   199180089.379         103.870          42.000  
> 2017 11 15 18 42 29.8000000  0 16                     
G21  26223492.404                1       3922.364          12.000  
G 2  20912868.058   109897829.563       -1947.034          46.000  
G 5  23798679.983   125062898.396        2188.092          46.000  
G 6  24189510.101   127116744.629       -3257.479          32.000  
G12  20677973.277   108663485.943         288.852          50.000  
R12  21689615.232   115862107.092        3702.827          41.000  
G24  22058820.978   115919822.698       -2909.441          42.000  
G25  21734722.778   114216718.815        2181.193          46.000  
G29  21599482.089   113506043.955        1169.824          49.000  
G20  24598998.795                1       2932.462          27.000  
R23  24682471.201                1       3298.904          25.000  
R10  21324807.862   113673263.489       -3264.829          41.000  
R22  20570369.446   109806002.156        1319.617          47.000  
R11  19282959.909   103042255.953         398.750          47.000  
R21  20270861.853   108473463.260       -2110.497          49.000  
S20  37902707.836   199180068.556         103.734          40.000  
> 2017 11 15 18 42 30.0000000  0 16                     
G21  26223342.245                1       3924.237          13.000  
G 2  20912942.326   109898219.044       -1947.430          46.000  
G 5  23798596.570   125062460.735        2187.872          46.000  
G 6  24189636.092   127117396.403       -3259.604          32.000  
G12  20677962.528   108663428.211         288.604          50.000  
R12  21689476.712   115861366.714        3701.720          41.000  
G24  22058931.629   115920404.580       -2909.100          42.000  
G25  21734639.662   114216282.604        2180.739          46.000  
G29  21599437.557   113505810.059        1169.558          48.000  
G20  24598893.588   129268059.5573       2930.878          32.000  
R23  24682346.641                1       3298.319          25.000  
R10  21324930.467   113673916.476       -3265.031          41.000  
R22  20570319.992   109805738.347        1319.049          47.000  
R11  19282944.954   103042176.248         398.194          47.000  
R21  20270940.728   108473885.448       -2111.144          49.000  
S20  37902703.927   199180047.848         103.777          40.000  
> 2017 11 15 18 42 30.2000000  0 16                     
G21  26223192.400                1       3929.902          14.000  
G 2  20913016.420   109898608.544       -1947.583          46.000  
G 5  23798513.368   125062023.072        2188.831          45.000  
G 6  24189759.884   127118048.223       -3259.891          33.000  
G12  20677951.656   108663370.504         288.321          50.000  
R12  21689337.965   115860626.442        3700.730          39.000  
G24  22059042.456   115920986.403       -2909.043          43.000  
G25  21734556.617   114215846.408        2180.976          45.000  
G29  21599393.163   113505576.169        1169.315          48.000  
G20  24598780.947   129267472.9093       2934.545          32.000  
R23  24682222.901                1       3296.775          25.000  
R10  21325053.038   113674569.471       -3265.191          41.000  
R22  20570270.661   109805474.517        1319.023          47.000  
R11  19282930.243   103042096.588         398.276          47.000  
R21  20271019.516   108474307.671       -2110.984          49.000  
S20  37902699.809   199180027.180         103.335          40.000  
> 2017 11 15 18 42 30.4000000  0 16                     
G21  26223041.926                1       3932.838          15.000  
G 2  20913090.635   109898998.121       -1947.791          47.000  
G 5  23798430.322   125061585.541        2187.732          45.000  
G 6  24189879.243   127118699.982       -3258.383          33.000  
G12  20677940.715   108663312.833         288.626          50.000  
R12  21689199.254   115859886.080        3702.116          39.000  
G24  22059153.492   115921568.274       -2909.340          44.000  
G25  21734473.554   114215410.159        2181.223          46.000  
G29  21599348.595   113505342.155        1170.164          48.000  
G20  24598670.557                1       2930.422          31.000  
R23  24682099.947                1       3298.606          25.000  
R10  21325175.521   113675222.493       -3264.955          41.000  
R22  20570221.224   109805210.622        1319.352          47.000  
R11  19282915.288   103042016.904         398.292          47.000  
R21  20271098.286   108474729.846       -2110.815          48.000  
S20  37902695.865   199180006.529         102.785          40.000  
> 2017 11 15 18 42 30.6000000  0 16                     
G21  26222891.767                1       3926.367          16.000  
G 2  20913164.659   109899387.642       -1947.577          46.000  
G 5  23798347.172   125061147.968        2187.653          45.000  
G 6  24190003.942   127119351.850       -3258.904          33.000  
G12  20677929.617   108663255.119         288.382          50.000  
R12  21689060.612   115859145.636        3702.074          42.000  
G24  22059264.370   115922150.112       -2909.341          44.000  
G25  21734390.508   114214973.890        2181.514          46.000  
G29  21599304.010   113505108.146        1170.502          48.000  
G20  24598552.680                1       2931.447          31.000  
R23  24681976.661                1       3298.644          25.000  
R10  21325298.091   113675875.534       -3265.111          41.000  
R22  20570171.892   109804946.700        1319.647          47.000  
R11  19282900.142   103041937.260         398.224          47.000  
R21  20271177.161   108475152.039       -2110.993          48.000  
S20  37902692.009   199179985.861         103.420          40.000  
> 2017 11 15 18 42 30.8000000  0 16                     
G21  26222742.551                1       3930.317          17.000  
G 2  20913238.805   109899777.307       -1948.590          46.000  
G 5  23798263.725   125060710.480        2187.335          45.000  
G 6  24190127.978   127120003.631       -3258.743          33.000  
G12  20677918.640   108663197.494         288.215          50.000  
R12  21688921.830   115858405.243        3702.105          41.000  
G24  22059374.952   115922732.015       -2909.450          41.000  
G25  21734307.654   114214537.629        2181.476          47.000  
G29  21599259.460   113504874.134        1170.045          48.000  
G20  24598436.514                1       2933.908          25.000  
R23  24681852.189                1       3299.675          25.000  
R10  21325420.731   113676528.661       -3265.685          41.000  
R22  20570122.438   109804682.797        1319.759          47.000  
R11  19282885.169   103041857.658         398.071          47.000  
R21  20271256.141   108475574.274       -2111.220          48.000  
S20  37902688.100   199179965.260         102.648          40.000  
> 2017 11 15 18 42 31.0000000  0 16                     
G21  26222592.252                1       3920.709          18.000  
G 2  20913313.091   109900167.012       -1948.029          46.000  
G 5  23798180.627   125060273.078        2187.524          45.000  
G 6  24190255.417   127120655.645       -3259.919          33.000  
G12  20677907.525   108663139.899         288.309          50.000  
R12  21688783.223   115857664.936        3701.574          39.000  
G24  22059485.517   115923313.894       -2909.316          41.000  
G25  21734224.766   114214101.396        2181.160          47.000  
G29  21599214.822   113504640.111        1170.067          48.000  
G20  24598326.770                1       2931.604          26.000  
R23  24681728.781                1       3299.192          25.000  
R10  21325543.284   113677181.795       -3265.345          41.000  
R22  20570072.845   109804418.888        1319.339          48.000  
R11  19282870.406   103041778.107         397.909          47.000  
R21  20271335.086   108475996.538       -2110.923          48.000  
S20  37902684.261   199179944.689         103.173          40.000  
> 2017 11 15 18 42 31.2000000  0 16                     
G21  26222444.675                1       3927.532          18.000  
G 2  20913387.184   109900556.693       -1949.219          46.000  
G 5  23798097.494   125059835.591        2187.122          45.000  
G 6  24190378.930   127121307.476       -3260.516          33.000  
G12  20677896.531   108663082.283         287.351          50.000  
R12  21688644.616   115856924.636        3701.277          39.000  
G24  22059596.186   115923895.843       -2910.081          41.000  
G25  21734141.703   114213665.204        2180.500          46.000  
G29  21599170.306   113504406.166        1169.298          48.000  
G20  24598223.255   129264540.9963       2931.082          31.000  
R23  24681605.775                1       3297.510          25.000  
R10  21325665.854   113677834.966       -3266.514          42.000  
R22  20570023.426   109804155.102        1318.470          47.000  
R11  19282855.486   103041698.584         397.044          47.000  
R21  20271413.996   108476418.799       -2111.941          48.000  
S20  37902680.387   199179924.060         102.290          40.000  
> 2017 11 15 18 42 31.4000000  0 16                     
G21  26222296.157                1       3934.122          19.000  
G 2  20913461.453   109900946.339       -1948.199          46.000  
G 5  23798014.047   125059398.049        2187.335          45.000  
G 6  24190504.467   127121959.300       -3259.274          33.000  
G12  20677885.694   108663024.664         287.986          49.000  
R12  21688505.956   115856184.354        3701.135          39.000  
G24  22059707.047   115924477.816       -2910.259          43.000  
G25  21734058.727   114213228.988        2180.921          47.000  
G29  21599125.878   113504172.275        1169.244          47.000  
G20  24598113.336   129263954.6053       2932.187          26.000  
R23  24681482.227                1       3297.928          25.000  
R10  21325788.547   113678488.112       -3266.036          42.000  
R22  20569974.094   109803891.378        1318.048          47.000  
R11  19282840.566   103041619.091         397.233          47.000  
R21  20271492.836   108476841.095       -2111.637          48.000  
S20  37902676.531   199179903.382         103.754          41.000  
> 2017 11 15 18 42 31.6000000  0 16                     
G21  26222146.329                1       3934.806          20.000  
G 2  20913535.860   109901336.090       -1948.761          47.000  
G 5  23797930.740   125058960.517        2187.567          45.000  
G 6  24190629.079   127122611.135       -3258.816          32.000  
G12  20677874.596   108662967.109         287.750          49.000  
R12  21688367.629   115855444.182        3700.838          39.000  
G24  22059817.943   115925059.813       -2909.781          43.000  
G25  21733975.716   114212792.898        2180.227          46.000  
G29  21599081.345   113503938.500        1168.817          47.000  
G20  24598000.067                1       2930.625          25.000  
R23  24681358.959                1       3297.213          25.000  
R10  21325911.012   113679141.281       -3266.039          41.000  
R22  20569924.867   109803627.724        1318.069          48.000  
R11  19282825.681   103041539.711         396.872          47.000  
R21  20271571.746   108477263.431       -2111.721          49.000  
S20  37902672.552   199179882.774         103.417          40.000  
> 2017 11 15 18 42 31.8000000  0 16                     
G21  26221996.641                1       3925.166          20.000  
G 2  20913610.041   109901725.823       -1949.005          47.000  
G 5  23797847.328   125058523.005        2187.561          44.000  
G 6  24190747.409   127123263.020       -3260.891          28.000  
G12  20677863.271   108662909.542         287.774          49.000  
R12  21688229.161   115854704.058        3700.306          39.000  
G24  22059928.700   115925641.803       -2909.687          42.000  
G25  21733892.671   114212356.754        2180.842          47.000  
G29  21599036.777   113503704.647        1169.459          48.000  
G20  24597885.768                1       2932.862          25.000  
R23  24681235.498                1       3299.650          25.000  
R10  21326033.583   113679794.509       -3265.910          41.000  
R22  20569875.396   109803364.057        1318.797          48.000  
R11  19282810.866   103041460.341         396.876          48.000  
R21  20271650.690   108477685.806       -2111.895          48.000  
S20  37902668.695   199179862.152         102.401          40.000  
> 2017 11 15 18 42 32.0000000  0 16                     
G21  26221845.592                1       3924.451          21.000  
G 2  20913684.344   109902115.655       -1949.530          47.000  
G 5  23797764.090   125058085.555        2187.195          44.000  
G 6  24190867.466   127123915.039       -3260.458          28.000  
G12  20677852.574   108662852.055         287.050          50.000  
R12  21688090.641   115853963.918        3700.637          39.000  
G24  22060039.526   115926223.826       -2911.017          43.000  
G25  21733809.678   114211920.686        2180.170          47.000  
G29  21598992.244   113503470.855        1168.685          48.000  
G20  24597774.174                1       2932.244          25.000  
R23  24681113.643                1       3298.534          25.000  
R10  21326156.136   113680447.723       -3267.250          42.000  
R22  20569826.012   109803100.422        1317.849          47.000  
R11  19282795.911   103041381.038         396.126          47.000  
R21  20271729.722   108478108.209       -2112.092          49.000  
S20  37902664.804   199179841.517         102.646          40.000  
> 2017 11 15 18 42 32.2000000  0 16                     
G21  26221695.258                1       3923.948          21.000  
G 2  20913758.647   109902505.602       -1949.976          47.000  
G 5  23797681.219   125057648.192        2186.444          46.000  
G 6  24190992.061   127124567.308       -3261.945          28.000  
G12  20677841.790   108662794.645         286.986          49.000  
R12  21687951.964   115853223.810        3700.568          39.000  
G24  22060150.213   115926805.853       -2910.274          42.000  
G25  21733726.719   114211484.671        2179.827          48.000  
G29  21598947.851   113503237.050        1169.030          48.000  
G20  24597661.341                1       2933.375          25.000  
R23  24680990.532                1       3295.250          25.000  
R10  21326278.654   113681101.064       -3266.795          42.000  
R22  20569776.662   109802836.804        1318.152          46.000  
R11  19282781.166   103041301.778         396.197          46.000  
R21  20271808.702   108478530.688       -2112.546          50.000  
S20  37902660.825   199179820.975         102.511          40.000  
> 2017 11 15 18 42 32.4000000  0 16                     
G21  26221545.902                1       3921.370          21.000  
G 2  20913832.933   109902895.621       -1950.116          47.000  
G 5  23797598.017   125057210.905        2186.340          45.000  
G 6  24191117.301   127125219.337       -3260.311          28.000  
G12  20677830.744   108662737.296         286.564          49.000  
R12  21687813.322   115852483.704        3700.603          41.000  
G24  22060260.795   115927387.902       -2910.338          42.000  
G25  21733643.621   114211048.636        2180.078          48.000  
G29  21598903.405   113503003.251        1168.975          48.000  
G20  24597546.937                1       2932.513          25.000  
R23  24680868.119                1       3298.799          25.000  
R10  21326401.276   113681754.444       -3267.325          42.000  
R22  20569727.209   109802573.166        1318.275          46.000  
R11  19282766.333   103041222.600         395.670          47.000  
R21  20271887.594   108478953.221       -2112.710          50.000  
S20  37902656.917   199179800.510         101.819          40.000  
> 2017 11 15 18 42 32.6000000  0 16                     
G21  26221398.046                1       3926.895          21.000  
G 2  20913906.852   109903285.671       -1950.122          46.000  
G 5  23797514.797   125056773.651        2185.919          45.000  
G 6  24191239.069   127125871.430       -3260.772          28.000  
G12  20677819.680   108662679.973         286.725          49.000  
R12  21687674.750   115851743.586        3700.725          41.000  
G24  22060371.499   115927969.916       -2909.854          42.000  
G25  21733560.646   114210612.573        2180.679          48.000  
G29  21598858.855   113502769.386        1169.385          48.000  
G20  24597436.093                1       2931.925          26.000  
R23  24680745.915                1       3300.245          25.000  
R10  21326523.951   113682407.851       -3267.029          42.000  
R22  20569677.737   109802309.481        1318.568          46.000  
R11  19282751.535   103041143.427         395.861          47.000  
R21  20271966.504   108479375.762       -2112.491          50.000  
S20  37902653.025   199179780.038         102.776          39.000  
> 2017 11 15 18 42 32.8000000  0 15                     
G21  26221249.039                1       3930.525          21.000  
G 2  20913980.980   109903675.815       -1950.897          46.000  
G 5  23797431.908   125056336.522        2185.474          46.000  
G 6  24191370.888   127126523.697       -3261.581          28.000  
G12  20677808.826   108662622.705         286.303          49.000  
R12  21687536.283   115851003.489        3700.557          41.000  
G24  22060482.308   115928552.014       -2910.429          42.000  
G25  21733477.792   114210176.522        2180.364          48.000  
G29  21598814.322   113502535.492        1169.631          48.000  
G20  24597330.310                1       2931.523          26.000  
R10  21326646.609   113683061.331       -3267.411          42.000  
R22  20569628.231   109802045.794        1318.642          47.000  
R11  19282736.807   103041064.320         395.536          47.000  
R21  20272045.589   108479798.330       -2112.917          50.000  
S20  37902649.204   199179759.671         101.947          39.000  
> 2017 11 15 18 42 33.0000000  0 15                     
G21  26221099.682                1       3921.823          21.000  
G 2  20914055.179   109904066.022       -1951.263          46.000  
G 5  23797348.897   125055899.470        2185.236          46.000  
G 6  24191499.740   127127176.052       -3261.893          28.000  
G12  20677797.867   108662565.488         285.935          49.000  
R12  21687397.815   115850263.382        3700.562          41.000  
G24  22060593.117   115929134.155       -2910.462          43.000  
G25  21733394.903   114209740.462        2180.447          49.000  
G29  21598769.737   113502301.591        1169.682          48.000  
G20  24597219.239                1       2931.678          27.000  
R10  21326769.162   113683714.906       -3267.529          42.000  
R22  20569578.847   109801782.119        1318.685          47.000  
R11  19282722.010   103040985.253         395.401          47.000  
R21  20272124.481   108480220.926       -2113.204          50.000  
S20  37902645.417   199179739.374         101.401          39.000  
> 2017 11 15 18 42 33.2000000  0 15                     
G21  26220949.907                1       3921.823          20.000  
G 2  20914129.429   109904456.299       -1951.709          46.000  
G 5  23797265.625   125055462.501        2184.290          46.000  
G 6  24191626.376   127127828.373       -3261.607          28.000  
G12  20677786.979   108662508.318         285.611          49.000  
R12  21687259.470   115849523.288        3700.447          42.000  
G24  22060703.996   115929716.334       -2911.134          44.000  
G25  21733311.893   114209304.409        2180.442          49.000  
G29  21598725.204   113502067.689        1169.564          47.000  
G20  24597104.766                1       2931.524          27.000  
R10  21326891.854   113684368.580       -3268.806          42.000  
R22  20569529.428   109801518.452        1318.223          47.000  
R11  19282707.386   103040906.245         394.823          47.000  
R21  20272203.461   108480643.547       -2113.248          50.000  
S20  37902641.787   199179719.133         100.850          39.000  
> 2017 11 15 18 42 33.4000000  0 15                     
G21  26220800.237                1       3921.823          19.000  
G 2  20914203.785   109904846.610       -1951.526          46.000  
G 5  23797182.422   125055025.566        2184.436          45.000  
G 6  24191752.314   127128480.816       -3262.330          28.000  
G12  20677776.159   108662451.185         285.725          49.000  
R12  21687121.107   115848783.184        3700.396          42.000  
G24  22060814.909   115930298.543       -2910.926          44.000  
G25  21733229.004   114208868.366        2180.523          49.000  
G29  21598680.618   113501833.770        1169.566          47.000  
G20  24596989.385   129258053.7683       2931.164          27.000  
R10  21327014.407   113685022.281       -3268.428          42.000  
R22  20569480.113   109801254.790        1318.365          47.000  
R11  19282692.589   103040827.270         394.858          47.000  
R21  20272282.388   108481066.190       -2113.177          50.000  
S20  37902637.913   199179698.935         101.252          39.000  
> 2017 11 15 18 42 33.6000000  0 15                     
G21  26220650.252                1       3921.823          20.000  
G 2  20914278.140   109905237.011       -1952.112          46.000  
G 5  23797099.202   125054588.705        2183.923          45.000  
G 6  24191873.820   127129133.248       -3262.211          28.000  
G12  20677765.602   108662394.124         285.149          50.000  
R12  21686982.710   115848043.150        3700.053          42.000  
G24  22060925.840   115930880.836       -2911.453          44.000  
G25  21733146.011   114208432.399        2179.889          49.000  
G29  21598636.085   113501599.939        1169.115          47.000  
G20  24596877.774   129257467.5713       2930.754          27.000  
R10  21327137.100   113685676.084       -3269.120          42.000  
R22  20569430.851   109800991.231        1317.767          47.000  
R11  19282677.913   103040748.401         394.196          47.000  
R21  20272361.490   108481488.903       -2113.773          50.000  
S20  37902634.074   199179678.814         100.961          39.000  
> 2017 11 15 18 42 33.8000000  0 15                     
G21  26220499.395                1       3932.671          19.000  
G 2  20914352.426   109905627.416       -1952.350          46.000  
G 5  23797015.982   125054151.832        2183.813          45.000  
G 6  24191998.136   127129785.661       -3261.879          29.000  
G12  20677754.748   108662337.056         285.105          50.000  
R12  21686844.382   115847303.117        3700.025          42.000  
G24  22061036.649   115931463.106       -2911.398          44.000  
G25  21733063.018   114207996.402        2179.787          48.000  
G29  21598591.518   113501366.072        1169.089          47.000  
G20  24596764.714   129256881.3523       2931.014          27.000  
R10  21327259.722   113686329.870       -3269.391          42.000  
R22  20569381.572   109800727.644        1317.610          47.000  
R11  19282663.202   103040669.530         393.934          47.000  
R21  20272440.382   108481911.614       -2113.669          50.000  
S20  37902630.200   199179658.707          99.802          39.000  
> 2017 11 15 18 42 34.0000000  0 15                     
G21  26220349.410                1       3932.671          19.000  
G 2  20914426.711   109906017.887       -1952.374          46.000  
G 5  23796932.640   125053715.006        2184.442          45.000  
G 6  24192124.144   127130438.173       -3261.885          29.000  
G12  20677743.999   108662280.053         285.034          50.000  
R12  21686706.019   115846563.168        3699.493          42.000  
G24  22061147.476   115932045.473       -2912.115          44.000  
G25  21732980.129   114207560.474        2179.510          48.000  
G29  21598546.985   113501132.296        1168.699          47.000  
G20  24596650.327   129256295.1703       2930.498          27.000  
R10  21327382.519   113686983.745       -3269.558          42.000  
R22  20569332.205   109800464.166        1316.969          48.000  
R11  19282648.457   103040590.739         393.719          47.000  
R21  20272519.432   108482334.381       -2113.799          50.000  
S20  37902626.501   199179638.591         100.255          39.000  
> 2017 11 15 18 42 34.2000000  0 15                     
G21  26220198.972                1       3932.671          19.000  
G 2  20914501.049   109906408.375       -1952.399          46.000  
G 5  23796849.402   125053278.259        2183.917          44.000  
G 6  24192246.557   127131090.673       -3263.019          29.000  
G12  20677733.371   108662223.063         284.911          50.000  
R12  21686567.743   115845823.205        3699.612          42.000  
G24  22061258.302   115932627.832       -2911.862          44.000  
G25  21732897.310   114207124.530        2179.556          48.000  
G29  21598502.521   113500898.503        1169.026          47.000  
G20  24596536.447   129255709.0052       2930.829          27.000  
R10  21327505.142   113687637.607       -3269.171          42.000  
R22  20569282.943   109800200.675        1317.419          48.000  
R11  19282633.537   103040511.979         393.828          47.000  
R21  20272598.324   108482757.167       -2113.991          50.000  
S20  37902622.784   199179618.516         100.658          39.000  
> 2017 11 15 18 42 34.4000000  0 15                     
G21  26220048.900                1       3933.384          18.000  
G 2  20914575.300   109906798.906       -1952.673          46.000  
G 5  23796766.270   125052841.454        2183.685          43.000  
G 6  24192369.162   127131743.191       -3262.090          30.000  
G12  20677722.552   108662166.078         284.918          50.000  
R12  21686429.363   115845083.251        3699.668          42.000  
G24  22061369.268   115933210.186       -2911.761          44.000  
G25  21732814.492   114206688.608        2179.671          48.000  
G29  21598457.971   113500664.746        1168.699          47.000  
G20  24596419.147   129255122.7442       2931.330          27.000  
R10  21327627.765   113688291.507       -3269.285          42.000  
R22  20569233.681   109799937.210        1317.241          48.000  
R11  19282618.757   103040433.258         393.439          47.000  
R21  20272677.374   108483179.962       -2114.120          51.000  
S20  37902619.015   199179598.457         100.466          39.000  
> 2017 11 15 18 42 34.6000000  0 15                     
G21  26219897.851                1       3930.655          18.000  
G 2  20914649.498   109907189.424       -1952.728          46.000  
G 5  23796683.259   125052404.660        2183.893          42.000  
G 6  24192490.633   127132395.720       -3262.802          30.000  
G12  20677711.698   108662109.095         284.924          50.000  
R12  21686291.122   115844343.321        3699.623          42.000  
G24  22061480.112   115933792.591       -2912.092          44.000  
G25  21732731.673   114206252.695        2179.461          48.000  
G29  21598413.473   113500430.971        1168.737          47.000  
G20  24596305.215   129254536.5473       2930.896          26.000  
R10  21327750.492   113688945.431       -3269.695          41.000  
R22  20569184.367   109799673.775        1317.026          48.000  
R11  19282603.889   103040354.549         393.516          47.000  
R21  20272756.249   108483602.748       -2113.991          51.000  
S20  37902615.193   199179578.407         100.244          39.000  
> 2017 11 15 18 42 34.8000000  0 15                     
G21  26219747.639                1       3930.655          18.000  
G 2  20914723.766   109907580.028       -1952.869          46.000  
G 5  23796600.248   125051967.952        2183.807          41.000  
G 6  24192613.378   127133048.238       -3262.746          30.000  
G12  20677700.931   108662052.189         284.558          50.000  
R12  21686152.533   115843603.471        3699.300          42.000  
G24  22061590.990   115934375.034       -2912.617          44.000  
G25  21732648.802   114205816.830        2179.290          48.000  
G29  21598369.010   113500197.292        1168.376          47.000  
G20  24596190.985   129253950.3182       2930.935          26.000  
R10  21327873.254   113689599.418       -3270.013          41.000  
R22  20569135.192   109799410.430        1316.304          48.000  
R11  19282589.179   103040275.954         392.813          47.000  
R21  20272835.298   108484025.613       -2114.201          50.000  
S20  37902611.371   199179558.387          99.869          40.000  
> 2017 11 15 18 42 35.0000000  0 15                     
G21  26219597.672                1       3923.861          18.000  
G 2  20914798.000   109907970.737       -1953.985          46.000  
G 5  23796517.412   125051531.332        2182.440          41.000  
G 6  24192737.816   127133700.875       -3264.020          31.000  
G12  20677690.182   108661995.358         283.704          50.000  
R12  21686014.257   115842863.701        3698.329          42.000  
G24  22061701.834   115934957.522       -2912.496          44.000  
G25  21732566.035   114205381.039        2178.781          47.000  
G29  21598324.529   113499963.663        1167.639          47.000  
G20  24596081.381   129253364.1223       2931.505          26.000  
R10  21327995.842   113690253.459       -3270.524          41.000  
R22  20569085.756   109799147.130        1316.053          48.000  
R11  19282574.486   103040197.424         392.106          47.000  
R21  20272914.435   108484448.568       -2115.158          50.000  
S20  37902607.515   199179538.402          99.641          40.000  
> 2017 11 15 18 42 35.2000000  0 15                     
G21  26219447.880                1       3929.069          18.000  
G 2  20914872.268   109908361.486       -1953.992          47.000  
G 5  23796434.471   125051094.692        2183.282          41.000  
G 6  24192862.079   127134353.546       -3263.117          31.000  
G12  20677679.328   108661938.552         283.915          50.000  
R12  21685875.755   115842123.925        3698.899          42.000  
G24  22061812.765   115935540.068       -2912.688          44.000  
G25  21732483.321   114204945.270        2178.676          47.000  
G29  21598280.136   113499730.042        1167.933          47.000  
G20  24595971.305   129252778.0623       2930.499          26.000  
R10  21328118.482   113690907.552       -3270.459          41.000  
R22  20569036.494   109798883.864        1316.276          48.000  
R11  19282559.810   103040118.944         392.353          47.000  
R21  20272993.432   108484871.547       -2115.082          50.000  
S20  37902603.728   199179518.466          99.597          40.000  
> 2017 11 15 18 42 35.4000000  0 15                     
G21  26219297.721                1       3926.175          18.000  
G 2  20914946.658   109908752.266       -1953.717          47.000  
G 5  23796351.705   125050658.118        2183.130          41.000  
G 6  24192985.172   127135006.261       -3263.452          31.000  
G12  20677668.474   108661881.793         284.103          49.000  
R12  21685737.375   115841384.207        3699.023          42.000  
G24  22061923.749   115936122.652       -2912.598          44.000  
G25  21732400.468   114204509.511        2179.224          46.000  
G29  21598235.533   113499496.447        1168.567          47.000  
G20  24595856.622   129252192.0082       2930.230          26.000  
R10  21328241.297   113691561.715       -3270.350          41.000  
R22  20568987.232   109798620.649        1316.527          48.000  
R11  19282545.082   103040040.537         392.273          47.000  
R21  20273072.464   108485294.551       -2114.785          50.000  
S20  37902599.872   199179498.548         100.073          40.000  
> 2017 11 15 18 42 35.6000000  0 15                     
G21  26219147.631                1       3926.175          18.000  
G 2  20915021.048   109909143.145       -1954.858          49.000  
G 5  23796269.183   125050221.577        2181.897          43.000  
G 6  24193107.045   127135659.031       -3264.148          34.000  
G12  20677657.864   108661825.099         282.984          51.000  
R12  21685599.012   115840644.564        3697.784          42.000  
G24  22062034.610   115936705.274       -2913.625          45.000  
G25  21732317.684   114204073.834        2178.125          48.000  
G29  21598190.948   113499262.939        1167.259          48.000  
G20  24595745.150   129251605.8622       2930.839          26.000  
R10  21328363.990   113692215.935       -3271.669          41.000  
R22  20568938.022   109798357.513        1315.088          48.000  
R11  19282530.459   103039962.208         390.990          47.000  
R21  20273151.671   108485717.628       -2115.794          49.000  
S20  37902596.103   199179478.671          98.568          41.000  
> 2017 11 15 18 42 35.8000000  0 15                     
G21  26218997.577                1       3929.360          17.000  
G 2  20915095.474   109909534.101       -1954.749          49.000  
G 5  23796186.469   125049785.052        2182.446          43.000  
G 6  24193232.320   127136311.892       -3264.147          34.000  
G12  20677646.975   108661768.481         283.118          52.000  
R12  21685460.719   115839905.026        3697.729          42.000  
G24  22062145.454   115937287.951       -2913.191          44.000  
G25  21732234.900   114203638.263        2177.904          48.000  
G29  21598146.485   113499029.512        1167.007          48.000  
G20  24595634.480   129251019.8893       2930.229          26.000  
R10  21328486.769   113692870.186       -3271.376          41.000  
R22  20568888.883   109798094.454        1315.253          48.000  
R11  19282515.748   103039883.973         391.141          47.000  
R21  20273230.668   108486140.812       -2115.956          49.000  
S20  37902592.229   199179458.797          99.307          41.000  
> 2017 11 15 18 42 36.0000000  0 15                     
G21  26218848.343                1       3929.360          17.000  
G 2  20915169.811   109909925.150       -1955.518          47.000  
G 5  23796103.528   125049348.479        2183.197          39.000  
G 6  24193358.275   127136964.900       -3265.630          34.000  
G12  20677636.104   108661711.937         282.511          49.000  
R12  21685322.409   115839165.633        3696.412          42.000  
G24  22062256.210   115937870.564       -2912.953          42.000  
G25  21732152.099   114203202.795        2176.788          46.000  
G29  21598102.091   113498796.169        1166.413          47.000  
G20  24595525.207   129250433.7353       2931.300          26.000  
R10  21328609.619   113693524.407       -3271.368          41.000  
R22  20568839.586   109797831.467        1314.614          48.000  
R11  19282501.020   103039805.823         390.301          47.000  
R21  20273309.735   108486564.091       -2116.943          49.000  
S20  37902588.494   199179438.918          99.542          40.000  
