     3.01           OBSERVATION DATA    M: Mixed            RINEX VERSION / TYPE
CONVBIN 2.4.3 Emlid                     20171125 153640 UTC PGM / RUN BY / DATE 
log: /home/reach/logs/rov_201711251243.ubx                  COMMENT             
format: u-blox                                              COMMENT             
                                                            MARKER NAME         
                                                            MARKER NUMBER       
                                                            MARKER TYPE         
                                                            OBSERVER / AGENCY   
                                                            REC # / TYPE / VERS 
                                                            ANT # / TYPE        
  3463707.6090 -4304276.4491 -3176336.7319                  APPROX POSITION XYZ 
        0.0000        0.0000        0.0000                  ANTENNA: DELTA H/E/N
G    4 C1C L1C D1C S1C                                      SYS / # / OBS TYPES 
R    4 C1C L1C D1C S1C                                      SYS / # / OBS TYPES 
E    4 C1C L1C D1C S1C                                      SYS / # / OBS TYPES 
J    4 C1C L1C D1C S1C                                      SYS / # / OBS TYPES 
S    4 C1C L1C D1C S1C                                      SYS / # / OBS TYPES 
C    4 C1I L1I D1I S1I                                      SYS / # / OBS TYPES 
  2017    11    25    12    43    8.9989999     GPS         TIME OF FIRST OBS   
  2017    11    25    12    45   39.3989999     GPS         TIME OF LAST OBS    
                                                            END OF HEADER       
> 2017 11 25 12 43  8.9989999  0 21                     
G 5  23515449.390   123574547.210       -2578.888          45.000  
G11  25219927.851   132531578.1563      -1151.951          29.000  
G13  20778771.458   109193302.884        1338.877          45.000  
R12  23809480.788   127185700.333        1735.859          32.000  
G17  20910876.796   109887531.669        1924.980          52.000  
G19  22119562.184   116239135.792        2520.798          46.000  
G20  24348167.324   127950595.097        -924.326          39.000  
G28  20322347.437   106794764.702       -2325.064          50.000  
G30  21791700.374   114516255.420       -1725.708          46.000  
R 7  24129419.366                1      -4592.883          25.000  
S38  39288732.231   206463728.246        -293.779          42.000  
R11  20792872.386   111110934.781         530.366          49.000  
R 1  20609584.736   110170183.094        -325.147          46.000  
G15  23204327.294   121939592.213        2692.242          46.000  
G 7  24049448.424   126380695.264       -2582.169          42.000  
R 8  20909347.089   111968680.699       -3607.001          48.000  
R20  21367147.048   114259859.593         120.054          40.000  
R21  21563133.365   115388904.504        3191.190          43.000  
R10  21029351.525   112098400.258       -1537.854          42.000  
R 2  23779094.190   126889633.6892       2999.244          30.000  
S20  37780758.438   198539343.650        -223.915          40.000  
> 2017 11 25 12 43  9.1989999  0 21                     
G 5  23515547.739   123575062.962       -2578.571          45.000  
G11  25219972.349   132531808.2653      -1150.409          28.000  
G13  20778720.469   109193035.077        1338.978          45.000  
R12  23809415.769   127185353.147        1736.264          31.000  
G17  20910803.715   109887146.643        1925.085          52.000  
G19  22119466.243   116238631.616        2520.824          46.000  
G20  24348202.503   127950779.953        -924.383          39.000  
G28  20322435.980   106795229.681       -2324.872          50.000  
G30  21791765.917   114516600.575       -1725.664          46.000  
R 7  24129591.635                1      -4593.139          26.000  
S38  39288743.399   206463786.964        -293.605          42.000  
R11  20792852.597   111110828.659         530.697          49.000  
R 1  20609597.021   110170248.093        -325.043          46.000  
G15  23204224.722   121939053.803        2692.132          45.000  
G 7  24049546.738   126381211.666       -2581.866          42.000  
R 8  20909481.525   111969402.037       -3606.706          48.000  
R20  21367142.545   114259835.514         120.468          40.000  
R21  21563013.936   115388266.246        3191.365          43.000  
R10  21029409.075   112098707.798       -1537.672          42.000  
R 2  23778980.135   126889033.7722       3000.713          29.000  
S20  37780766.884   198539388.344        -223.525          40.000  
> 2017 11 25 12 43  9.3989999  0 21                     
G 5  23515646.019   123575578.747       -2579.095          46.000  
G11  25220012.974   132532038.5163      -1151.424          28.000  
G13  20778669.584   109192767.304        1338.894          45.000  
R12  23809350.889   127185005.959        1736.208          31.000  
G17  20910730.494   109886761.651        1924.874          52.000  
G19  22119370.197   116238127.450        2520.753          46.000  
G20  24348237.578   127950964.848        -924.360          39.000  
G28  20322524.487   106795694.661       -2325.051          50.000  
G30  21791831.529   114516945.746       -1726.211          46.000  
R 7  24129763.799                1      -4593.076          26.000  
S38  39288754.707   206463845.709        -293.816          42.000  
R11  20792832.844   111110722.564         530.363          49.000  
R 1  20609609.026   110170313.147        -325.421          46.000  
G15  23204122.219   121938515.384        2692.244          45.000  
G 7  24049645.192   126381728.070       -2582.086          42.000  
R 8  20909616.136   111970123.406       -3606.911          48.000  
R20  21367138.113   114259811.504         119.756          40.000  
R21  21562894.577   115387628.011        3191.144          43.000  
R10  21029466.626   112099015.344       -1537.803          42.000  
R 2  23778866.360   126888433.9513       2999.148          29.000  
S20  37780775.365   198539433.051        -223.611          40.000  
> 2017 11 25 12 43  9.5989999  0 21                     
G 5  23515744.298   123576094.534       -2578.925          46.000  
G11  25220056.669   132532268.7862      -1151.274          28.000  
G13  20778618.490   109192499.556        1338.593          45.000  
R12  23809285.834   127184658.779        1735.663          32.000  
G17  20910657.238   109886376.671        1924.850          52.000  
G19  22119274.221   116237623.290        2520.792          46.000  
G20  24348272.793   127951149.759        -924.509          39.000  
G28  20322613.029   106796159.675       -2325.160          50.000  
G30  21791897.282   114517290.890       -1725.936          46.000  
R 7  24129935.614                1      -4593.574          26.000  
S38  39288765.945   206463904.447        -293.767          42.000  
R11  20792813.055   111110616.465         530.413          49.000  
R 1  20609621.276   110170378.219        -325.421          46.000  
G15  23204019.856   121937976.963        2692.138          46.000  
G 7  24049743.577   126382244.469       -2582.112          42.000  
R 8  20909750.782   111970844.779       -3606.785          48.000  
R20  21367133.646   114259787.498         119.694          40.000  
R21  21562775.147   115386989.794        3191.142          43.000  
R10  21029524.212   112099322.897       -1537.523          42.000  
R 2  23778754.469   126887834.0433       2999.575          29.000  
S20  37780783.776   198539477.745        -223.312          40.000  
> 2017 11 25 12 43  9.7989999  0 21                     
G 5  23515842.369   123576610.273       -2578.455          46.000  
G11  25220103.994   132532499.0582      -1151.356          28.000  
G13  20778567.745   109192231.782        1338.967          45.000  
R12  23809220.745   127184311.573        1736.328          32.000  
G17  20910583.982   109885991.683        1925.159          52.000  
G19  22119178.419   116237119.114        2521.038          46.000  
G20  24348308.007   127951334.644        -924.389          40.000  
G28  20322701.467   106796624.652       -2324.742          50.000  
G30  21791962.825   114517636.026       -1725.459          46.000  
R 7  24130106.940                1      -4591.645          26.000  
S38  39288777.183   206463963.149        -293.318          42.000  
R11  20792793.267   111110510.335         530.645          49.000  
R 1  20609633.457   110170443.297        -325.256          46.000  
G15  23203917.284   121937438.532        2692.391          46.000  
G 7  24049841.787   126382760.852       -2581.519          42.000  
R 8  20909885.358   111971566.142       -3606.616          48.000  
R20  21367129.318   114259763.477         119.997          40.000  
R21  21562655.858   115386351.539        3191.268          44.000  
R10  21029581.833   112099630.416       -1537.358          42.000  
R 2  23778645.580   126887234.2353       2998.735          29.000  
S20  37780792.187   198539522.394        -223.219          40.000  
> 2017 11 25 12 43  9.9989999  0 21                     
G 5  23515940.579   123577125.991       -2578.326          46.000  
G11  25220147.689   132532729.3162      -1151.410          28.000  
G13  20778516.755   109191963.982        1339.192          45.000  
R12  23809155.656   127183964.312        1736.249          32.000  
G17  20910510.725   109885606.682        1925.102          52.000  
G19  22119082.478   116236614.913        2521.133          46.000  
G20  24348343.082   127951519.483        -923.950          40.000  
G28  20322789.975   106797089.598       -2324.633          50.000  
G30  21792028.473   114517981.131       -1725.253          46.000  
R 7  24130279.348                1      -4592.448          27.000  
S38  39288788.386   206464021.812        -292.748          42.000  
R11  20792773.478   111110404.160         530.975          49.000  
R 1  20609645.776   110170508.369        -325.378          46.000  
G15  23203814.711   121936900.079        2692.586          46.000  
G 7  24049940.101   126383277.191       -2581.425          42.000  
R 8  20910020.074   111972287.485       -3606.437          48.000  
R20  21367124.746   114259739.463         120.186          40.000  
R21  21562536.498   115385713.260        3191.588          44.000  
R10  21029639.418   112099937.886       -1537.147          42.000  
R 2  23778532.188   126886634.2982       2999.687          29.000  
S20  37780800.807   198539566.984        -222.915          40.000  
> 2017 11 25 12 43 10.1989999  0 21                     
G 5  23516038.684   123577641.647       -2578.210          46.000  
G11  25220191.734   132532959.4393      -1150.140          28.000  
G13  20778465.731   109191696.138        1339.248          45.000  
R12  23809090.566   127183616.988        1737.663          32.000  
G17  20910437.330   109885221.627        1925.358          52.000  
G19  22118986.536   116236110.650        2521.413          46.000  
G20  24348378.262   127951704.293        -924.019          40.000  
G28  20322878.377   106797554.499       -2324.402          50.000  
G30  21792094.155   114518326.175       -1725.029          46.000  
R 7  24130449.907                1      -4592.303          27.000  
S38  39288799.589   206464080.453        -292.968          42.000  
R11  20792753.725   111110297.922         531.377          49.000  
R 1  20609657.817   110170573.397        -325.214          46.000  
G15  23203712.209   121936361.575        2692.597          46.000  
G 7  24050038.451   126383793.478       -2581.285          42.000  
R 8  20910154.824   111973008.785       -3606.391          48.000  
R20  21367120.174   114259715.428         120.337          40.000  
R21  21562417.034   115385074.930        3191.820          44.000  
R10  21029697.039   112100245.292       -1536.904          42.000  
R 2  23778424.346   126886034.3552       2999.671          29.000  
S20  37780809.148   198539611.519        -222.759          40.000  
> 2017 11 25 12 43 10.3989999  0 21                     
G 5  23516136.963   123578157.212       -2577.472          46.000  
G11  25220238.465   132533189.4933      -1149.728          28.000  
G13  20778414.776   109191428.217        1339.907          45.000  
R12  23809025.512   127183269.592        1737.165          31.000  
G17  20910363.969   109884836.497        1926.031          52.000  
G19  22118890.525   116235606.309        2522.092          46.000  
G20  24348413.232   127951889.009        -923.075          39.000  
G28  20322966.780   106798019.317       -2323.684          50.000  
G30  21792159.628   114518671.128       -1724.362          46.000  
R 7  24130621.966   129173138.0213      -4591.018          26.000  
S38  39288810.652   206464138.956        -292.396          42.000  
R11  20792733.727   111110191.597         532.133          49.000  
R 1  20609669.962   110170638.374        -324.579          46.000  
G15  23203609.776   121935822.981        2693.332          46.000  
G 7  24050136.730   126384309.660       -2580.443          42.000  
R 8  20910289.645   111973729.995       -3605.764          48.000  
R20  21367115.847   114259691.309         120.803          40.000  
R21  21562297.535   115384436.508        3192.607          44.000  
R10  21029754.625   112100552.610       -1536.120          42.000  
R 2  23778315.003   126885434.3042       3000.672          29.000  
S20  37780817.559   198539655.972        -221.868          40.000  
> 2017 11 25 12 43 10.5989999  0 21                     
G 5  23516235.103   123578672.762       -2577.771          46.000  
G11  25220282.824   132533419.6273      -1150.637          28.000  
G13  20778363.682   109191160.286        1339.505          45.000  
R12  23808960.457   127182922.159        1737.256          31.000  
G17  20910290.678   109884451.365        1925.667          52.000  
G19  22118794.409   116235101.958        2521.824          46.000  
G20  24348448.412   127952073.735        -923.487          39.000  
G28  20323055.392   106798484.125       -2323.962          50.000  
G30  21792225.206   114519016.058       -1724.540          46.000  
R 7  24130793.187                1      -4591.155          27.000  
S38  39288821.856   206464197.425        -292.590          42.000  
R11  20792713.868   111110085.257         531.678          49.000  
R 1  20609682.247   110170703.351        -324.762          46.000  
G15  23203507.308   121935284.382        2692.850          47.000  
G 7  24050234.766   126384825.847       -2581.006          42.000  
R 8  20910424.430   111974451.204       -3606.009          48.000  
R20  21367111.414   114259667.208         120.484          40.000  
R21  21562178.280   115383798.076        3192.157          43.000  
R10  21029812.245   112100859.900       -1536.405          42.000  
R 2  23778203.112   126884834.2612       3000.154          29.000  
S20  37780825.831   198539700.401        -222.105          40.000  
> 2017 11 25 12 43 10.7989999  0 21                     
G 5  23516333.069   123579188.247       -2577.344          45.000  
G11  25220327.287   132533649.6383      -1150.289          28.000  
G13  20778312.867   109190892.315        1339.880          45.000  
R12  23808895.543   127182574.601        1738.725          31.000  
G17  20910217.352   109884066.195        1925.830          52.000  
G19  22118698.329   116234597.552        2522.095          46.000  
G20  24348483.347   127952258.408        -923.499          39.000  
G28  20323143.795   106798948.882       -2323.620          50.000  
G30  21792290.610   114519360.922       -1724.196          46.000  
R 7  24130965.211                1      -4591.165          27.000  
S38  39288832.954   206464255.834        -292.043          42.000  
R11  20792694.115   111109978.847         532.071          49.000  
R 1  20609694.567   110170768.319        -324.945          46.000  
G15  23203404.736   121934745.714        2693.402          47.000  
G 7  24050333.045   126385341.963       -2580.522          42.000  
R 8  20910559.216   111975172.365       -3605.873          48.000  
R20  21367106.947   114259643.076         120.436          40.000  
R21  21562058.851   115383159.594        3192.443          43.000  
R10  21029869.726   112101167.135       -1536.328          42.000  
R 2  23778092.652   126884234.2062       3000.450          29.000  
S20  37780834.346   198539744.760        -221.851          40.000  
> 2017 11 25 12 43 10.9989999  0 21                     
G 5  23516431.069   123579703.696       -2577.228          45.000  
G11  25220373.321   132533879.6822      -1149.955          28.000  
G13  20778261.842   109190624.333        1339.866          45.000  
R12  23808830.558   127182227.110        1737.524          31.000  
G17  20910144.062   109883681.012        1925.885          52.000  
G19  22118602.317   116234093.126        2522.087          46.000  
G20  24348518.666   127952443.045        -923.175          39.000  
G28  20323232.128   106799413.624       -2323.836          50.000  
G30  21792356.118   114519705.781       -1724.196          46.000  
R 7  24131135.875                1      -4591.070          27.000  
S38  39288844.122   206464314.239        -292.020          42.000  
R11  20792674.221   111109872.417         532.154          49.000  
R 1  20609706.992   110170833.266        -324.896          46.000  
G15  23203302.024   121934207.049        2693.439          47.000  
G 7  24050431.185   126385858.042       -2580.533          42.000  
R 8  20910694.001   111975893.520       -3605.822          48.000  
R20  21367102.549   114259618.917         120.738          40.000  
R21  21561939.421   115382521.091        3192.580          43.000  
R10  21029927.312   112101474.329       -1535.984          42.000  
R 2  23777982.646   126883634.1112       3000.421          29.000  
S20  37780842.792   198539789.100        -221.959          40.000  
> 2017 11 25 12 43 11.1989999  0 21                     
G 5  23516528.895   123580219.173       -2577.405          45.000  
G11  25220413.700   132534109.7442      -1150.686          28.000  
G13  20778210.713   109190356.382        1339.625          45.000  
R12  23808765.399   127181879.591        1737.226          32.000  
G17  20910070.701   109883295.854        1925.703          52.000  
G19  22118506.306   116233588.725        2521.983          46.000  
G20  24348553.811   127952627.724        -923.451          39.000  
G28  20323320.461   106799878.376       -2323.829          50.000  
G30  21792421.626   114520050.643       -1724.351          46.000  
R 7  24131307.271   129176810.8013      -4590.448          27.000  
S38  39288855.116   206464372.633        -291.859          42.000  
R11  20792654.223   111109766.003         532.123          49.000  
R 1  20609719.416   110170898.262        -325.037          46.000  
G15  23203199.451   121933668.384        2693.230          47.000  
G 7  24050529.465   126386374.112       -2580.415          42.000  
R 8  20910828.682   111976614.685       -3605.735          48.000  
R20  21367098.082   114259594.825         120.500          40.000  
R21  21561820.027   115381882.607        3192.332          43.000  
R10  21029984.828   112101781.523       -1535.856          42.000  
R 2  23777874.664   126883033.9972       3000.529          28.000  
S20  37780851.238   198539833.439        -221.866          40.000  
> 2017 11 25 12 43 11.3989999  0 21                     
G 5  23516626.861   123580734.579       -2576.947          44.000  
G11  25220458.373   132534339.7882      -1150.314          28.000  
G13  20778159.724   109190088.370        1340.023          45.000  
R12  23808700.275   127181531.970        1737.846          31.000  
G17  20909997.515   109882910.655        1926.029          52.000  
G19  22118410.121   116233084.251        2522.333          46.000  
G20  24348588.921   127952812.338        -922.994          39.000  
G28  20323408.934   106800343.065       -2323.297          50.000  
G30  21792487.274   114520395.442       -1723.907          46.000  
R 7  24131479.051   129177728.8753      -4590.076          27.000  
S38  39288866.284   206464430.962        -291.468          42.000  
R11  20792634.191   111109659.509         532.565          49.000  
R 1  20609731.597   110170963.221        -324.866          46.000  
G15  23203096.879   121933129.664        2693.615          46.000  
G 7  24050627.779   126386890.131       -2579.822          42.000  
R 8  20910963.467   111977335.811       -3605.535          48.000  
R20  21367093.615   114259570.671         120.762          40.000  
R21  21561700.528   115381244.042        3192.816          43.000  
R10  21030042.344   112102088.656       -1535.442          42.000  
R 2  23777766.263   126882433.8823       3001.268          28.000  
S20  37780859.824   198539877.690        -221.126          40.000  
> 2017 11 25 12 43 11.5989999  0 21                     
G 5  23516724.687   123581249.946       -2576.862          44.000  
G11  25220507.652   132534569.6192      -1148.702          28.000  
G13  20778108.874   109189820.333        1339.874          45.000  
R12  23808635.150   127181184.325        1738.483          31.000  
G17  20909924.189   109882525.425        1926.073          52.000  
G19  22118314.075   116232579.749        2522.395          46.000  
G20  24348624.066   127952996.947        -923.227          39.000  
G28  20323497.546   106800807.735       -2323.421          50.000  
G30  21792552.921   114520740.204       -1723.926          46.000  
R 7  24131650.377   129178646.8773      -4589.759          27.000  
S38  39288877.208   206464489.235        -291.330          42.000  
R11  20792614.262   111109552.980         532.689          49.000  
R 1  20609743.847   110171028.162        -324.933          46.000  
G15  23202994.342   121932590.886        2693.889          46.000  
G 7  24050725.989   126387406.113       -2580.116          42.000  
R 8  20911098.323   111978056.903       -3605.577          48.000  
R20  21367089.287   114259546.509         120.621          40.000  
R21  21561581.099   115380605.455        3192.822          43.000  
R10  21030099.929   112102395.743       -1535.281          42.000  
R 2  23777658.525   126881833.8163       3000.050          28.000  
S20  37780868.339   198539921.905        -220.976          40.000  
> 2017 11 25 12 43 11.7989999  0 21                     
G 5  23516822.722   123581765.287       -2576.678          44.000  
G11  25220553.023   132534799.6702      -1150.200          28.000  
G13  20778057.989   109189552.275        1340.231          45.000  
R12  23808569.956   127180836.695        1737.657          32.000  
G17  20909850.793   109882140.187        1926.320          52.000  
G19  22118217.924   116232075.230        2522.600          46.000  
G20  24348659.106   127953181.519        -922.814          40.000  
G28  20323585.914   106801272.386       -2323.199          50.000  
G30  21792618.464   114521084.941       -1723.567          46.000  
R 7  24131822.227   129179564.8683      -4589.656          28.000  
S38  39288888.271   206464547.475        -290.967          42.000  
R11  20792594.299   111109446.425         532.825          49.000  
R 1  20609755.957   110171093.110        -324.841          46.000  
G15  23202891.769   121932052.112        2693.989          46.000  
G 7  24050824.094   126387922.061       -2579.850          42.000  
R 8  20911232.899   111978777.969       -3605.168          48.000  
R20  21367084.855   114259522.368         120.765          40.000  
R21  21561461.600   115379966.859        3193.259          44.000  
R10  21030157.550   112102702.791       -1535.151          42.000  
R 2  23777547.751   126881233.5853       3001.610          28.000  
S20  37780876.785   198539966.099        -220.925          40.000  
> 2017 11 25 12 43 11.9989999  0 21                     
G 5  23516920.583   123582280.634       -2576.941          44.000  
G11  25220601.081   132535029.5762      -1149.632          28.000  
G13  20778006.964   109189284.244        1340.025          45.000  
R12  23808504.728   127180488.974        1738.626          32.000  
G17  20909777.502   109881754.971        1925.827          52.000  
G19  22118121.738   116231570.714        2522.460          46.000  
G20  24348694.320   127953366.092        -922.995          40.000  
G28  20323674.317   106801737.034       -2323.304          50.000  
G30  21792683.833   114521429.691       -1723.783          46.000  
R 7  24131994.251   129180482.8662      -4589.809          27.000  
S38  39288899.404   206464605.713        -290.992          42.000  
R11  20792574.301   111109339.862         532.699          49.000  
R 1  20609768.068   110171158.089        -325.201          46.000  
G15  23202789.197   121931513.332        2693.643          46.000  
G 7  24050922.374   126388438.005       -2580.022          42.000  
R 8  20911367.649   111979499.067       -3605.621          48.000  
R20  21367080.248   114259498.231         120.503          40.000  
R21  21561342.205   115379328.277        3192.887          44.000  
R10  21030214.996   112103009.836       -1535.408          42.000  
R 2  23777433.976   126880633.4893       3000.611          28.000  
S20  37780885.231   198540010.274        -220.918          40.000  
> 2017 11 25 12 43 12.3989999  0 21                     
G 5  23517116.339   123583311.311       -2576.660          44.000  
G11  25220696.150   132535489.0111      -1149.889          28.000  
G13  20777905.055   109188748.218        1340.081          45.000  
R12  23808374.549   127179793.609        1738.478          31.000  
G17  20909630.397   109880984.573        1925.797          52.000  
G19  22117929.542   116230561.707        2522.417          46.000  
G20  24348764.575   127953735.272        -923.133          40.000  
G28  20323851.192   106802666.369       -2323.629          50.000  
G30  21792815.128   114522119.176       -1723.956          46.000  
R 7  24132337.322   129182318.8093      -4590.059          27.000  
S38  39288921.426   206464722.185        -291.238          41.000  
R11  20792534.340   111109126.714         532.796          49.000  
R 1  20609792.568   110171288.117        -325.378          46.000  
G15  23202584.087   121930435.821        2693.628          46.000  
G 7  24051118.759   126389469.892       -2579.789          42.000  
R 8  20911637.046   111980941.286       -3605.678          48.000  
R20  21367071.523   114259450.071         120.053          40.000  
R21  21561103.486   115378051.112        3192.859          44.000  
R10  21030330.133   112103623.919       -1535.024          42.000  
R 2  23777212.254   126879432.7891       2999.782          27.000  
S20  37780901.983   198540098.606        -220.633          40.000  
> 2017 11 25 12 43 12.5989999  0 21                     
G 5  23517214.340   123583826.625       -2576.599          44.000  
G11  25220739.042   132535719.095       -1150.272          28.000  
G13  20777854.066   109188480.207        1340.077          45.000  
R12  23808309.495   127179445.874        1739.111          31.000  
G17  20909557.001   109880599.376        1925.865          51.000  
G19  22117833.566   116230057.190        2522.596          46.000  
G20  24348799.650   127953919.866        -922.873          40.000  
G28  20323939.490   106803131.013       -2323.070          50.000  
G30  21792880.636   114522463.885       -1723.624          46.000  
R 7  24132508.683   129183236.6733      -4589.330          27.000  
S38  39288932.560   206464780.393        -290.914          41.000  
R11  20792514.447   111109020.117         532.964          49.000  
R 1  20609804.643   110171353.150        -325.134          46.000  
G15  23202481.480   121929897.047        2693.791          46.000  
G 7  24051217.003   126389985.821       -2579.650          42.000  
R 8  20911771.727   111981662.398       -3605.584          48.000  
R20  21367067.160   114259426.005         120.299          40.000  
R21  21560984.231   115377412.516        3193.087          44.000  
R10  21030387.684   112103930.937       -1535.155          42.000  
R 2  23777101.584   126878832.6391       3000.280          27.000  
S20  37780910.534   198540142.746        -220.641          40.000  
> 2017 11 25 12 43 12.7989999  0 21                     
G 5  23517312.305   123584341.919       -2576.801          44.000  
G11  25220781.935   132535948.956       -1149.487          28.000  
G13  20777803.041   109188212.192        1339.674          45.000  
R12  23808244.370   127179098.127        1738.004          31.000  
G17  20909483.675   109880214.176        1925.778          51.000  
G19  22117737.624   116229552.657        2522.456          46.000  
G20  24348834.795   127954104.466        -923.415          40.000  
G28  20324027.893   106803595.655       -2323.310          50.000  
G30  21792946.180   114522808.582       -1723.513          46.000  
R 7  24132679.695   129184154.6052      -4589.428          27.000  
S38  39288943.658   206464838.579        -291.404          42.000  
R11  20792494.624   111108913.501         532.945          49.000  
R 1  20609816.754   110171418.195        -325.446          46.000  
G15  23202378.872   121929358.241        2693.994          45.000  
G 7  24051315.353   126390501.713       -2579.573          42.000  
R 8  20911906.582   111982383.508       -3605.759          48.000  
R20  21367062.833   114259401.930         120.198          40.000  
R21  21560864.907   115376773.914        3192.740          44.000  
R10  21030445.234   112104237.938       -1535.203          42.000  
R 2  23776990.391   126878232.4921       3000.642          27.000  
S20  37780918.910   198540186.860        -220.731          40.000  
> 2017 11 25 12 43 12.9989999  0 21                     
G 5  23517410.306   123584857.170       -2576.251          44.000  
G11  25220825.525   132536178.958       -1149.885          28.000  
G13  20777752.156   109187944.142        1340.035          45.000  
R12  23808179.141   127178750.334        1738.917          31.000  
G17  20909410.419   109879828.954        1926.122          52.000  
G19  22117641.613   116229048.096        2522.674          46.000  
G20  24348870.009   127954289.001        -922.723          40.000  
G28  20324116.191   106804060.265       -2323.022          50.000  
G30  21793011.862   114523153.257       -1723.457          46.000  
R 7  24132850.568   129185072.3912      -4588.290          27.000  
S38  39288954.721   206464896.729        -290.702          41.000  
R11  20792474.661   111108806.841         533.274          49.000  
R 1  20609828.969   110171483.242        -325.171          46.000  
G15  23202276.160   121928819.417        2694.171          45.000  
G 7  24051413.598   126391017.581       -2579.158          42.000  
R 8  20912041.263   111983104.583       -3605.496          48.000  
R20  21367058.400   114259377.868         120.409          40.000  
R21  21560745.722   115376135.281        3193.248          44.000  
R10  21030502.715   112104544.876       -1534.899          42.000  
R 2  23776881.013   126877632.4481       2999.854          27.000  
S20  37780927.147   198540230.921        -220.295          40.000  
> 2017 11 25 12 43 13.1989999  0 21                     
G 5  23517508.306   123585372.451       -2576.050          44.000  
G11  25220869.011   132536408.860       -1149.234          28.000  
G13  20777701.202   109187676.112        1340.482          45.000  
R12  23808113.912   127178402.572        1738.393          31.000  
G17  20909337.129   109879443.761        1926.144          52.000  
G19  22117545.567   116228543.549        2522.965          46.000  
G20  24348905.189   127954473.579        -922.404          40.000  
G28  20324204.524   106804524.896       -2322.811          50.000  
G30  21793077.440   114523497.926       -1723.099          46.000  
R 7  24133022.243   129185990.2723      -4589.373          27.000  
S38  39288965.820   206464954.865        -290.377          41.000  
R11  20792454.593   111108700.182         533.671          49.000  
R 1  20609841.184   110171548.310        -325.110          46.000  
G15  23202173.518   121928280.603        2694.444          45.000  
G 7  24051511.633   126391533.444       -2578.950          42.000  
R 8  20912176.048   111983825.680       -3605.203          48.000  
R20  21367054.038   114259353.833         120.583          40.000  
R21  21560626.327   115375496.658        3193.509          44.000  
R10  21030560.441   112104851.822       -1534.420          42.000  
R 2  23776769.541   126877032.1991       3001.410          26.000  
S20  37780935.523   198540274.981        -219.844          40.000  
> 2017 11 25 12 43 13.3989999  0 21                     
G 5  23517606.341   123585887.677       -2576.147          44.000  
G11  25220915.569   132536638.785       -1149.657          28.000  
G13  20777650.317   109187408.077        1340.105          45.000  
R12  23808048.823   127178054.731        1739.885          32.000  
G17  20909263.907   109879058.542        1926.077          52.000  
G19  22117449.556   116228038.971        2522.794          46.000  
G20  24348940.299   127954658.124        -922.823          40.000  
G28  20324292.927   106804989.494       -2323.036          50.000  
G30  21793143.018   114523842.561       -1723.164          46.000  
R 7  24133194.861   129186908.0613      -4588.794          27.000  
S38  39288976.883   206465012.950        -290.121          41.000  
R11  20792434.560   111108593.493         533.444          49.000  
R 1  20609853.225   110171613.372        -325.501          46.000  
G15  23202070.806   121927741.766        2694.109          45.000  
G 7  24051609.633   126392049.283       -2579.391          42.000  
R 8  20912310.938   111984546.754       -3605.362          48.000  
R20  21367049.536   114259329.777         120.301          40.000  
R21  21560507.108   115374858.015        3193.245          44.000  
R10  21030618.026   112105158.724       -1534.524          42.000  
R 2  23776657.232   126876431.9841       3001.741          26.000  
S20  37780943.829   198540319.006        -220.411          40.000  
> 2017 11 25 12 43 13.5989999  0 21                     
G 5  23517704.307   123586402.917       -2576.447          44.000  
G11  25220957.589   132536868.788       -1150.143          28.000  
G13  20777599.118   109187140.041        1340.136          45.000  
R12  23807983.594   127177706.922        1738.890          32.000  
G17  20909190.582   109878673.346        1925.956          52.000  
G19  22117353.475   116227534.406        2522.901          46.000  
G20  24348975.408   127954842.686        -922.984          40.000  
G28  20324381.155   106805454.098       -2323.085          50.000  
G30  21793208.596   114524187.214       -1723.363          46.000  
R 7  24133366.815   129187825.7613      -4588.127          27.000  
S38  39288987.982   206465071.076        -290.729          41.000  
R11  20792414.492   111108486.802         533.434          48.000  
R 1  20609865.265   110171678.463        -325.592          46.000  
G15  23201968.129   121927202.928        2693.966          45.000  
G 7  24051707.808   126392565.092       -2578.997          42.000  
R 8  20912445.829   111985267.844       -3605.436          48.000  
R20  21367045.103   114259305.782         119.933          40.000  
R21  21560387.643   115374219.376        3193.256          44.000  
R10  21030675.542   112105465.635       -1534.583          42.000  
R 2  23776544.887                1       3001.243          26.000  
S20  37780952.100   198540363.024        -220.264          40.000  
> 2017 11 25 12 43 13.7989999  0 21                     
G 5  23517802.307   123586918.135       -2576.093          44.000  
G11  25221000.028   132537098.698       -1149.445          28.000  
G13  20777547.954   109186872.028        1340.034          45.000  
R12  23807918.365   127177359.120        1738.887          32.000  
G17  20909117.395   109878288.163        1925.850          52.000  
G19  22117257.359   116227029.862        2522.706          46.000  
G20  24349010.553   127955027.238        -922.891          40.000  
G28  20324469.453   106805918.715       -2323.128          50.000  
G30  21793273.999   114524531.857       -1723.397          46.000  
R 7  24133538.874   129188743.5853      -4589.141          27.000  
S38  39288999.080   206465129.143        -290.765          41.000  
R11  20792394.529   111108380.100         533.483          48.000  
R 1  20609877.341   110171743.589        -325.684          46.000  
G15  23201865.452   121926664.125        2693.931          45.000  
G 7  24051805.774   126393080.916       -2579.259          41.000  
R 8  20912580.614   111985988.949       -3605.489          48.000  
R20  21367040.741   114259281.779         119.940          40.000  
R21  21560268.319   115373580.747        3193.164          44.000  
R10  21030733.163   112105772.533       -1534.341          42.000  
R 2  23776431.775                1       2999.377          25.000  
S20  37780960.372   198540407.040        -220.059          40.000  
> 2017 11 25 12 43 13.9989999  0 21                     
G 5  23517900.238   123587433.377       -2575.964          44.000  
G11  25221043.549   132537328.727       -1149.994          29.000  
G13  20777497.104   109186604.043        1340.103          45.000  
R12  23807853.067   127177011.305        1738.644          32.000  
G17  20909044.174   109877903.007        1925.954          52.000  
G19  22117161.313   116226525.314        2522.805          46.000  
G20  24349045.698   127955211.829        -923.057          40.000  
G28  20324557.682   106806383.346       -2322.923          50.000  
G30  21793339.612   114524876.493       -1723.038          46.000  
R 7  24133710.270   129189661.3683      -4588.973          27.000  
S38  39289010.178   206465187.207        -290.187          42.000  
R11  20792374.671   111108273.404         533.619          49.000  
R 1  20609889.486   110171808.749        -325.641          46.000  
G15  23201762.810   121926125.331        2694.129          45.000  
G 7  24051903.879   126393596.764       -2579.156          41.000  
R 8  20912715.365   111986710.078       -3605.448          48.000  
R20  21367036.308   114259257.832         119.647          40.000  
R21  21560149.204   115372942.138        3193.287          44.000  
R10  21030790.714   112106079.462       -1534.597          42.000  
R 2  23776317.895                1       2999.697          25.000  
S20  37780968.748   198540451.047        -219.657          40.000  
> 2017 11 25 12 43 14.1989999  0 21                     
G 5  23517998.169   123587948.582       -2575.989          44.000  
G11  25221086.616   132537558.666       -1149.591          29.000  
G13  20777446.219   109186336.032        1339.855          45.000  
R12  23807787.803   127176663.386        1739.638          32.000  
G17  20908970.988   109877517.833        1925.799          52.000  
G19  22117065.198   116226020.741        2522.783          46.000  
G20  24349080.843   127955396.387        -922.608          40.000  
G28  20324645.980   106806847.952       -2323.110          50.000  
G30  21793405.260   114525221.128       -1723.181          46.000  
R 7  24133881.946   129190579.0383      -4588.220          27.000  
S38  39289021.207   206465245.249        -289.928          42.000  
R11  20792354.673   111108166.670         533.661          49.000  
R 1  20609901.736   110171873.900        -325.928          46.000  
G15  23201660.342   121925586.479        2694.212          46.000  
G 7  24052001.879   126394112.544       -2578.878          41.000  
R 8  20912850.080   111987431.181       -3605.663          48.000  
R20  21367031.841   114259233.858         119.917          40.000  
R21  21560030.054   115372303.497        3193.107          44.000  
R10  21030848.195   112106386.321       -1534.509          42.000  
R 2  23776204.364                1       3001.020          25.000  
S20  37780977.054   198540495.013        -219.940          40.000  
> 2017 11 25 12 43 14.3989999  0 21                     
G 5  23518096.029   123588463.779       -2576.282          44.000  
G11  25221124.622   132537788.599       -1149.705          30.000  
G13  20777395.404   109186068.028        1339.594          45.000  
R12  23807722.574   127176315.510        1739.826          32.000  
G17  20908897.732   109877132.668        1925.482          52.000  
G19  22116969.256   116225516.178        2522.459          46.000  
G20  24349115.952   127955580.957        -923.099          40.000  
G28  20324734.348   106807312.556       -2323.276          50.000  
G30  21793470.942   114525565.746       -1723.481          46.000  
R 7  24134053.202   129191496.6953      -4588.352          27.000  
S38  39289032.235   206465303.273        -290.180          42.000  
R11  20792334.640   111108059.937         533.378          48.000  
R 1  20609913.847   110171939.072        -326.263          46.000  
G15  23201557.700   121925047.634        2693.979          46.000  
G 7  24052100.019   126394628.334       -2579.110          42.000  
R 8  20912984.901   111988152.293       -3605.856          48.000  
R20  21367027.304   114259209.925         119.382          40.000  
R21  21559910.869   115371664.859        3192.969          44.000  
R10  21030905.711   112106693.165       -1534.624          42.000  
R 2  23776091.845                1       3000.162          25.000  
S20  37780985.326   198540538.972        -220.013          40.000  
> 2017 11 25 12 43 14.5989999  0 21                     
G 5  23518193.855   123588978.985       -2575.751          44.000  
G11  25221165.177   132538018.644       -1149.668          30.000  
G13  20777344.380   109185800.054        1340.054          45.000  
R12  23807657.415   127175967.678        1739.376          32.000  
G17  20908824.336   109876747.529        1925.951          52.000  
G19  22116873.175   116225011.620        2522.872          46.000  
G20  24349150.958   127955765.543        -922.686          40.000  
G28  20324822.751   106807777.190       -2323.046          50.000  
G30  21793536.485   114525910.358       -1722.749          45.000  
R 7  24134224.633   129192414.4642      -4588.758          27.000  
S38  39289043.229   206465361.327        -290.104          42.000  
R11  20792314.537   111107953.212         533.799          48.000  
R 1  20609925.922   110172004.291        -325.995          46.000  
G15  23201455.163   121924508.815        2694.455          46.000  
G 7  24052198.124   126395144.144       -2578.901          42.000  
R 8  20913119.547   111988873.419       -3605.415          48.000  
R20  21367022.802   114259186.025         119.434          40.000  
R21  21559791.579   115371026.253        3193.279          44.000  
R10  21030963.401   112107000.042       -1534.268          42.000  
R 2  23775978.558                1       3001.048          25.000  
S20  37780993.806   198540582.941        -219.614          40.000  
> 2017 11 25 12 43 14.7989999  0 21                     
G 5  23518291.891   123589494.178       -2575.952          44.000  
G11  25221208.174   132538248.558       -1149.642          30.000  
G13  20777293.425   109185532.069        1339.967          45.000  
R12  23807592.221   127175619.811        1738.826          31.000  
G17  20908751.115   109876362.389        1925.686          52.000  
G19  22116777.199   116224507.059        2522.789          46.000  
G20  24349186.102   127955950.115        -923.029          39.000  
G28  20324911.258   106808241.815       -2323.219          50.000  
G30  21793602.308   114526254.978       -1723.089          46.000  
R 7  24134396.483   129193332.0922      -4587.784          27.000  
S38  39289054.327   206465419.295        -290.003          42.000  
R11  20792294.505   111107846.470         533.775          48.000  
R 1  20609938.102   110172069.513        -326.263          46.000  
G15  23201352.590   121923970.002        2694.203          46.000  
G 7  24052296.264   126395659.929       -2578.942          41.000  
R 8  20913254.367   111989594.551       -3605.633          48.000  
R20  21367018.439   114259162.134         119.616          40.000  
R21  21559672.324   115370387.636        3193.083          44.000  
R10  21031021.057   112107306.877       -1534.197          42.000  
R 2  23775865.376                1       3000.173          25.000  
S20  37781002.252   198540626.889        -219.771          40.000  
> 2017 11 25 12 43 14.9989999  0 21                     
G 5  23518389.961   123590009.349       -2575.610          44.000  
G11  25221252.951   132538478.5361      -1149.950          30.000  
G13  20777242.296   109185264.082        1340.125          45.000  
R12  23807527.062   127175271.901        1739.932          31.000  
G17  20908677.685   109875977.245        1925.966          52.000  
G19  22116681.153   116224002.486        2523.035          46.000  
G20  24349221.038   127956134.670        -922.402          39.000  
G28  20324999.626   106808706.412       -2322.801          50.000  
G30  21793667.990   114526599.566       -1722.592          46.000  
R 7  24134567.599   129194249.6792      -4587.690          27.000  
S38  39289065.181   206465477.252        -289.302          42.000  
R11  20792274.611   111107739.706         534.126          48.000  
R 1  20609950.178   110172134.752        -326.001          46.000  
G15  23201250.122   121923431.145        2694.348          46.000  
G 7  24052394.439   126396175.682       -2578.489          41.000  
R 8  20913389.013   111990315.678       -3605.419          48.000  
R20  21367013.937   114259138.257         119.586          40.000  
R21  21559552.895   115369749.005        3193.517          44.000  
R10  21031078.642   112107613.695       -1533.958          42.000  
R 2  23775752.159                1       3000.397          25.000  
S20  37781010.559   198540670.803        -219.050          40.000  
> 2017 11 25 12 43 15.1989999  0 21                     
G 5  23518488.101   123590524.488       -2575.653          44.000  
G11  25221296.646   132538708.506       -1148.999          29.000  
G13  20777191.411   109184996.068        1340.056          45.000  
R12  23807461.798   127174923.949        1740.401          31.000  
G17  20908604.394   109875592.087        1925.801          52.000  
G19  22116585.282   116223497.884        2523.081          46.000  
G20  24349256.078   127956319.224        -922.746          39.000  
G28  20325088.133   106809170.996       -2322.949          50.000  
G30  21793733.673   114526944.134       -1722.800          46.000  
R 7  24134738.996   129195167.2642      -4587.763          28.000  
S38  39289076.070   206465535.194        -289.770          42.000  
R11  20792254.788   111107632.904         534.155          49.000  
R 1  20609962.393   110172199.970        -326.056          46.000  
G15  23201147.515   121922892.270        2694.458          46.000  
G 7  24052492.544   126396691.415       -2578.596          41.000  
R 8  20913523.729   111991036.768       -3605.499          48.000  
R20  21367009.365   114259114.379         119.444          40.000  
R21  21559433.465   115369110.355        3193.322          44.000  
R10  21031136.298   112107920.462       -1533.559          42.000  
R 2  23775637.965                1       3000.024          25.000  
S20  37781018.725   198540714.700        -219.421          40.000  
> 2017 11 25 12 43 15.3989999  0 21                     
G 5  23518586.276   123591039.632       -2575.793          44.000  
G11  25221343.308   132538938.5021      -1151.282          30.000  
G13  20777140.421   109184728.089        1339.700          45.000  
R12  23807396.604   127174576.001        1739.867          31.000  
G17  20908531.068   109875206.945        1925.577          52.000  
G19  22116489.236   116222993.300        2522.729          46.000  
G20  24349291.257   127956503.785        -923.002          40.000  
G28  20325176.432   106809635.577       -2323.005          50.000  
G30  21793799.286   114527288.698       -1722.958          46.000  
R 7  24134910.950   129196084.8372      -4587.690          28.000  
S38  39289087.099   206465593.068        -289.334          42.000  
R11  20792234.860   111107526.116         533.834          49.000  
R 1  20609974.399   110172265.244        -326.489          46.000  
G15  23201044.943   121922353.407        2694.367          46.000  
G 7  24052590.685   126397207.124       -2578.677          41.000  
R 8  20913658.444   111991757.884       -3605.582          48.000  
R20  21367004.828   114259090.536         118.574          40.000  
R21  21559314.106   115368471.705        3193.127          44.000  
R10  21031193.953   112108227.256       -1534.174          42.000  
R 2  23775524.887                1       2998.375          24.000  
S20  37781027.032   198540758.572        -219.410          40.000  
> 2017 11 25 12 43 15.5989999  0 21                     
G 5  23518684.346   123591554.785       -2575.458          45.000  
G11  25221383.688   132539168.3921      -1148.101          30.000  
G13  20777089.502   109184460.111        1340.121          45.000  
R12  23807331.410   127174228.081        1739.680          31.000  
G17  20908457.672   109874821.830        1925.765          52.000  
G19  22116393.225   116222488.713        2523.281          46.000  
G20  24349326.332   127956688.353        -922.342          40.000  
G28  20325264.834   106810100.174       -2322.721          49.000  
G30  21793864.829   114527633.276       -1722.464          46.000  
R 7  24135082.241   129197002.3912      -4587.822          28.000  
S38  39289098.267   206465651.000        -289.137          42.000  
R11  20792214.722   111107419.320         534.213          49.000  
R 1  20609986.370   110172330.538        -326.257          46.000  
G15  23200942.440   121921814.558        2694.565          46.000  
G 7  24052688.755   126397722.844       -2578.014          41.000  
R 8  20913793.125   111992479.027       -3605.467          48.000  
R20  21367000.291   114259066.703         119.092          40.000  
R21  21559194.816   115367833.085        3193.490          44.000  
R10  21031251.679   112108534.026       -1533.574          42.000  
R 2  23775411.182                1       3001.042          24.000  
S20  37781035.303   198540802.455        -218.760          40.000  
> 2017 11 25 12 43 15.7989999  0 21                     
G 5  23518782.416   123592069.920       -2575.562          45.000  
G11  25221427.593   132539398.3711      -1149.047          29.000  
G13  20777038.652   109184192.147        1339.909          45.000  
R12  23807266.146   127173880.092        1739.651          31.000  
G17  20908384.382   109874436.728        1925.413          52.000  
G19  22116297.109   116221984.136        2522.959          46.000  
G20  24349361.407   127956872.948        -923.032          40.000  
G28  20325353.132   106810564.783       -2322.992          49.000  
G30  21793930.476   114527977.856       -1722.989          46.000  
R 7  24135253.986   129197919.9002      -4587.608          28.000  
S38  39289109.365   206465708.897        -289.354          42.000  
R11  20792194.794   111107312.520         534.111          49.000  
R 1  20609998.376   110172395.846        -326.538          46.000  
G15  23200839.903   121921275.707        2694.305          46.000  
G 7  24052787.174   126398238.569       -2578.492          41.000  
R 8  20913927.876   111993200.175       -3605.849          48.000  
R20  21366995.894   114259042.891         118.795          40.000  
R21  21559075.596   115367194.469        3192.989          44.000  
R10  21031309.160   112108840.798       -1534.015          42.000  
R 2  23775297.267                1       3000.019          25.000  
S20  37781043.609   198540846.354        -219.240          40.000  
> 2017 11 25 12 43 15.9989999  0 21                     
G 5  23518880.487   123592585.121       -2575.897          45.000  
G11  25221472.231   132539628.4361      -1150.967          29.000  
G13  20776987.697   109183924.251        1339.529          45.000  
R12  23807200.987   127173532.168        1738.528          31.000  
G17  20908311.126   109874051.684        1925.207          52.000  
G19  22116201.202   116221479.611        2522.689          46.000  
G20  24349396.517   127957057.577        -923.094          40.000  
G28  20325441.605   106811029.438       -2323.273          49.000  
G30  21793996.054   114528322.453       -1723.000          46.000  
R 7  24135426.185   129198837.5472      -4588.132          28.000  
S38  39289120.289   206465766.848        -289.554          42.000  
R11  20792174.796   111107205.778         533.607          49.000  
R 1  20610010.521   110172461.244        -326.917          46.000  
G15  23200737.295   121920736.908        2694.068          46.000  
G 7  24052885.419   126398754.336       -2578.785          42.000  
R 8  20914062.626   111993921.377       -3606.184          48.000  
R20  21366991.287   114259019.169         118.543          40.000  
R21  21558956.202   115366555.906        3192.852          44.000  
R10  21031366.746   112109147.608       -1533.962          42.000  
R 2  23775183.596                1       2999.751          25.000  
S20  37781051.951   198540890.287        -219.770          40.000  
> 2017 11 25 12 43 16.3989999  0 21                     
G 5  23519076.732   123593615.420       -2575.891          45.000  
G11  25221558.888   132540088.4851      -1150.085          29.000  
G13  20776885.927   109183388.409        1339.441          45.000  
R12  23807070.634   127172836.207        1739.471          31.000  
G17  20908164.718   109873281.563        1925.133          52.000  
G19  22116009.110   116220470.518        2522.522          46.000  
G20  24349466.946   127957426.801        -923.218          40.000  
G28  20325618.411   106811958.698       -2323.324          49.000  
G30  21794127.385   114529011.627       -1723.013          46.000  
R 7  24135770.513   129200672.0091      -4587.567          28.000  
S38  39289142.346   206465882.656        -289.701          42.000  
R11  20792134.975   111106992.197         533.694          49.000  
R 1  20610034.846   110172592.037        -327.057          46.000  
G15  23200532.186   121919659.240        2694.080          46.000  
G 7  24053081.734   126399785.809       -2579.203          42.000  
R 8  20914332.302   111995363.748       -3606.161          48.000  
R20  21366982.632   114258971.692         118.752          40.000  
R21  21558717.797   115365278.689        3192.837          44.000  
R10  21031481.917   112109761.143       -1534.062          42.000  
R 2  23774955.836                1       2999.386          25.000  
S20  37781068.598   198540978.011        -219.710          40.000  
> 2017 11 25 12 43 16.5989999  0 21                     
G 5  23519174.976   123594130.629       -2575.781          45.000  
G11  25221603.526   132540318.5661      -1150.677          29.000  
G13  20776834.973   109183120.574        1339.214          45.000  
R12  23807005.440   127172488.275        1739.593          31.000  
G17  20908091.532   109872896.590        1924.799          52.000  
G19  22115913.030   116219966.029        2522.462          46.000  
G20  24349502.091   127957611.479        -923.274          40.000  
G28  20325706.779   106812423.394       -2323.413          49.000  
G30  21794192.858   114529356.275       -1723.206          46.000  
R 7  24135941.699   129201589.471       -4586.681          28.000  
S38  39289153.235   206465940.602        -289.573          42.000  
R11  20792114.942   111106885.449         533.642          49.000  
R 1  20610046.957   110172657.537        -327.594          46.000  
G15  23200429.578   121919120.481        2693.620          45.000  
G 7  24053179.839   126400301.571       -2578.746          41.000  
R 8  20914467.087   111996085.004       -3606.359          48.000  
R20  21366978.129   114258948.076         118.062          40.000  
R21  21558598.577   115364640.146        3192.913          44.000  
R10  21031539.572   112110067.958       -1534.087          42.000  
R 2  23774842.305                1       3000.384          25.000  
S20  37781076.870   198541021.917        -219.669          40.000  
> 2017 11 25 12 43 16.7989999  0 21                     
G 5  23519273.012   123594645.845       -2576.294          45.000  
G11  25221647.117   132540548.6851      -1150.587          29.000  
G13  20776784.053   109182852.737        1338.854          45.000  
R12  23806940.350   127172140.418        1739.150          31.000  
G17  20908018.241   109872511.624        1924.621          52.000  
G19  22115817.018   116219461.547        2522.365          46.000  
G20  24349537.166   127957796.169        -923.580          40.000  
G28  20325795.286   106812888.115       -2323.689          49.000  
G30  21794258.436   114529700.917       -1723.332          46.000  
R 7  24136112.991   129202507.093       -4587.953          28.000  
S38  39289164.264   206465998.566        -289.967          42.000  
R11  20792095.049   111106778.710         533.486          49.000  
R 1  20610058.928   110172723.053        -327.966          46.000  
G15  23200326.936   121918581.724        2693.675          45.000  
G 7  24053277.909   126400817.359       -2579.310          41.000  
R 8  20914601.908   111996806.284       -3606.547          48.000  
R20  21366973.627   114258924.482         117.535          40.000  
R21  21558479.183   115364001.639        3192.354          44.000  
R10  21031597.158   112110374.757       -1534.103          42.000  
R 2  23774729.576                1       2999.295          25.000  
S20  37781085.211   198541065.819        -219.449          40.000  
> 2017 11 25 12 43 16.9989999  0 21                     
G 5  23519371.082   123595161.103       -2576.184          45.000  
G11  25221688.334   132540778.842       -1150.828          29.000  
G13  20776733.273   109182584.966        1338.918          45.000  
R12  23806875.156   127171792.516        1738.748          31.000  
G17  20907945.090   109872126.724        1924.510          52.000  
G19  22115721.077   116218957.123        2522.185          46.000  
G20  24349572.520   127957980.917        -923.705          40.000  
G28  20325883.794   106813352.869       -2323.724          49.000  
G30  21794324.119   114530045.603       -1723.401          46.000  
R 7  24136284.422   129203424.697       -4588.014          28.000  
S38  39289175.222   206466056.580        -290.053          42.000  
R11  20792075.086   111106672.012         533.432          48.000  
R 1  20610071.178   110172788.661        -327.930          46.000  
G15  23200224.329   121918043.019        2693.530          45.000  
G 7  24053375.944   126401333.175       -2579.338          41.000  
R 8  20914736.658   111997527.621       -3606.670          48.000  
R20  21366969.020   114258900.936         117.719          39.000  
R21  21558359.858   115363363.173        3192.329          44.000  
R10  21031654.744   112110681.627       -1534.375          42.000  
R 2  23774616.010                1       2998.755          25.000  
S20  37781093.517   198541109.769        -219.932          40.000  
> 2017 11 25 12 43 17.1989999  0 21                     
G 5  23519469.117   123595676.319       -2575.946          45.000  
G11  25221733.356   132541008.975       -1150.733          30.000  
G13  20776682.214   109182317.176        1339.061          45.000  
R12  23806810.067   127171444.590        1739.314          31.000  
G17  20907871.904   109871741.812        1924.550          52.000  
G19  22115625.066   116218452.682        2522.231          46.000  
G20  24349607.769   127958165.648        -923.595          40.000  
G28  20325972.127   106813817.601       -2323.553          49.000  
G30  21794389.836   114530390.244       -1723.039          46.000  
R 7  24136455.922   129204342.192       -4587.630          28.000  
S38  39289186.286   206466114.553        -290.009          42.000  
R11  20792055.192   111106565.274         533.778          48.000  
R 1  20610083.428   110172854.250        -327.924          46.000  
G15  23200121.652   121917504.290        2693.683          45.000  
G 7  24053473.910   126401848.947       -2578.700          41.000  
R 8  20914871.304   111998248.936       -3606.595          48.000  
R20  21366964.483   114258877.416         117.689          39.000  
R21  21558240.499   115362724.679        3192.557          44.000  
R10  21031712.399   112110988.439       -1534.073          42.000  
R 2  23774502.654                1       3000.018          25.000  
S20  37781101.858   198541153.668        -219.488          40.000  
> 2017 11 25 12 43 17.3989999  0 21                     
G 5  23519567.153   123596191.591       -2576.428          45.000  
G11  25221778.517   132541239.103       -1150.775          29.000  
G13  20776631.294   109182049.450        1338.565          45.000  
R12  23806745.048   127171096.651        1739.630          31.000  
G17  20907798.752   109871356.958        1924.045          52.000  
G19  22115528.811   116217948.272        2521.929          46.000  
G20  24349642.879   127958350.425        -924.009          40.000  
G28  20326060.425   106814282.387       -2324.024          49.000  
G30  21794455.484   114530734.954       -1723.612          46.000  
R 7  24136627.423   129205259.818       -4588.532          28.000  
S38  39289197.279   206466172.559        -290.155          42.000  
R11  20792034.985   111106458.591         533.377          48.000  
R 1  20610095.608   110172919.931        -328.607          46.000  
G15  23200019.010   121916965.606        2693.297          45.000  
G 7  24053571.945   126402364.795       -2579.326          41.000  
R 8  20915006.090   111998970.311       -3606.989          48.000  
R20  21366959.946   114258853.966         117.109          39.000  
R21  21558121.314   115362086.225        3192.062          44.000  
R10  21031770.125   112111295.300       -1534.402          43.000  
R 2  23774390.135                1       2998.726          25.000  
S20  37781110.025   198541197.622        -219.895          40.000  
> 2017 11 25 12 43 17.5989999  0 21                     
G 5  23519665.153   123596706.859       -2576.440          45.000  
G11  25221823.992   132541469.423       -1151.988          29.000  
G13  20776580.409   109181781.750        1338.430          45.000  
R12  23806680.063   127170748.799        1739.567          32.000  
G17  20907725.426   109870972.122        1924.051          51.000  
G19  22115432.800   116217443.890        2521.987          46.000  
G20  24349678.094   127958535.222        -923.993          40.000  
G28  20326148.862   106814747.190       -2324.054          49.000  
G30  21794521.097   114531079.661       -1723.626          46.000  
R 7  24136798.191   129206177.221       -4586.749          27.000  
S38  39289208.308   206466230.558        -290.071          42.000  
R11  20792015.127   111106351.893         533.507          48.000  
R 1  20610107.998   110172985.629        -328.674          46.000  
G15  23199916.577   121916426.939        2693.260          45.000  
G 7  24053670.050   126402880.610       -2579.098          41.000  
R 8  20915140.910   111999691.708       -3607.132          48.000  
R20  21366955.619   114258830.535         116.758          40.000  
R21  21558002.129   115361447.795        3192.191          44.000  
R10  21031827.710   112111602.146       -1534.420          43.000  
R 2  23774277.546                1       2998.854          25.000  
S20  37781118.261   198541241.571        -219.919          40.000  
> 2017 11 25 12 43 17.7989999  0 21                     
G 5  23519763.363   123597222.122       -2576.031          45.000  
G11  25221867.967   132541699.616       -1151.193          29.000  
G13  20776529.489   109181514.050        1338.548          45.000  
R12  23806614.939   127170400.893        1740.028          32.000  
G17  20907652.066   109870587.303        1924.290          51.000  
G19  22115337.033   116216939.507        2522.065          46.000  
G20  24349713.169   127958720.030        -923.730          40.000  
G28  20326237.230   106815211.995       -2323.851          50.000  
G30  21794586.674   114531424.362       -1723.344          46.000  
R 7  24136969.447   129207094.7121      -4586.936          27.000  
S38  39289219.232   206466288.546        -289.730          42.000  
R11  20791995.024   111106245.204         533.621          49.000  
R 1  20610120.213   110173051.355        -328.510          46.000  
G15  23199814.004   121915888.295        2693.483          45.000  
G 7  24053768.155   126403396.448       -2579.042          41.000  
R 8  20915275.730   112000413.113       -3606.894          48.000  
R20  21366951.326   114258807.122         117.363          40.000  
R21  21557882.839   115360809.359        3192.485          44.000  
R10  21031885.366   112111908.999       -1534.064          42.000  
R 2  23774164.433                1       2999.094          25.000  
S20  37781126.638   198541285.511        -219.583          40.000  
> 2017 11 25 12 43 17.9989999  0 21                     
G 5  23519861.538   123597737.377       -2576.276          45.000  
G11  25221907.579   132541929.847       -1151.794          30.000  
G13  20776478.570   109181246.347        1338.477          45.000  
R12  23806549.780   127170052.994        1739.988          32.000  
G17  20907578.705   109870202.491        1924.042          51.000  
G19  22115241.161   116216435.116        2521.886          46.000  
G20  24349748.244   127958904.842        -924.154          40.000  
G28  20326325.668   106815676.787       -2323.926          50.000  
G30  21794652.287   114531769.046       -1723.430          46.000  
R 7  24137140.844   129208012.3711      -4588.165          26.000  
S38  39289230.330   206466346.509        -289.578          42.000  
R11  20791975.061   111106138.491         533.586          49.000  
R 1  20610132.498   110173117.115        -328.796          46.000  
G15  23199711.537   121915349.635        2693.094          46.000  
G 7  24053866.330   126403912.245       -2579.215          41.000  
R 8  20915410.551   112001134.526       -3607.024          48.000  
R20  21366947.033   114258783.729         116.785          40.000  
R21  21557763.515   115360170.925        3192.205          44.000  
R10  21031943.021   112112215.822       -1533.877          42.000  
R 2  23774052.228                1       2998.894          26.000  
S20  37781135.118   198541329.428        -219.618          40.000  
> 2017 11 25 12 43 18.3989999  0 21                     
G 5  23520057.923   123598767.793       -2575.800          45.000  
G11  25221999.925   132542390.173       -1150.706          32.000  
G13  20776376.451   109180710.904        1338.583          45.000  
R12  23806419.601   127169357.104        1739.779          33.000  
G17  20907432.333   109869432.823        1924.098          51.000  
G19  22115049.314   116215426.277        2522.187          46.000  
G20  24349818.708   127959274.378        -923.600          40.000  
G28  20326502.718   106816606.336       -2324.033          50.000  
G30  21794783.792   114532458.360       -1723.190          46.000  
R 7  24137482.972   129209847.1781      -4586.904          26.000  
S38  39289252.317   206466462.353        -289.591          42.000  
R11  20791935.065   111105924.977         533.872          49.000  
R 1  20610157.312   110173248.607        -328.741          46.000  
G15  23199506.497   121914272.202        2693.758          46.000  
G 7  24054062.680   126404943.770       -2578.734          41.000  
R 8  20915680.087   112002577.298       -3606.870          48.000  
R20  21366938.483   114258736.955         116.932          40.000  
R21  21557525.040   115358893.997        3192.225          44.000  
R10  21032058.228   112112829.377       -1533.867          42.000  
R 2  23773826.702                1       2999.214          26.000  
S20  37781151.975   198541417.155        -219.427          40.000  
> 2017 11 25 12 43 18.5989999  0 21                     
G 5  23520156.097   123599282.974       -2575.787          45.000  
G11  25222041.875   132542620.336       -1150.670          32.000  
G13  20776325.496   109180443.163        1338.863          45.000  
R12  23806354.477   127169009.110        1740.009          33.000  
G17  20907359.181   109869047.984        1924.221          51.000  
G19  22114953.407   116214921.836        2522.346          46.000  
G20  24349853.887   127959459.148        -923.687          40.000  
G28  20326591.260   106817071.082       -2323.651          50.000  
G30  21794849.405   114532802.987       -1722.976          46.000  
R 7  24137654.403   129210764.6001      -4586.957          25.000  
S38  39289263.346   206466520.202        -289.041          41.000  
R11  20791915.067   111105818.181         534.098          48.000  
R 1  20610169.597   110173314.366        -328.717          46.000  
G15  23199403.994   121913733.474        2693.751          46.000  
G 7  24054160.820   126405459.509       -2578.311          41.000  
R 8  20915814.698   112003298.676       -3606.901          48.000  
R20  21366934.155   114258713.572         117.006          40.000  
R21  21557405.855   115358255.519        3192.395          44.000  
R10  21032115.918   112113136.102       -1533.494          42.000  
R 2  23773712.961                1       2998.694          27.000  
S20  37781160.316   198541460.951        -218.745          40.000  
> 2017 11 25 12 43 18.7989999  0 21                     
G 5  23520254.272   123599798.151       -2575.909          45.000  
G11  25222087.700   132542850.600       -1151.998          32.000  
G13  20776274.646   109180175.457        1338.301          45.000  
R12  23806289.318   127168661.117        1739.714          33.000  
G17  20907285.960   109868663.168        1923.923          51.000  
G19  22114857.501   116214417.400        2522.076          46.000  
G20  24349889.137   127959643.925        -923.994          40.000  
G28  20326679.733   106817535.845       -2323.903          50.000  
G30  21794915.018   114533147.629       -1723.410          46.000  
R 7  24137825.834   129211682.0731      -4587.921          25.000  
S38  39289274.165   206466578.077        -289.535          41.000  
R11  20791895.069   111105711.406         533.757          48.000  
R 1  20610181.742   110173380.158        -329.095          46.000  
G15  23199301.457   121913194.754        2693.542          46.000  
G 7  24054259.030   126405975.253       -2579.139          41.000  
R 8  20915949.518   112004020.073       -3607.106          48.000  
R20  21366929.757   114258690.234         116.574          40.000  
R21  21557286.600   115357617.043        3192.194          44.000  
R10  21032173.434   112113442.846       -1533.812          42.000  
R 2  23773600.442                1       2999.407          27.000  
S20  37781168.623   198541504.794        -219.240          40.000  
> 2017 11 25 12 43 18.9989999  0 21                     
G 5  23520352.238   123600313.330       -2575.952          45.000  
G11  25222130.592   132543080.752       -1150.855          32.000  
G13  20776223.761   109179907.753        1338.289          45.000  
R12  23806224.159   127168313.097        1739.981          33.000  
G17  20907212.704   109868278.357        1923.900          51.000  
G19  22114761.455   116213912.963        2522.071          46.000  
G20  24349924.351   127959828.674        -923.783          40.000  
G28  20326768.031   106818000.602       -2323.971          50.000  
G30  21794980.666   114533492.256       -1723.265          46.000  
R 7  24137997.405                1      -4586.380          25.000  
S38  39289285.019   206466635.912        -288.928          41.000  
R11  20791875.001   111105604.607         533.778          48.000  
R 1  20610193.783   110173445.974        -329.260          46.000  
G15  23199198.815   121912656.032        2693.491          46.000  
G 7  24054357.275   126406490.959       -2578.331          41.000  
R 8  20916084.373   112004741.471       -3606.991          48.000  
R20  21366925.290   114258666.927         116.473          40.000  
R21  21557167.310   115356978.568        3192.185          44.000  
R10  21032230.950   112113749.576       -1533.658          42.000  
R 2  23773488.726                1       2999.098          27.000  
S20  37781177.069   198541548.639        -219.169          40.000  
> 2017 11 25 12 43 19.1989999  0 21                     
G 5  23520450.238   123600828.601       -2576.312          45.000  
G11  25222170.449   132543311.062       -1151.766          32.000  
G13  20776172.877   109179640.149        1337.945          45.000  
R12  23806159.104   127167965.184        1739.518          33.000  
G17  20907139.483   109867893.660        1923.311          51.000  
G19  22114665.548   116213408.644        2521.541          46.000  
G20  24349959.531   127960013.565        -924.328          40.000  
G28  20326856.434   106818465.468       -2324.378          50.000  
G30  21795046.209   114533836.978       -1723.723          46.000  
R 7  24138169.220                1      -4588.321          25.000  
S38  39289295.908   206466693.865        -289.727          41.000  
R11  20791854.934   111105497.905         533.522          48.000  
R 1  20610206.138   110173511.912        -329.840          46.000  
G15  23199096.207   121912117.421        2692.887          46.000  
G 7  24054455.380   126407006.796       -2579.218          41.000  
R 8  20916219.159   112005463.000       -3607.809          48.000  
R20  21366921.067   114258643.713         115.904          40.000  
R21  21557048.160   115356340.199        3191.763          44.000  
R10  21032288.466   112114056.403       -1534.468          42.000  
R 2  23773376.800                1       2998.560          27.000  
S20  37781185.270   198541592.557        -219.359          40.000  
> 2017 11 25 12 43 19.3989999  0 21                     
G 5  23520548.343   123601343.857       -2576.166          45.000  
G11  25222212.888   132543541.334       -1151.222          32.000  
G13  20776122.097   109179372.554        1338.067          45.000  
R12  23806094.050   127167617.239        1739.568          33.000  
G17  20907066.192   109867508.967        1923.418          52.000  
G19  22114569.572   116212904.302        2521.696          46.000  
G20  24349994.850   127960198.439        -924.282          41.000  
G28  20326944.941   106818930.324       -2324.367          50.000  
G30  21795111.821   114534181.684       -1723.505          46.000  
R 7  24138340.720                1      -4586.097          25.000  
S38  39289306.867   206466751.780        -289.571          41.000  
R11  20791835.040   111105391.184         533.547          48.000  
R 1  20610218.388   110173577.859        -329.736          46.000  
G15  23198993.635   121911578.794        2693.101          46.000  
G 7  24054553.485   126407522.592       -2578.837          41.000  
R 8  20916353.979   112006184.498       -3607.480          48.000  
R20  21366916.705   114258620.530         116.025          40.000  
R21  21556928.836   115355701.821        3192.015          44.000  
R10  21032346.087   112114363.203       -1534.136          42.000  
R 2  23773264.246   126858695.1753       2999.041          27.000  
S20  37781193.646   198541636.485        -219.598          40.000  
> 2017 11 25 12 43 19.5989999  0 21                     
G 5  23520646.414   123601859.128       -2576.489          45.000  
G11  25222256.862   132543771.698       -1151.396          32.000  
G13  20776071.281   109179104.997        1337.650          45.000  
R12  23806029.030   127167269.300        1739.644          32.000  
G17  20906993.006   109867124.301        1923.277          51.000  
G19  22114473.631   116212399.988        2521.530          46.000  
G20  24350029.995   127960383.346        -924.636          41.000  
G28  20327033.414   106819395.203       -2324.464          50.000  
G30  21795177.469   114534526.411       -1723.682          46.000  
R 7  24138512.151                1      -4585.696          25.000  
S38  39289317.930   206466809.708        -289.817          41.000  
R11  20791815.182   111105284.482         533.386          48.000  
R 1  20610230.743   110173643.859        -330.054          46.000  
G15  23198891.167   121911040.187        2693.024          46.000  
G 7  24054651.625   126408038.421       -2579.285          41.000  
R 8  20916488.765   112006906.047       -3607.799          48.000  
R20  21366912.307   114258597.398         115.375          39.000  
R21  21556809.686   115355063.482        3191.582          44.000  
R10  21032403.637   112114669.991       -1533.989          42.000  
R 2  23773151.483   126858095.5203       2998.306          27.000  
S20  37781201.988   198541680.392        -219.649          40.000  
> 2017 11 25 12 43 19.7989999  0 21                     
G 5  23520744.519   123602374.409       -2576.166          45.000  
G11  25222297.277   132544002.060       -1151.909          31.000  
G13  20776020.222   109178837.457        1337.941          45.000  
R12  23805963.766   127166921.391        1740.040          32.000  
G17  20906919.750   109866739.664        1923.347          52.000  
G19  22114377.585   116211895.681        2521.843          46.000  
G20  24350065.244   127960568.277        -924.755          41.000  
G28  20327122.061   106819860.098       -2324.260          50.000  
G30  21795243.082   114534871.144       -1723.521          46.000  
R 7  24138683.792                1      -4581.511          25.000  
S38  39289328.889   206466867.617        -289.388          41.000  
R11  20791795.149   111105177.786         533.692          48.000  
R 1  20610243.342   110173709.896        -330.090          46.000  
G15  23198788.769   121910501.588        2693.166          46.000  
G 7  24054749.870   126408554.232       -2578.822          41.000  
R 8  20916623.655   112007627.603       -3607.529          48.000  
R20  21366907.910   114258574.290         115.582          39.000  
R21  21556690.501   115354425.151        3191.725          44.000  
R10  21032461.188   112114976.803       -1533.873          42.000  
R 2  23773038.685   126857495.8113       2998.643          27.000  
S20  37781210.468   198541724.282        -219.209          40.000  
> 2017 11 25 12 43 19.9989999  0 21                     
G 5  23520842.659   123602889.660       -2576.117          45.000  
G11  25222343.974   132544232.368       -1151.974          31.000  
G13  20775969.302   109178569.885        1337.986          45.000  
R12  23805898.712   127166573.416        1739.718          32.000  
G17  20906846.564   109866355.005        1923.347          52.000  
G19  22114281.644   116211391.360        2521.794          46.000  
G20  24350100.354   127960753.167        -924.615          41.000  
G28  20327210.708   106820324.975       -2324.235          50.000  
G30  21795308.695   114535215.847       -1723.398          46.000  
R 7  24138854.909                1      -4586.275          24.000  
S38  39289339.813   206466925.511        -289.536          41.000  
R11  20791775.221   111105071.063         533.586          49.000  
R 1  20610255.627   110173775.929        -330.090          46.000  
G15  23198686.232   121909962.978        2693.010          46.000  
G 7  24054847.870   126409070.043       -2579.017          41.000  
R 8  20916758.580   112008349.142       -3607.707          48.000  
R20  21366903.687   114258551.186         115.760          39.000  
R21  21556571.385   115353786.798        3191.813          44.000  
R10  21032518.809   112115283.585       -1533.945          42.000  
R 2  23772925.712   126856896.1603       2998.267          27.000  
S20  37781218.635   198541768.141        -219.074          40.000  
> 2017 11 25 12 43 20.1989999  0 21                     
G 5  23520940.834   123603404.941       -2576.477          45.000  
G11  25222386.552   132544462.713       -1151.807          31.000  
G13  20775918.383   109178302.376        1337.351          45.000  
R12  23805833.344   127166225.448        1739.796          32.000  
G17  20906773.308   109865970.398        1922.785          52.000  
G19  22114185.772   116210887.074        2521.230          46.000  
G20  24350135.534   127960938.095        -924.792          41.000  
G28  20327299.355   106820789.881       -2324.684          50.000  
G30  21795374.342   114535560.594       -1723.879          46.000  
R 7  24139026.968                1      -4590.983          23.000  
S38  39289350.772   206466983.425        -289.371          41.000  
R11  20791755.258   111104964.357         533.241          49.000  
R 1  20610267.842   110173842.027        -330.756          46.000  
G15  23198583.799   121909424.400        2692.574          46.000  
G 7  24054946.185   126409585.841       -2579.150          41.000  
R 8  20916893.331   112009070.727       -3608.078          48.000  
R20  21366899.394   114258528.131         114.897          39.000  
R21  21556452.200   115353148.481        3191.218          44.000  
R10  21032576.395   112115590.367       -1534.148          42.000  
R 2  23772812.007   126856296.5153       2997.543          27.000  
S20  37781226.976   198541812.012        -219.553          40.000  
> 2017 11 25 12 43 20.3989999  0 21                     
G 5  23521039.113   123603920.210       -2576.227          45.000  
G11  25222433.947   132544693.100       -1151.735          31.000  
G13  20775867.568   109178034.864        1337.501          45.000  
R12  23805768.254   127165877.539        1740.125          32.000  
G17  20906700.087   109865585.798        1923.070          52.000  
G19  22114089.866   116210382.796        2521.436          46.000  
G20  24350170.818   127961123.054        -924.858          41.000  
G28  20327387.828   106821254.798       -2324.456          50.000  
G30  21795440.060   114535905.325       -1723.592          46.000  
R 7  24139199.271                1      -4610.949          23.000  
S38  39289361.661   206467041.351        -289.765          41.000  
R11  20791735.365   111104857.647         533.793          49.000  
R 1  20610280.197   110173908.153        -330.579          46.000  
G15  23198481.262   121908885.824        2692.870          46.000  
G 7  24055044.360   126410101.663       -2578.987          41.000  
R 8  20917028.186   112009792.317       -3607.767          48.000  
R20  21366895.206   114258505.100         115.111          39.000  
R21  21556333.016   115352510.161        3191.580          44.000  
R10  21032633.945   112115897.166       -1533.673          42.000  
R 2  23772701.128   126855696.8763       2998.396          27.000  
S20  37781235.178   198541855.876        -218.943          40.000  
> 2017 11 25 12 43 20.5989999  0 21                     
G 5  23521137.358   123604435.552       -2576.660          45.000  
G11  25222480.365   132544923.558       -1152.448          31.000  
G13  20775816.718   109177767.422        1337.208          45.000  
R12  23805703.095   127165529.603        1739.567          32.000  
G17  20906626.900   109865201.283        1922.451          52.000  
G19  22113993.855   116209878.581        2520.953          46.000  
G20  24350206.102   127961308.058        -925.334          41.000  
G28  20327476.335   106821719.775       -2324.915          50.000  
G30  21795505.882   114536250.119       -1723.923          46.000  
R 7  24139371.644                1      -4588.757          22.000  
S38  39289372.584   206467099.313        -290.135          41.000  
R11  20791715.541   111104751.005         533.242          49.000  
R 1  20610292.761   110173974.358        -331.244          46.000  
G15  23198378.724   121908347.308        2692.516          46.000  
G 7  24055142.604   126410617.521       -2579.485          41.000  
R 8  20917163.041   112010513.982       -3608.359          48.000  
R20  21366890.878   114258482.150         114.571          39.000  
R21  21556213.970   115351871.908        3191.209          44.000  
R10  21032691.566   112116204.004       -1534.445          42.000  
R 2  23772588.330   126855097.2673       2997.642          27.000  
S20  37781243.414   198541899.779        -219.392          40.000  
> 2017 11 25 12 43 20.7989999  0 21                     
G 5  23521235.603   123604950.891       -2576.837          45.000  
G11  25222527.341   132545154.023       -1152.512          31.000  
G13  20775765.763   109177500.012        1337.052          45.000  
R12  23805637.971   127165181.753        1739.158          32.000  
G17  20906553.749   109864816.778        1922.489          52.000  
G19  22113898.018   116209374.366        2520.995          46.000  
G20  24350241.317   127961493.070        -925.082          41.000  
G28  20327564.948   106822184.764       -2324.889          50.000  
G30  21795571.425   114536594.925       -1724.204          46.000  
R 7  24139543.075                1      -4588.757          22.000  
S38  39289383.648   206467157.242        -289.619          41.000  
R11  20791695.648   111104644.361         533.156          49.000  
R 1  20610304.976   110174040.589        -331.146          46.000  
G15  23198276.187   121907808.798        2692.560          46.000  
G 7  24055240.884   126411133.393       -2578.970          41.000  
R 8  20917297.862   112011235.662       -3608.497          48.000  
R20  21366886.620   114258459.223         114.589          39.000  
R21  21556094.820   115351233.680        3191.134          44.000  
R10  21032749.082   112116510.851       -1534.320          42.000  
R 2  23772476.055   126854497.6953       2997.820          27.000  
S20  37781251.791   198541943.675        -219.669          40.000  
> 2017 11 25 12 43 20.9989999  0 21                     
G 5  23521333.778   123605466.225       -2576.898          45.000  
G11  25222569.221   132545384.547       -1153.683          31.000  
G13  20775714.843   109177232.600        1336.893          45.000  
R12  23805572.916   127164833.836        1739.467          32.000  
G17  20906480.668   109864432.288        1922.220          52.000  
G19  22113802.007   116208870.164        2520.929          46.000  
G20  24350276.497   127961678.097        -925.201          41.000  
G28  20327653.490   106822649.766       -2325.179          50.000  
G30  21795637.003   114536939.724       -1724.191          46.000  
R 7  24139713.983                1      -4580.769          21.000  
S38  39289394.502   206467215.185        -289.988          41.000  
R11  20791675.720   111104537.725         532.892          49.000  
R 1  20610317.331   110174106.853        -331.647          46.000  
G15  23198173.789   121907270.301        2692.233          46.000  
G 7  24055339.094   126411649.285       -2579.823          39.000  
R 8  20917432.682   112011957.350       -3608.603          48.000  
R20  21366882.223   114258436.335         114.415          39.000  
R21  21555975.705   115350595.465        3190.992          45.000  
R10  21032806.668   112116817.677       -1534.183          42.000  
R 2  23772365.211   126853898.1593       2997.557          27.000  
S20  37781259.992   198541987.580        -219.927          40.000  
> 2017 11 25 12 43 21.1989999  0 21                     
G 5  23521431.988   123605981.570       -2576.770          45.000  
G11  25222612.916   132545614.984       -1152.374          31.000  
G13  20775663.959   109176965.220        1336.927          45.000  
R12  23805507.792   127164485.981        1738.960          33.000  
G17  20906407.411   109864047.822        1922.365          52.000  
G19  22113706.031   116208365.985        2520.865          46.000  
G20  24350311.816   127961863.167        -925.265          41.000  
G28  20327741.997   106823114.780       -2325.148          50.000  
G30  21795702.511   114537284.523       -1724.150          46.000  
R 7  24139885.658                1      -4584.314          21.000  
S38  39289405.391   206467273.127        -289.644          41.000  
R11  20791655.827   111104431.080         533.134          49.000  
R 1  20610329.616   110174173.158        -331.586          46.000  
G15  23198071.356   121906731.819        2692.393          46.000  
G 7  24055437.339   126412165.150       -2579.598          40.000  
R 8  20917567.502   112012679.066       -3608.593          48.000  
R20  21366878.000   114258413.496         114.414          39.000  
R21  21555856.729   115349957.233        3191.324          45.000  
R10  21032864.184   112117124.524       -1534.094          42.000  
R 2  23772252.727   126853298.6083       2997.784          27.000  
S20  37781268.264   198542031.475        -219.496          39.000  
> 2017 11 25 12 43 21.3989999  0 21                     
G 5  23521530.093   123606496.968       -2576.917          45.000  
G11  25222657.065   132545845.610       -1153.947          31.000  
G13  20775613.109   109176697.906        1336.423          45.000  
R12  23805442.738   127164138.147        1738.170          33.000  
G17  20906334.365   109863663.437        1921.821          52.000  
G19  22113610.124   116207861.849        2520.511          46.000  
G20  24350347.170   127962048.280        -925.574          41.000  
G28  20327830.435   106823579.864       -2325.650          50.000  
G30  21795767.950   114537629.379       -1724.243          46.000  
R 7  24140057.682                1      -4578.489          21.000  
S38  39289416.384   206467331.104        -289.995          41.000  
R11  20791635.794   111104324.493         532.837          49.000  
R 1  20610341.901   110174239.539        -331.995          46.000  
G15  23197968.993   121906193.391        2692.169          46.000  
G 7  24055535.513   126412681.077       -2579.866          40.000  
R 8  20917702.358   112013400.845       -3609.055          48.000  
R20  21366873.638   114258390.747         113.345          39.000  
R21  21555737.719   115349319.110        3190.704          45.000  
R10  21032921.734   112117431.414       -1534.611          42.000  
R 2  23772140.278   126852699.1903       2996.689          27.000  
S20  37781276.640   198542075.422        -219.815          39.000  
> 2017 11 25 12 43 21.5989999  0 21                     
G 5  23521628.233   123607012.362       -2576.807          45.000  
G11  25222701.598   132546076.143       -1153.284          32.000  
G13  20775562.294   109176430.606        1336.490          45.000  
R12  23805377.579   127163790.298        1739.064          33.000  
G17  20906261.283   109863279.059        1921.907          52.000  
G19  22113514.078   116207357.728        2520.669          46.000  
G20  24350382.454   127962233.413        -925.653          41.000  
G28  20327918.838   106824044.944       -2325.434          50.000  
G30  21795833.597   114537974.246       -1724.265          46.000  
R 7  24140228.729                1      -4578.489          21.000  
S38  39289427.448   206467389.067        -290.096          41.000  
R11  20791615.970   111104217.909         533.034          49.000  
R 1  20610354.430   110174305.958        -331.970          46.000  
G15  23197866.630   121905654.982        2692.182          46.000  
G 7  24055633.723   126413196.992       -2579.263          40.000  
R 8  20917837.248   112014122.635       -3608.945          48.000  
R20  21366869.345   114258367.992         113.832          39.000  
R21  21555618.569   115348680.978        3190.720          45.000  
R10  21032979.390   112117738.301       -1534.645          43.000  
R 2  23772027.864   126852099.7533       2996.686          27.000  
S20  37781284.911   198542119.375        -219.771          39.000  
> 2017 11 25 12 43 21.7989999  0 21                     
G 5  23521726.408   123607527.748       -2576.965          45.000  
G11  25222745.015   132546306.691       -1152.784          31.000  
G13  20775511.513   109176163.303        1336.238          45.000  
R12  23805312.629   127163442.429        1738.448          33.000  
G17  20906188.132   109862894.683        1921.749          52.000  
G19  22113418.311   116206853.598        2520.460          46.000  
G20  24350417.809   127962418.533        -925.946          41.000  
G28  20328007.450   106824510.017       -2325.471          50.000  
G30  21795899.070   114538319.102       -1724.411          46.000  
R 7  24140401.137                1      -4594.740          21.000  
S38  39289438.267   206467446.991        -289.857          41.000  
R11  20791596.077   111104111.311         532.793          49.000  
R 1  20610366.959   110174372.386        -332.288          46.000  
G15  23197764.302   121905116.554        2692.065          46.000  
G 7  24055731.759   126413712.922       -2579.789          40.000  
R 8  20917972.173   112014844.425       -3609.189          48.000  
R20  21366865.017   114258345.263         113.661          39.000  
R21  21555499.419   115348042.846        3190.586          45.000  
R10  21033036.976   112118045.157       -1534.432          43.000  
R 2  23771915.449                1       2997.084          27.000  
S20  37781293.287   198542163.317        -220.018          39.000  
> 2017 11 25 12 43 21.9989999  0 21                     
G 5  23521824.652   123608043.142       -2577.234          45.000  
G11  25222790.001   132546537.224       -1152.485          32.000  
G13  20775460.629   109175896.009        1336.228          45.000  
R12  23805247.610   127163094.463        1740.048          33.000  
G17  20906114.841   109862510.326        1921.635          52.000  
G19  22113322.510   116206349.477        2520.374          46.000  
G20  24350453.058   127962603.648        -925.756          41.000  
G28  20328095.958   106824975.103       -2325.507          50.000  
G30  21795964.648   114538663.964       -1724.381          46.000  
R 7  24140572.673                1      -4601.550          20.000  
S38  39289449.400   206467504.905        -289.643          41.000  
R11  20791576.149   111104004.700         533.000          49.000  
R 1  20610379.384   110174438.845        -332.483          46.000  
G15  23197661.834   121904578.130        2691.966          46.000  
G 7  24055830.073   126414228.821       -2579.404          41.000  
R 8  20918107.063   112015566.229       -3609.244          48.000  
R20  21366860.689   114258322.576         113.360          39.000  
R21  21555380.338   115347404.717        3190.612          45.000  
R10  21033094.492   112118352.014       -1534.302          42.000  
R 2  23771804.989                1       2996.294          26.000  
S20  37781301.593   198542207.227        -219.924          39.000  
> 2017 11 25 12 43 22.3989999  0 21                     
G 5  23522021.177   123609073.966       -2577.258          45.000  
G11  25222876.345   132546998.484       -1152.877          31.000  
G13  20775359.173   109175361.531        1336.090          45.000  
R12  23805117.501   127162398.789        1739.242          33.000  
G17  20905968.783   109861741.712        1921.387          52.000  
G19  22113130.697   116205341.309        2520.374          46.000  
G20  24350523.592   127962974.014        -926.191          41.000  
G28  20328272.763   106825905.362       -2325.820          50.000  
G30  21796096.083   114539353.737       -1724.563          46.000  
R 7  24140917.455                1      -4583.730          18.000  
S38  39289471.388   206467620.801        -290.005          41.000  
R11  20791536.188   111103791.547         532.841          49.000  
R 1  20610404.407   110174571.902        -332.928          46.000  
G15  23197456.864   121903501.366        2691.825          46.000  
G 7  24056026.493   126415260.677       -2579.686          41.000  
R 8  20918376.599   112017009.926       -3609.331          48.000  
R20  21366852.244   114258277.313         113.052          39.000  
R21  21555142.073   115346128.532        3190.353          45.000  
R10  21033209.733   112118965.794       -1534.718          43.000  
R 2  23771580.196                1       2996.214          26.000  
S20  37781318.485   198542295.144        -219.871          39.000  
> 2017 11 25 12 43 22.5989999  0 21                     
G 5  23522119.282   123609589.402       -2577.179          45.000  
G11  25222920.529   132547229.110       -1152.344          31.000  
G13  20775308.358   109175094.338        1335.869          45.000  
R12  23805052.586   127162050.999        1738.396          33.000  
G17  20905895.597   109861357.461        1921.200          52.000  
G19  22113034.686   116204837.262        2520.165          45.000  
G20  24350558.806   127963159.238        -926.186          41.000  
G28  20328361.306   106826370.521       -2325.886          50.000  
G30  21796161.731   114539698.656       -1724.775          46.000  
R 7  24141088.048                1      -4583.730          17.000  
S38  39289482.416   206467678.753        -289.829          41.000  
R11  20791516.365   111103685.003         532.562          49.000  
R 1  20610416.797   110174638.506        -333.392          46.000  
G15  23197354.326   121902963.030        2691.668          46.000  
G 7  24056124.772   126415776.616       -2579.491          41.000  
R 8  20918511.350   112017731.830       -3609.561          48.000  
R20  21366847.951   114258254.766         112.681          39.000  
R21  21555023.097   115345490.492        3189.970          45.000  
R10  21033267.319   112119272.657       -1534.156          43.000  
R 2  23771466.630                1       2996.238          26.000  
S20  37781326.687   198542339.116        -219.986          39.000  
> 2017 11 25 12 43 22.7989999  0 21                     
G 5  23522217.247   123610104.876       -2577.191          45.000  
G11  25222963.317   132547459.889       -1152.507          31.000  
G13  20775257.368   109174827.204        1335.851          45.000  
R12  23804987.566   127161703.176        1739.156          33.000  
G17  20905822.550   109860973.257        1921.136          52.000  
G19  22112938.605   116204333.251        2520.258          45.000  
G20  24350594.091   127963344.505        -926.072          41.000  
G28  20328449.778   106826835.726       -2325.780          50.000  
G30  21796227.344   114540043.590       -1724.447          46.000  
R 7  24141260.002                1      -4583.730          17.000  
S38  39289493.549   206467736.724        -289.580          41.000  
R11  20791496.367   111103578.471         532.953          49.000  
R 1  20610429.326   110174705.161        -333.160          46.000  
G15  23197251.649   121902424.707        2691.718          46.000  
G 7  24056223.122   126416292.610       -2579.330          41.000  
R 8  20918646.100   112018453.765       -3609.470          48.000  
R20  21366843.763   114258232.278         112.458          39.000  
R21  21554904.122   115344852.477        3190.287          45.000  
R10  21033324.904   112119579.606       -1534.319          43.000  
R 2  23771353.448                1       2995.692          26.000  
S20  37781335.063   198542383.121        -219.919          39.000  
> 2017 11 25 12 43 22.9989999  0 21                     
G 5  23522315.143   123610620.308       -2577.155          45.000  
G11  25223005.442   132547690.572       -1153.153          30.000  
G13  20775206.519   109174560.046        1335.804          45.000  
R12  23804922.477   127161355.351        1739.063          33.000  
G17  20905749.503   109860589.031        1921.123          52.000  
G19  22112842.559   116203829.222        2520.227          45.000  
G20  24350629.166   127963529.751        -926.192          41.000  
G28  20328538.460   106827300.903       -2325.942          50.000  
G30  21796292.922   114540388.507       -1724.492          46.000  
R 7  24141432.236                1      -4583.730          17.000  
S38  39289504.543   206467794.666        -289.505          41.000  
R11  20791476.508   111103471.913         532.840          49.000  
R 1  20610442.030   110174771.816        -333.307          46.000  
G15  23197149.147   121901886.368        2691.822          45.000  
G 7  24056321.262   126416808.582       -2579.736          41.000  
R 8  20918780.816   112019175.694       -3609.570          48.000  
R20  21366839.470   114258209.775         112.611          39.000  
R21  21554785.042   115344214.440        3190.227          45.000  
R10  21033382.455   112119886.488       -1534.197          42.000  
R 2  23771240.929                1       2997.304          25.000  
S20  37781343.439   198542427.066        -219.834          40.000  
> 2017 11 25 12 43 23.1989999  0 21                     
G 5  23522413.283   123611135.804       -2577.295          45.000  
G11  25223049.137   132547921.349       -1153.699          30.000  
G13  20775155.703   109174292.952        1335.532          46.000  
R12  23804857.283   127161007.531        1739.272          34.000  
G17  20905676.352   109860204.891        1920.702          52.000  
G19  22112746.583   116203325.253        2519.835          45.000  
G20  24350664.450   127963715.046        -926.404          41.000  
G28  20328627.038   106827766.148       -2326.252          50.000  
G30  21796358.500   114540733.479       -1724.797          46.000  
R 7  24141604.539                1      -4596.849          17.000  
S38  39289515.467   206467852.644        -289.957          41.000  
R11  20791456.545   111103365.415         532.534          49.000  
R 1  20610454.489   110174838.561        -333.752          46.000  
G15  23197046.574   121901348.115        2691.192          45.000  
G 7  24056419.541   126417324.593       -2580.121          41.000  
R 8  20918915.706   112019897.685       -3609.949          48.000  
R20  21366835.247   114258187.372         111.823          39.000  
R21  21554665.996   115343576.479        3189.799          45.000  
R10  21033440.006   112120193.440       -1534.620          43.000  
R 2  23771128.584                1       2996.697          25.000  
S20  37781351.815   198542471.053        -219.747          40.000  
> 2017 11 25 12 43 23.3989999  0 21                     
G 5  23522511.388   123611651.333       -2577.789          45.000  
G11  25223093.705   132548152.147       -1153.881          30.000  
G13  20775104.993   109174025.906        1335.106          46.000  
R12  23804792.298   127160659.766        1739.474          34.000  
G17  20905603.096   109859820.800        1920.349          52.000  
G19  22112650.642   116202821.320        2519.697          46.000  
G20  24350699.769   127963900.409        -926.898          40.000  
G28  20328715.580   106828231.432       -2326.552          50.000  
G30  21796424.113   114541078.490       -1725.264          46.000  
R 7  24141776.215                1      -4596.849          16.000  
S38  39289526.460   206467910.670        -290.210          41.000  
R11  20791436.652   111103258.931         532.298          50.000  
R 1  20610467.053   110174905.364        -334.210          46.000  
G15  23196944.107   121900809.869        2691.105          45.000  
G 7  24056517.542   126417840.631       -2580.409          41.000  
R 8  20919050.492   112020619.726       -3610.276          48.000  
R20  21366831.129   114258165.017         111.396          39.000  
R21  21554546.846   115342938.532        3189.646          45.000  
R10  21033497.592   112120500.424       -1535.184          43.000  
R 2  23771016.728                1       2994.951          25.000  
S20  37781360.261   198542515.090        -219.935          40.000  
> 2017 11 25 12 43 23.5989999  0 21                     
G 5  23522609.389   123612166.817       -2577.271          45.000  
G11  25223137.226   132548382.879       -1153.303          31.000  
G13  20775054.073   109173758.821        1335.645          46.000  
R12  23804727.070   127160311.980        1739.292          34.000  
G17  20905529.875   109859436.669        1920.851          52.000  
G19  22112554.875   116202317.356        2520.118          46.000  
G20  24350735.088   127964085.718        -926.196          40.000  
G28  20328804.122   106828696.681       -2326.061          50.000  
G30  21796489.691   114541423.456       -1724.725          46.000  
R 7  24141948.344                1      -4596.458          17.000  
S38  39289537.594   206467968.633        -289.675          41.000  
R11  20791416.724   111103152.411         532.853          50.000  
R 1  20610479.548   110174972.152        -333.655          46.000  
G15  23196841.569   121900271.595        2691.727          45.000  
G 7  24056615.682   126418356.623       -2580.005          41.000  
R 8  20919185.487   112021341.734       -3609.776          48.000  
R20  21366826.941   114258142.615         112.279          39.000  
R21  21554427.731   115342300.565        3190.075          45.000  
R10  21033555.142   112120807.331       -1534.436          43.000  
R 2  23770904.419                1       2996.256          25.000  
S20  37781368.672   198542559.081        -219.850          40.000  
> 2017 11 25 12 43 23.7989999  0 21                     
G 5  23522707.494   123612682.307       -2577.478          45.000  
G11  25223182.142   132548613.669       -1153.109          31.000  
G13  20775003.189   109173491.768        1335.458          46.000  
R12  23804661.841   127159964.172        1739.351          34.000  
G17  20905456.759   109859052.571        1920.588          52.000  
G19  22112458.864   116201813.402        2519.859          46.000  
G20  24350770.268   127964271.046        -926.582          40.000  
G28  20328892.630   106829161.936       -2326.184          50.000  
G30  21796555.234   114541768.420       -1724.684          46.000  
R 7  24142121.345                1      -4596.458          17.000  
S38  39289548.413   206468026.609        -289.734          41.000  
R11  20791396.831   111103045.892         532.593          50.000  
R 1  20610492.042   110175038.978        -334.174          46.000  
G15  23196739.206   121899733.334        2691.351          45.000  
G 7  24056713.647   126418872.630       -2579.954          40.000  
R 8  20919320.307   112022063.764       -3610.036          48.000  
R20  21366822.822   114258120.282         111.757          39.000  
R21  21554308.511   115341662.605        3189.937          45.000  
R10  21033612.728   112121114.262       -1534.563          43.000  
R 2  23770791.481                1       2996.709          25.000  
S20  37781377.013   198542603.040        -219.698          40.000  
> 2017 11 25 12 43 23.9989999  0 21                     
G 5  23522805.529   123613197.794       -2577.258          45.000  
G11  25223226.641   132548844.456       -1153.640          31.000  
G13  20774952.304   109173224.723        1335.220          45.000  
R12  23804596.786   127159616.355        1739.276          34.000  
G17  20905383.712   109858668.483        1920.392          52.000  
G19  22112362.922   116201309.449        2519.883          46.000  
G20  24350805.622   127964456.372        -926.449          40.000  
G28  20328981.068   106829627.190       -2326.134          50.000  
G30  21796620.811   114542113.389       -1724.752          46.000  
R 7  24142293.858                1      -4592.110          16.000  
S38  39289559.406   206468084.584        -290.162          41.000  
R11  20791376.972   111102939.368         532.648          50.000  
R 1  20610504.746   110175105.824        -334.296          46.000  
G15  23196636.564   121899195.073        2691.512          45.000  
G 7  24056811.787   126419388.603       -2579.857          40.000  
R 8  20919455.162   112022785.796       -3610.152          48.000  
R20  21366818.600   114258097.967         111.644          39.000  
R21  21554189.396   115341024.655        3189.763          45.000  
R10  21033670.314   112121421.174       -1534.713          43.000  
R 2  23770678.857                1       2995.492          25.000  
S20  37781385.320   198542647.001        -219.495          40.000  
> 2017 11 25 12 43 24.3989999  0 21                     
G 5  23523001.460   123614228.721       -2577.399          45.000  
G11  25223313.857   132549306.060       -1154.249          32.000  
G13  20774850.674   109172690.622        1334.802          45.000  
R12  23804466.433   127158920.663        1739.039          34.000  
G17  20905237.514   109857900.293        1920.268          52.000  
G19  22112171.075   116200301.504        2519.648          45.000  
G20  24350876.051   127964827.037        -927.004          40.000  
G28  20329158.222   106830557.691       -2326.629          50.000  
G30  21796751.898   114542803.266       -1724.855          46.000  
R 7  24142637.348                1      -4582.848          16.000  
S38  39289581.289   206468200.420        -289.488          41.000  
R11  20791337.430   111102726.260         532.630          50.000  
R 1  20610529.804   110175239.544        -334.522          46.000  
G15  23196431.594   121898118.533        2691.331          44.000  
G 7  24057008.102   126420420.514       -2579.609          41.000  
R 8  20919724.943   112024229.862       -3610.440          48.000  
R20  21366810.328   114258053.363         111.412          39.000  
R21  21553951.305   115339748.681        3189.830          46.000  
R10  21033785.555   112122034.947       -1534.666          43.000  
R 2  23770453.889                1       2995.209          25.000  
S20  37781402.037   198542734.853        -219.699          40.000  
> 2017 11 25 12 43 24.5989999  0 21                     
G 5  23523099.565   123614744.160       -2577.118          45.000  
G11  25223357.901   132549536.893       -1153.964          32.000  
G13  20774799.824   109172423.569        1335.414          45.000  
R12  23804401.309   127158572.768        1740.226          34.000  
G17  20905164.363   109857516.206        1920.538          52.000  
G19  22112075.029   116199797.529        2520.090          45.000  
G20  24350911.231   127965012.343        -926.421          40.000  
G28  20329246.904   106831022.934       -2326.061          50.000  
G30  21796817.545   114543148.204       -1724.705          46.000  
R 7  24142808.535                1      -4585.304          17.000  
S38  39289592.318   206468258.335        -289.405          41.000  
R11  20791317.607   111102619.679         533.084          50.000  
R 1  20610542.473   110175306.433        -334.497          46.000  
G15  23196329.126   121897580.245        2691.172          44.000  
G 7  24057106.277   126420936.471       -2579.645          41.000  
R 8  20919859.623   112024951.890       -3609.920          48.000  
R20  21366806.140   114258031.084         111.432          39.000  
R21  21553832.155   115339110.722        3189.984          46.000  
R10  21033843.141   112122341.809       -1534.147          43.000  
R 2  23770341.614                1       2996.631          25.000  
S20  37781410.413   198542778.761        -219.540          40.000  
> 2017 11 25 12 43 24.7989999  0 21                     
G 5  23523197.705   123615259.648       -2577.246          46.000  
G11  25223401.596   132549767.707       -1154.283          32.000  
G13  20774749.218   109172156.570        1335.027          45.000  
R12  23804336.185   127158224.929        1738.696          33.000  
G17  20905091.316   109857132.182        1919.942          52.000  
G19  22111979.018   116199293.616        2519.589          45.000  
G20  24350946.480   127965197.723        -927.120          40.000  
G28  20329335.412   106831488.232       -2326.551          50.000  
G30  21796883.158   114543493.172       -1724.938          46.000  
R 7  24142980.594                1      -4587.771          18.000  
S38  39289603.206   206468316.263        -289.581          41.000  
R11  20791297.783   111102513.153         532.623          50.000  
R 1  20610555.003   110175373.379        -334.821          46.000  
G15  23196226.659   121897041.994        2691.155          44.000  
G 7  24057204.697   126421452.427       -2579.480          41.000  
R 8  20919994.409   112025674.002       -3610.541          48.000  
R20  21366801.952   114258008.868         111.044          39.000  
R21  21553713.005   115338472.801        3189.429          46.000  
R10  21033900.796   112122648.695       -1534.512          43.000  
R 2  23770229.374                1       2995.929          26.000  
S20  37781418.719   198542822.702        -219.752          40.000  
> 2017 11 25 12 43 24.9989999  0 21                     
G 5  23523295.880   123615775.100       -2577.283          46.000  
G11  25223445.885   132549998.544       -1153.879          32.000  
G13  20774698.368   109171889.565        1335.183          45.000  
R12  23804270.991   127157877.050        1739.430          33.000  
G17  20905017.990   109856748.135        1920.357          52.000  
G19  22111883.006   116198789.651        2519.881          45.000  
G20  24350981.660   127965383.069        -926.699          40.000  
G28  20329423.989   106831953.494       -2326.245          50.000  
G30  21796948.666   114543838.115       -1724.464          46.000  
R 7  24143152.339                1      -4586.401          18.000  
S38  39289614.095   206468374.172        -289.808          41.000  
R11  20791277.925   111102406.600         532.952          50.000  
R 1  20610567.532   110175440.339        -334.619          46.000  
G15  23196124.156   121896503.740        2691.302          44.000  
G 7  24057302.767   126421968.404       -2579.534          41.000  
R 8  20920129.194   112026396.073       -3610.202          48.000  
R20  21366797.659   114257986.658         111.497          39.000  
R21  21553593.925   115337834.850        3189.932          45.000  
R10  21033958.347   112122955.539       -1533.940          43.000  
R 2  23770117.658                1       2995.838          26.000  
S20  37781427.130   198542866.624        -219.498          40.000  
> 2017 11 25 12 43 25.1989999  0 21                     
G 5  23523393.950   123616290.562       -2577.283          46.000  
G11  25223490.278   132550229.383       -1154.310          32.000  
G13  20774647.483   109171622.570        1335.123          45.000  
R12  23804205.936   127157529.158        1739.186          34.000  
G17  20904944.804   109856364.103        1920.209          51.000  
G19  22111786.995   116198285.712        2519.836          45.000  
G20  24351016.979   127965568.421        -926.583          40.000  
G28  20329512.531   106832418.768       -2326.288          50.000  
G30  21797014.314   114544183.063       -1724.688          46.000  
R 7  24143324.991                1      -4591.152          19.000  
S38  39289625.194   206468432.045        -289.153          41.000  
R11  20791258.066   111102300.039         532.888          50.000  
R 1  20610580.166   110175507.326        -334.796          46.000  
G15  23196021.584   121895965.457        2691.646          44.000  
G 7  24057401.046   126422484.351       -2579.740          41.000  
R 8  20920264.015   112027118.162       -3610.296          48.000  
R20  21366793.506   114257964.480         111.030          39.000  
R21  21553474.635   115337196.913        3189.807          45.000  
R10  21034015.898   112123262.402       -1534.137          43.000  
R 2  23770005.209   126841312.8573       2995.980          26.000  
S20  37781435.471   198542910.535        -219.414          40.000  
> 2017 11 25 12 43 25.3989999  0 21                     
G 5  23523492.230   123616805.951       -2576.984          46.000  
G11  25223534.532   132550460.169       -1154.050          32.000  
G13  20774596.843   109171355.535        1335.161          45.000  
R12  23804140.812   127157181.211        1739.889          34.000  
G17  20904871.618   109855980.051        1920.225          51.000  
G19  22111691.019   116197781.724        2519.821          45.000  
G20  24351052.054   127965753.761        -926.847          40.000  
G28  20329601.039   106832884.011       -2326.184          50.000  
G30  21797080.066   114544527.958       -1724.491          47.000  
R 7  24143496.387                1      -4575.331          19.000  
S38  39289636.222   206468489.906        -289.297          41.000  
R11  20791238.103   111102193.432         532.915          50.000  
R 1  20610592.835   110175574.301        -334.906          46.000  
G15  23195919.116   121895427.165        2691.527          45.000  
G 7  24057499.291   126423000.238       -2579.144          41.000  
R 8  20920398.940   112027840.229       -3610.505          48.000  
R20  21366789.318   114257942.270         111.029          39.000  
R21  21553355.415   115336558.922        3189.998          45.000  
R10  21034073.449   112123569.217       -1534.124          43.000  
R 2  23769893.562   126840713.7563       2994.867          26.000  
S20  37781443.848   198542954.361        -219.067          40.000  
> 2017 11 25 12 43 25.5989999  0 21                     
G 5  23523590.545   123617321.336       -2576.917          46.000  
G11  25223578.821   132550690.935       -1153.496          31.000  
G13  20774545.958   109171088.490        1335.141          45.000  
R12  23804075.653   127156833.301        1739.340          34.000  
G17  20904798.327   109855596.002        1920.190          51.000  
G19  22111594.834   116197277.731        2519.884          45.000  
G20  24351087.304   127965939.072        -926.707          40.000  
G28  20329689.686   106833349.236       -2326.204          50.000  
G30  21797145.784   114544872.840       -1724.471          46.000  
R 7  24143667.818                1      -4592.505          20.000  
S38  39289647.425   206468547.699        -289.167          41.000  
R11  20791218.105   111102086.798         533.178          50.000  
R 1  20610605.469   110175641.282        -335.059          46.000  
G15  23195816.648   121894888.859        2691.354          45.000  
G 7  24057597.641   126423516.123       -2579.784          41.000  
R 8  20920533.725   112028562.280       -3610.332          47.000  
R20  21366785.060   114257920.083         110.445          39.000  
R21  21553236.300   115335920.943        3189.727          45.000  
R10  21034130.895   112123876.008       -1534.235          42.000  
R 2  23769781.008                1       2997.454          26.000  
S20  37781452.259   198542998.203        -219.092          40.000  
> 2017 11 25 12 43 25.7989999  0 21                     
G 5  23523688.789   123617836.711       -2576.782          46.000  
G11  25223622.621   132550921.758       -1154.619          31.000  
G13  20774495.213   109170821.477        1335.115          45.000  
R12  23804010.668   127156485.341        1739.379          34.000  
G17  20904725.141   109855211.962        1920.286          51.000  
G19  22111498.962   116196773.743        2520.061          45.000  
G20  24351122.413   127966124.412        -926.348          40.000  
G28  20329778.124   106833814.463       -2326.081          50.000  
G30  21797211.536   114545217.732       -1724.493          46.000  
R 7  24143839.214                1      -4594.600          20.000  
S38  39289658.593   206468605.505        -288.849          41.000  
R11  20791198.247   111101980.163         533.250          50.000  
R 1  20610618.172   110175708.286        -335.059          46.000  
G15  23195714.355   121894350.578        2691.850          44.000  
G 7  24057695.746   126424031.988       -2578.822          41.000  
R 8  20920668.406   112029284.341       -3610.103          47.000  
R20  21366780.837   114257897.886         110.864          39.000  
R21  21553117.115   115335282.964        3189.886          45.000  
R10  21034188.481   112124182.783       -1533.850          42.000  
R 2  23769669.955                1       2995.331          26.000  
S20  37781460.635   198543042.032        -219.066          40.000  
> 2017 11 25 12 43 25.9989999  0 21                     
G 5  23523786.894   123618352.098       -2576.807          46.000  
G11  25223666.421   132551152.525       -1154.282          31.000  
G13  20774444.398   109170554.469        1335.158          45.000  
R12  23803945.474   127156137.322        1739.905          34.000  
G17  20904652.024   109854827.933        1920.168          51.000  
G19  22111403.091   116196269.760        2520.087          45.000  
G20  24351157.628   127966309.757        -926.748          40.000  
G28  20329866.666   106834279.696       -2326.192          50.000  
G30  21797277.289   114545562.613       -1724.539          46.000  
R 7  24144011.308                1      -4581.770          21.000  
S38  39289669.552   206468663.312        -289.008          41.000  
R11  20791178.458   111101873.526         533.359          50.000  
R 1  20610630.806   110175775.307        -335.175          46.000  
G15  23195611.992   121893812.291        2691.436          45.000  
G 7  24057793.990   126424547.861       -2579.348          41.000  
R 8  20920803.192   112030006.415       -3610.313          48.000  
R20  21366776.719   114257875.737         111.033          39.000  
R21  21552997.860   115334644.979        3189.993          45.000  
R10  21034246.136   112124489.543       -1533.541          43.000  
R 2  23769558.972                1       2996.344          26.000  
S20  37781469.011   198543085.852        -219.189          40.000  
> 2017 11 25 12 43 26.3989999  0 20                     
G 5  23523983.314   123619382.832       -2576.746          46.000  
G11  25223753.951   132551614.125       -1153.458          31.000  
G13  20774342.523   109170020.441        1335.191          45.000  
R12  23803815.470   127155441.373        1740.056          35.000  
G17  20904505.896   109854059.885        1920.216          51.000  
G19  22111211.278   116195261.758        2520.277          45.000  
G20  24351228.406   127966680.410        -926.686          40.000  
G28  20330043.716   106835210.153       -2326.092          50.000  
G30  21797408.270   114546252.337       -1724.204          46.000  
R 2  23769334.737   126837717.7331       2995.673          26.000  
S38  39289691.644   206468778.848        -288.634          41.000  
R11  20791138.532   111101660.214         533.405          50.000  
R 1  20610656.284   110175909.417        -335.303          46.000  
G15  23195407.441   121892735.666        2691.732          45.000  
G 7  24057990.689   126425579.549       -2578.787          42.000  
R 8  20921072.693   112031450.556       -3610.151          47.000  
R20  21366768.203   114257831.493         110.637          39.000  
R21  21552759.630   115333369.028        3189.915          45.000  
R10  21034361.377   112125103.035       -1533.585          44.000  
S20  37781485.623   198543173.413        -218.705          40.000  
> 2017 11 25 12 43 26.5989999  0 21                     
G 5  23524081.454   123619898.210       -2577.081          45.000  
G11  25223797.402   132551844.975       -1154.458          31.000  
G13  20774291.499   109169753.486        1334.590          44.000  
R12  23803750.416   127155093.393        1739.783          35.000  
G17  20904432.780   109853675.908        1919.705          51.000  
G19  22111115.267   116194757.796        2519.641          44.000  
G20  24351263.516   127966865.761        -926.936          40.000  
G28  20330132.119   106835675.425       -2326.540          49.000  
G30  21797473.673   114546597.212       -1724.430          45.000  
R 2  23769222.671                1       2995.750          26.000  
S38  39289702.603   206468836.611        -288.805          41.000  
R11  20791118.569   111101553.574         533.239          49.000  
R 1  20610668.883   110175976.537        -335.822          46.000  
G15  23195304.903   121892197.395        2691.271          45.000  
G 7  24058088.864   126426095.443       -2579.644          41.000  
R 8  20921207.478   112032172.678       -3610.761          47.000  
R20  21366764.015   114257809.382         110.367          39.000  
R21  21552640.619   115332731.070        3189.687          45.000  
R10  21034418.928   112125409.800       -1534.184          42.000  
R 7  24144526.334                1      -4592.115          23.000  
S20  37781493.860   198543217.203        -218.897          40.000  
> 2017 11 25 12 43 26.7989999  0 21                     
G 5  23524179.594   123620413.587       -2577.026          44.000  
G11  25223841.447   132552075.866       -1153.990          30.000  
G13  20774240.649   109169486.534        1334.704          44.000  
R12  23803685.152   127154745.419        1739.927          34.000  
G17  20904359.628   109853291.927        1919.940          50.000  
G19  22111019.151   116194253.836        2519.807          44.000  
G20  24351298.835   127967051.137        -927.023          39.000  
G28  20330220.557   106836140.693       -2326.399          48.000  
G30  21797539.182   114546942.099       -1724.656          45.000  
R 2  23769111.095   126836519.4861       2995.000          26.000  
S38  39289713.736   206468894.377        -288.689          41.000  
R11  20791098.502   111101446.932         533.296          49.000  
R 1  20610681.412   110176043.690        -335.675          46.000  
G15  23195202.505   121891659.096        2691.534          43.000  
G 7  24058186.969   126426611.288       -2579.225          40.000  
R 8  20921342.264   112032894.807       -3610.603          47.000  
R20  21366759.688   114257787.346         110.452          39.000  
R21  21552521.434   115332093.133        3189.768          45.000  
R10  21034476.514   112125716.535       -1533.816          42.000  
R 7  24144699.440                1      -4579.930          23.000  
S20  37781502.201   198543260.992        -218.890          39.000  
> 2017 11 25 12 43 26.9989999  0 21                     
G 5  23524277.629   123620928.935       -2576.898          45.000  
G11  25223884.304   132552306.5861      -1153.519          30.000  
G13  20774189.869   109169219.562        1334.602          44.000  
R12  23803620.063   127154397.410        1739.505          34.000  
G17  20904286.652   109852907.959        1919.684          50.000  
G19  22110923.210   116193749.868        2519.713          44.000  
G20  24351334.015   127967236.490        -926.781          39.000  
G28  20330309.029   106836605.952       -2326.548          48.000  
G30  21797604.829   114547286.946       -1724.493          44.000  
R 2  23768999.343                1       2996.676          25.000  
S38  39289724.834   206468952.110        -288.663          41.000  
R11  20791078.504   111101340.265         533.246          49.000  
R 1  20610694.255   110176110.835        -335.901          46.000  
G15  23195100.107   121891120.787        2691.490          44.000  
G 7  24058285.109   126427127.136       -2579.235          40.000  
R 8  20921477.154   112033616.924       -3610.706          47.000  
R20  21366755.604   114257765.316         109.895          39.000  
R21  21552402.354   115331455.188        3189.449          45.000  
R10  21034534.135   112126023.249       -1533.572          42.000  
R 7  24144871.744                1      -4580.653          23.000  
S20  37781510.473   198543304.719        -218.648          38.000  
> 2017 11 25 12 43 27.1989999  0 21                     
G 5  23524375.630   123621444.312       -2576.880          45.000  
G11  25223925.626   132552537.5201      -1154.800          29.000  
G13  20774139.193   109168952.626        1334.775          44.000  
R12  23803554.938   127154049.355        1740.449          35.000  
G17  20904213.570   109852524.010        1919.742          50.000  
G19  22110827.233   116193245.897        2519.958          44.000  
G20  24351369.264   127967421.873        -926.812          39.000  
G28  20330397.467   106837071.209       -2326.245          49.000  
G30  21797670.302   114547631.822       -1724.388          45.000  
R 2  23768887.104                1       2994.972          25.000  
S38  39289736.003   206469009.844        -288.758          41.000  
R11  20791058.226   111101233.572         533.620          49.000  
R 1  20610706.924   110176178.015        -335.895          47.000  
G15  23194997.640   121890582.515        2691.368          44.000  
G 7  24058383.249   126427642.959       -2579.094          40.000  
R 8  20921611.939   112034339.057       -3610.612          47.000  
R20  21366751.416   114257743.321         109.897          39.000  
R21  21552283.239   115330817.237        3189.820          45.000  
R10  21034591.720   112126329.979       -1533.683          42.000  
R 7  24145043.559                1      -4589.477          23.000  
S20  37781518.814   198543348.457        -218.422          38.000  
> 2017 11 25 12 43 27.3989999  0 21                     
G 5  23524473.979   123621959.642       -2576.837          46.000  
G11  25223966.704   132552768.329       -1153.854          29.000  
G13  20774088.413   109168685.686        1334.418          45.000  
R12  23803489.779   127153701.320        1739.711          34.000  
G17  20904140.663   109852140.058        1919.536          51.000  
G19  22110731.257   116192741.934        2519.630          45.000  
G20  24351404.514   127967607.228        -926.794          39.000  
G28  20330485.905   106837536.460       -2326.400          50.000  
G30  21797735.776   114547976.673       -1724.339          46.000  
R 2  23768775.457                1       2995.994          25.000  
S38  39289747.031   206469067.540        -288.492          42.000  
R11  20791038.229   111101126.888         533.286          49.000  
R 1  20610719.593   110176245.214        -336.273          47.000  
G15  23194895.242   121890044.214        2691.355          45.000  
G 7  24058481.355   126428158.773       -2579.204          41.000  
R 8  20921746.795   112035061.173       -3610.740          47.000  
R20  21366747.298   114257721.318         109.817          39.000  
R21  21552164.158   115330179.290        3189.685          45.000  
R10  21034649.166   112126636.658       -1533.486          42.000  
R 7  24145215.164                1      -4577.594          23.000  
S20  37781527.050   198543392.171        -218.374          39.000  
> 2017 11 25 12 43 27.5989999  0 21                     
G 5  23524571.945   123622475.004       -2576.715          46.000  
G11  25224005.793   132552999.222       -1154.724          29.000  
G13  20774037.633   109168418.766        1334.501          45.000  
R12  23803424.690   127153353.287        1740.079          34.000  
G17  20904067.651   109851756.139        1919.497          51.000  
G19  22110635.316   116192237.965        2519.733          45.000  
G20  24351439.589   127967792.649        -927.430          39.000  
G28  20330574.342   106838001.733       -2326.405          50.000  
G30  21797801.249   114548321.556       -1724.277          46.000  
R 2  23768663.043                1       2995.283          25.000  
S38  39289757.955   206469125.277        -288.851          42.000  
R11  20791018.091   111101020.211         533.413          49.000  
R 1  20610732.367   110176312.459        -336.084          47.000  
G15  23194792.600   121889505.942        2691.573          45.000  
G 7  24058579.320   126428674.590       -2579.053          41.000  
R 8  20921881.580   112035783.335       -3610.841          47.000  
R20  21366743.249   114257699.338         110.070          39.000  
R21  21552044.904   115329541.370        3189.513          45.000  
R10  21034706.787   112126943.385       -1533.636          42.000  
R 7  24145386.385                1      -4584.742          24.000  
S20  37781535.461   198543435.889        -218.468          40.000  
> 2017 11 25 12 43 27.7989999  0 21                     
G 5  23524670.050   123622990.358       -2576.880          46.000  
G11  25224050.081   132553230.169       -1155.085          29.000  
G13  20773986.713   109168151.862        1334.362          45.000  
R12  23803359.636   127153005.235        1739.744          34.000  
G17  20903994.640   109851372.243        1919.312          51.000  
G19  22110539.444   116191734.017        2519.705          45.000  
G20  24351474.838   127967978.035        -927.429          39.000  
G28  20330662.780   106838467.027       -2326.558          50.000  
G30  21797866.827   114548666.434       -1724.595          46.000  
R 2  23768550.454                1       2995.159          25.000  
S38  39289768.809   206469182.990        -288.884          42.000  
R11  20790997.988   111100913.530         533.352          49.000  
R 1  20610745.105   110176379.733        -336.658          47.000  
G15  23194690.027   121888967.684        2691.005          44.000  
G 7  24058677.320   126429190.431       -2579.319          41.000  
R 8  20922016.505   112036505.505       -3610.977          47.000  
R20  21366739.027   114257677.462         109.319          39.000  
R21  21551925.649   115328903.446        3189.573          45.000  
R10  21034764.338   112127250.084       -1533.684          42.000  
R 7  24145558.724                1      -4585.446          24.000  
S20  37781543.837   198543479.608        -218.680          40.000  
> 2017 11 25 12 43 27.9989999  0 21                     
G 5  23524768.260   123623505.723       -2576.910          46.000  
G11  25224089.693   132553461.035       -1154.709          29.000  
G13  20773935.898   109167884.973        1334.413          45.000  
R12  23803294.546   127152657.209        1739.922          34.000  
G17  20903921.523   109850988.360        1919.307          51.000  
G19  22110443.468   116191230.087        2519.639          45.000  
G20  24351510.053   127968163.451        -927.151          39.000  
G28  20330751.218   106838932.326       -2326.514          50.000  
G30  21797932.509   114549011.300       -1724.398          46.000  
R 2  23768437.865                1       2993.819          25.000  
S38  39289779.593   206469240.700        -288.390          42.000  
R11  20790978.060   111100806.851         533.407          49.000  
R 1  20610757.879   110176447.028        -336.615          47.000  
G15  23194587.455   121888429.428        2691.192          44.000  
G 7  24058775.356   126429706.298       -2579.263          40.000  
R 8  20922151.221   112037227.699       -3611.111          47.000  
R20  21366734.769   114257655.552         109.513          39.000  
R21  21551806.394   115328265.534        3189.668          45.000  
R10  21034821.889   112127556.782       -1533.392          42.000  
R 7  24145729.457                1      -4580.959          24.000  
S20  37781552.004   198543523.303        -218.514          40.000  
> 2017 11 25 12 43 28.1989999  0 21                     
G 5  23524866.365   123624021.086       -2576.758          46.000  
G11  25224135.518   132553691.919       -1154.692          28.000  
G13  20773885.048   109167618.098        1334.269          45.000  
R12  23803229.492   127152309.169        1740.365          35.000  
G17  20903848.267   109850604.497        1919.215          51.000  
G19  22110347.562   116190726.169        2519.475          45.000  
G20  24351545.232   127968348.887        -927.371          39.000  
G28  20330839.725   106839397.641       -2326.698          50.000  
G30  21797998.018   114549356.198       -1724.618          46.000  
R 2  23768325.695                1       2995.754          26.000  
S38  39289790.657   206469298.432        -288.795          42.000  
R11  20790957.923   111100700.182         533.185          49.000  
R 1  20610770.792   110176514.372        -336.804          47.000  
G15  23194485.057   121887891.188        2691.056          44.000  
G 7  24058873.391   126430222.140       -2579.465          40.000  
R 8  20922286.006   112037949.895       -3611.110          47.000  
R20  21366730.476   114257633.704         108.955          39.000  
R21  21551687.139   115327627.648        3189.473          45.000  
R10  21034879.474   112127863.484       -1533.537          42.000  
R 7  24145900.958                1      -4586.009          25.000  
S20  37781560.485   198543567.057        -218.879          40.000  
> 2017 11 25 12 43 28.3989999  0 21                     
G 5  23524964.435   123624536.452       -2576.923          46.000  
G11  25224179.004   132553922.809       -1154.318          28.000  
G13  20773834.268   109167351.224        1334.203          45.000  
R12  23803164.507   127151961.105        1740.221          35.000  
G17  20903775.290   109850220.633        1919.171          51.000  
G19  22110251.690   116190222.240        2519.369          45.000  
G20  24351580.551   127968534.319        -927.092          40.000  
G28  20330928.128   106839862.941       -2326.711          50.000  
G30  21798063.630   114549701.061       -1724.563          46.000  
R 2  23768213.351                1       2994.901          26.000  
S38  39289801.615   206469356.141        -288.860          41.000  
R11  20790937.855   111100593.482         533.254          49.000  
R 1  20610783.426   110176581.713        -336.939          47.000  
G15  23194382.589   121887352.938        2691.025          44.000  
G 7  24058971.496   126430737.967       -2579.146          40.000  
R 8  20922420.722   112038672.099       -3611.225          47.000  
R20  21366726.288   114257611.857         109.283          39.000  
R21  21551567.919   115326989.748        3189.414          45.000  
R10  21034936.990   112128170.171       -1533.733          42.000  
R 7  24146072.284                1      -4585.708          25.000  
S20  37781568.756   198543610.747        -218.713          40.000  
> 2017 11 25 12 43 28.5989999  0 21                     
G 5  23525062.436   123625051.770       -2576.538          46.000  
G11  25224225.177   132554153.705       -1154.705          28.000  
G13  20773783.558   109167084.345        1334.531          45.000  
R12  23803099.313   127151613.036        1740.383          35.000  
G17  20903702.174   109849836.757        1919.365          51.000  
G19  22110155.819   116189718.284        2519.866          46.000  
G20  24351615.836   127968719.742        -927.201          40.000  
G28  20331016.705   106840328.217       -2326.350          50.000  
G30  21798129.138   114550045.886       -1723.932          46.000  
R 2  23768100.902   126831141.1561       2995.637          26.000  
S38  39289812.330   206469413.799        -288.287          41.000  
R11  20790917.648   111100486.749         533.778          48.000  
R 1  20610796.269   110176649.067        -336.939          47.000  
G15  23194280.122   121886814.665        2691.263          44.000  
G 7  24059069.566   126431253.756       -2578.750          40.000  
R 8  20922555.403   112039394.277       -3610.766          47.000  
R20  21366722.239   114257590.014         109.385          39.000  
R21  21551448.769   115326351.831        3189.593          46.000  
R10  21034994.541   112128476.825       -1533.203          42.000  
R 7  24146243.959                1      -4585.163          25.000  
S20  37781577.097   198543654.398        -218.002          40.000  
> 2017 11 25 12 43 28.7989999  0 21                     
G 5  23525160.471   123625567.070       -2576.422          46.000  
G11  25224272.886   132554384.537       -1153.963          28.000  
G13  20773732.568   109166817.443        1334.606          45.000  
R12  23803034.084   127151264.928        1740.608          35.000  
G17  20903629.197   109849452.861        1919.536          51.000  
G19  22110059.947   116189214.310        2520.025          46.000  
G20  24351651.120   127968905.138        -927.112          39.000  
G28  20331105.038   106840793.474       -2326.018          50.000  
G30  21798194.682   114550390.706       -1723.942          46.000  
R 2  23767989.430   126830542.0231       2995.915          26.000  
S38  39289823.149   206469471.434        -288.001          41.000  
R11  20790897.440   111100379.992         533.874          48.000  
R 1  20610808.903   110176716.402        -336.700          47.000  
G15  23194177.689   121886276.354        2691.557          44.000  
G 7  24059167.462   126431769.507       -2578.605          40.000  
R 8  20922690.153   112040116.442       -3610.800          47.000  
R20  21366718.121   114257568.153         109.190          39.000  
R21  21551329.654   115325713.881        3189.949          46.000  
R10  21035052.057   112128783.431       -1532.786          42.000  
R 7  24146415.913                1      -4585.318          25.000  
S20  37781585.474   198543698.032        -217.992          40.000  
> 2017 11 25 12 43 28.9989999  0 21                     
G 5  23525258.367   123626082.350       -2576.263          46.000  
G11  25224318.047   132554615.452       -1154.756          28.000  
G13  20773681.579   109166550.549        1334.569          45.000  
R12  23802968.786   127150916.769        1740.443          35.000  
G17  20903556.116   109849068.985        1919.347          51.000  
G19  22109964.076   116188710.328        2519.858          46.000  
G20  24351686.579   127969090.508        -926.855          39.000  
G28  20331193.581   106841258.734       -2326.245          50.000  
G30  21798260.120   114550735.517       -1724.099          46.000  
R 2  23767876.841   126829943.0001       2995.066          26.000  
S38  39289834.003   206469529.070        -287.964          41.000  
R11  20790877.303   111100273.225         533.770          48.000  
R 1  20610821.642   110176783.772        -337.018          47.000  
G15  23194075.326   121885738.059        2691.393          45.000  
G 7  24059265.498   126432285.245       -2578.701          40.000  
R 8  20922824.660   112040838.623       -3610.939          47.000  
R20  21366714.108   114257546.319         109.199          39.000  
R21  21551210.434   115325075.941        3189.760          46.000  
R10  21035109.678   112129090.057       -1533.264          42.000  
R 7  24146586.751                1      -4585.246          26.000  
S20  37781593.815   198543741.636        -218.055          40.000  
> 2017 11 25 12 43 29.1989999  0 21                     
G 5  23525356.367   123626597.602       -2576.306          45.000  
G11  25224357.729   132554846.309       -1154.168          28.000  
G13  20773630.659   109166283.629        1334.702          45.000  
R12  23802903.417   127150568.575        1741.189          35.000  
G17  20903483.279   109848685.092        1919.336          51.000  
G19  22109868.344   116188206.318        2520.112          46.000  
G20  24351721.724   127969275.886        -926.830          39.000  
G28  20331281.949   106841723.963       -2326.136          49.000  
G30  21798325.558   114551080.290       -1723.879          45.000  
R 2  23767764.915   126829343.9191       2995.209          26.000  
S38  39289845.032   206469586.679        -288.041          41.000  
R11  20790857.060   111100166.418         533.986          48.000  
R 1  20610834.415   110176851.133        -337.018          47.000  
G15  23193972.858   121885199.731        2691.662          45.000  
G 7  24059363.672   126432800.963       -2578.705          40.000  
R 8  20922959.096   112041560.781       -3610.926          47.000  
R20  21366709.954   114257524.471         109.171          39.000  
R21  21551091.180   115324437.970        3189.864          46.000  
R10  21035167.263   112129396.602       -1532.629          42.000  
R 7  24146758.077                1      -4584.595          26.000  
S20  37781602.121   198543785.211        -217.936          40.000  
> 2017 11 25 12 43 29.3989999  0 21                     
G 5  23525454.402   123627112.865       -2576.172          45.000  
G11  25224402.401   132555077.197       -1154.581          28.000  
G13  20773579.879   109166016.747        1334.517          45.000  
R12  23802838.188   127150220.406        1741.375          35.000  
G17  20903410.162   109848301.224        1919.364          51.000  
G19  22109772.437   116187702.347        2519.751          46.000  
G20  24351757.008   127969461.293        -927.490          40.000  
G28  20331370.456   106842189.219       -2326.264          49.000  
G30  21798391.031   114551425.082       -1723.962          45.000  
R 2  23767652.361   126828744.7831       2996.016          26.000  
S38  39289855.816   206469644.270        -287.938          41.000  
R11  20790836.958   111100059.626         534.033          48.000  
R 1  20610847.119   110176918.532        -337.012          47.000  
G15  23193870.600   121884661.423        2691.552          45.000  
G 7  24059461.743   126433316.670       -2578.542          41.000  
R 8  20923093.637   112042282.952       -3610.929          46.000  
R20  21366705.941   114257502.683         108.757          39.000  
R21  21550972.029   115323800.031        3189.649          46.000  
R10  21035224.779   112129703.180       -1532.822          42.000  
R 7  24146928.426                1      -4583.775          26.000  
S20  37781610.462   198543828.771        -217.788          40.000  
> 2017 11 25 12 43 29.5989999  0 21                     
G 5  23525552.612   123627628.130       -2576.123          45.000  
G11  25224445.922   132555308.067       -1154.329          28.000  
G13  20773528.889   109165749.893        1334.490          45.000  
R12  23802772.924   127149872.256        1740.774          34.000  
G17  20903337.081   109847917.373        1919.408          51.000  
G19  22109676.566   116187198.359        2520.074          46.000  
G20  24351792.188   127969646.685        -926.957          40.000  
G28  20331458.999   106842654.488       -2326.281          49.000  
G30  21798456.470   114551769.875       -1723.912          45.000  
R 2  23767540.610   126828145.8301       2994.916          26.000  
S38  39289866.740   206469701.878        -288.020          41.000  
R11  20790816.785   111099952.838         534.027          48.000  
R 1  20610859.579   110176985.955        -337.042          47.000  
G15  23193768.411   121884123.113        2691.775          45.000  
G 7  24059559.848   126433832.398       -2578.751          41.000  
R 8  20923228.283   112043005.149       -3610.769          47.000  
R20  21366701.892   114257480.902         109.012          39.000  
R21  21550852.844   115323162.084        3189.846          46.000  
R10  21035282.225   112130009.747       -1532.877          42.000  
R 7  24147099.089                1      -4584.131          26.000  
S20  37781618.559   198543872.340        -217.797          40.000  
> 2017 11 25 12 43 29.7989999  0 21                     
G 5  23525650.578   123628143.335       -2575.983          45.000  
G11  25224485.604   132555538.913       -1153.870          28.000  
G13  20773477.970   109165482.978        1334.498          45.000  
R12  23802707.765   127149523.981        1741.673          34.000  
G17  20903264.034   109847533.475        1919.622          51.000  
G19  22109580.625   116186694.325        2520.271          46.000  
G20  24351827.472   127969832.030        -926.639          40.000  
G28  20331547.506   106843119.684       -2325.817          49.000  
G30  21798522.117   114552114.595       -1723.501          45.000  
R 2  23767428.614   126827546.6661       2995.960          27.000  
S38  39289877.733   206469759.412        -287.655          41.000  
R11  20790796.543   111099845.969         534.531          48.000  
R 1  20610872.143   110177053.350        -336.914          47.000  
G15  23193665.979   121883584.747        2691.919          45.000  
G 7  24059657.953   126434348.046       -2578.043          41.000  
R 8  20923363.069   112043727.277       -3610.458          47.000  
R20  21366697.774   114257459.092         109.074          39.000  
R21  21550733.415   115322524.093        3190.319          45.000  
R10  21035339.741   112130316.231       -1532.113          42.000  
R 7  24147270.486                1      -4582.649          26.000  
S20  37781626.831   198543915.822        -217.291          40.000  
> 2017 11 25 12 43 29.9989999  0 21                     
G 5  23525748.543   123628658.538       -2576.013          45.000  
G11  25224527.973   132555769.736       -1153.733          28.000  
G13  20773427.294   109165216.063        1334.641          45.000  
R12  23802642.501   127149175.770        1741.396          34.000  
G17  20903190.987   109847149.608        1919.374          51.000  
G19  22109484.788   116186190.307        2519.878          46.000  
G20  24351862.721   127970017.399        -926.821          40.000  
G28  20331636.118   106843584.910       -2326.210          49.000  
G30  21798587.835   114552459.343       -1723.654          45.000  
R 2  23767317.352   126826947.5841       2995.438          27.000  
S38  39289888.762   206469816.957        -287.275          41.000  
R11  20790776.685   111099739.120         534.317          49.000  
R 1  20610884.672   110177120.790        -337.183          47.000  
G15  23193563.511   121883046.408        2691.650          45.000  
G 7  24059755.884   126434863.725       -2578.282          41.000  
R 8  20923497.749   112044449.441       -3610.773          47.000  
R20  21366693.691   114257437.317         108.906          39.000  
R21  21550614.195   115321886.112        3189.772          45.000  
R10  21035397.292   112130622.743       -1532.369          42.000  
R 7  24147442.824                1      -4583.466          26.000  
S20  37781635.102   198543959.347        -217.678          40.000  
> 2017 11 25 12 43 30.3989999  0 21                     
G 5  23525944.335   123629688.840       -2575.555          45.000  
G11  25224616.306   132556231.436       -1154.148          28.000  
G13  20773325.560   109164682.202        1334.606          44.000  
R12  23802512.009   127148479.169        1741.291          34.000  
G17  20903044.755   109846381.784        1919.643          51.000  
G19  22109293.220   116185182.171        2520.271          46.000  
G20  24351933.081   127970388.053        -926.891          40.000  
G28  20331812.924   106844515.250       -2325.898          49.000  
G30  21798719.026   114553148.690       -1723.347          45.000  
R 2  23767094.024   126825749.8243       2996.076          27.000  
S38  39289910.679   206469931.901        -286.937          41.000  
R11  20790736.479   111099525.271         534.817          49.000  
R 1  20610909.905   110177255.601        -337.158          47.000  
G15  23193358.506   121881969.605        2692.060          45.000  
G 7  24059951.710   126435894.923       -2578.025          40.000  
R 8  20923767.006   112045893.683       -3610.600          47.000  
R20  21366685.768   114257393.720         109.083          39.000  
R21  21550375.755   115320610.041        3190.210          45.000  
R10  21035512.219   112131235.631       -1532.186          42.000  
R 7  24147785.441                1      -4582.999          26.000  
S20  37781651.575   198544046.226        -216.953          40.000  
> 2017 11 25 12 43 30.5989999  0 21                     
G 5  23526042.300   123630203.977       -2575.952          45.000  
G11  25224660.281   132556462.254       -1154.547          28.000  
G13  20773274.605   109164415.260        1334.471          44.000  
R12  23802446.640   127148130.851        1741.263          34.000  
G17  20902971.743   109845997.891        1919.135          51.000  
G19  22109197.243   116184678.101        2520.051          46.000  
G20  24351968.435   127970573.366        -926.990          40.000  
G28  20331901.501   106844980.427       -2326.224          49.000  
G30  21798784.604   114553493.361       -1723.510          45.000  
R 2  23766980.632   126825150.6993       2995.395          27.000  
S38  39289921.498   206469989.367        -287.511          41.000  
R11  20790716.237   111099418.337         534.368          49.000  
R 1  20610922.434   110177323.038        -337.561          47.000  
G15  23193256.038   121881431.197        2691.726          45.000  
G 7  24060049.536   126436410.494       -2578.260          40.000  
R 8  20923901.827   112046615.807       -3610.853          47.000  
R20  21366681.650   114257371.970         108.489          39.000  
R21  21550256.466   115319972.001        3189.913          45.000  
R10  21035569.735   112131542.032       -1532.353          42.000  
R 7  24147956.558                1      -4581.897          26.000  
S20  37781659.742   198544089.650        -217.358          40.000  
> 2017 11 25 12 43 30.7989999  0 21                     
G 5  23526140.370   123630719.057       -2575.305          45.000  
G11  25224706.419   132556693.027       -1153.803          29.000  
G13  20773223.755   109164148.300        1334.816          45.000  
R12  23802381.237   127147782.457        1741.985          33.000  
G17  20902898.626   109845613.960        1919.691          51.000  
G19  22109101.093   116184173.976        2520.811          46.000  
G20  24352003.719   127970758.654        -926.352          40.000  
G28  20331989.869   106845445.554       -2325.623          49.000  
G30  21798850.181   114553837.978       -1722.890          46.000  
R 2  23766867.660   126824551.6163       2995.432          27.000  
S38  39289932.213   206470046.777        -287.018          41.000  
R11  20790696.100   111099311.349         535.103          49.000  
R 1  20610934.999   110177390.451        -337.012          47.000  
G15  23193153.570   121880892.756        2692.390          45.000  
G 7  24060147.606   126436926.010       -2577.441          40.000  
R 8  20924036.577   112047337.896       -3610.299          47.000  
R20  21366677.323   114257350.194         108.866          39.000  
R21  21550137.106   115319333.927        3190.533          45.000  
R10  21035627.216   112131848.385       -1531.611          42.000  
R 7  24148127.745                1      -4582.632          26.000  
S20  37781668.013   198544133.012        -216.592          40.000  
> 2017 11 25 12 43 30.9989999  0 21                     
G 5  23526238.406   123631234.182       -2575.684          45.000  
G11  25224752.557   132556923.778       -1153.591          29.000  
G13  20773172.870   109163881.342        1334.680          45.000  
R12  23802316.043   127147434.096        1741.323          33.000  
G17  20902825.615   109845230.070        1919.296          51.000  
G19  22109005.047   116183669.891        2520.292          46.000  
G20  24352038.899   127970943.948        -926.552          40.000  
G28  20332078.411   106845910.676       -2325.463          49.000  
G30  21798915.759   114554182.611       -1723.201          46.000  
R 2  23766755.315   126823952.4433       2995.651          27.000  
S38  39289943.137   206470104.183        -286.947          41.000  
R11  20790675.997   111099204.377         534.983          49.000  
R 1  20610947.563   110177457.913        -337.445          46.000  
G15  23193051.033   121880354.313        2692.341          45.000  
G 7  24060245.746   126437441.575       -2577.898          40.000  
R 8  20924171.467   112048060.029       -3610.939          47.000  
R20  21366673.309   114257328.440         108.757          39.000  
R21  21550017.712   115318695.892        3190.214          45.000  
R10  21035684.558   112132154.755       -1531.819          42.000  
R 7  24148298.757                1      -4582.056          26.000  
S20  37781676.459   198544176.401        -216.989          40.000  
> 2017 11 25 12 43 31.1989999  0 21                     
G 5  23526336.511   123631749.305       -2575.574          45.000  
G11  25224799.743   132557154.627       -1154.438          29.000  
G13  20773122.230   109163614.378        1334.757          45.000  
R12  23802250.779   127147085.707        1741.846          33.000  
G17  20902752.498   109844846.207        1919.254          51.000  
G19  22108909.036   116183165.866        2520.159          46.000  
G20  24352074.079   127971129.214        -926.099          40.000  
G28  20332166.849   106846375.763       -2325.570          49.000  
G30  21798981.442   114554527.222       -1723.070          46.000  
R 2  23766642.587   126823353.2253       2996.100          28.000  
S38  39289954.061   206470161.586        -286.820          41.000  
R11  20790656.069   111099097.328         535.254          49.000  
R 1  20610960.162   110177525.373        -337.463          46.000  
G15  23192948.705   121879815.825        2692.641          45.000  
G 7  24060343.991   126437957.110       -2577.566          42.000  
R 8  20924306.323   112048782.215       -3611.165          47.000  
R20  21366669.121   114257306.683         108.601          37.000  
R21  21549898.422   115318057.897        3189.892          45.000  
R10  21035742.108   112132461.013       -1531.415          42.000  
R 7  24148469.839                1      -4583.697          26.000  
S20  37781684.800   198544219.798        -216.824          40.000  
> 2017 11 25 12 43 31.3989999  0 21                     
G 5  23526434.511   123632264.489       -2575.665          45.000  
G11  25224836.144   132557385.0661      -1151.517          28.000  
G13  20773071.484   109163347.404        1334.786          45.000  
R12  23802185.620   127146737.272        1742.531          32.000  
G17  20902679.347   109844462.382        1919.007          51.000  
G19  22108813.199   116182661.861        2519.809          46.000  
G20  24352109.223   127971314.496        -926.424          38.000  
G28  20332255.357   106846840.804       -2325.294          49.000  
G30  21799047.090   114554871.800       -1722.758          46.000  
R 2  23766531.150   126822754.0442       2996.257          28.000  
S38  39289965.089   206470219.011        -287.164          42.000  
R11  20790635.931   111098990.237         535.667          49.000  
R 1  20610972.726   110177592.837        -337.311          46.000  
G15  23192846.202   121879277.303        2692.682          45.000  
G 7  24060442.235   126438472.653       -2577.731          42.000  
R 8  20924441.248   112049504.433       -3611.267          47.000  
R20  21366664.933   114257284.907         108.875          37.000  
R21  21549778.888   115317419.965        3189.564          44.000  
R10  21035799.659   112132767.234       -1531.103          42.000  
R 7  24148640.991                1      -4583.382          26.000  
S20  37781693.072   198544263.244        -217.260          40.000  
> 2017 11 25 12 43 31.5989999  0 21                     
G 5  23526532.337   123632779.743       -2576.300          45.000  
G11  25224880.049   132557615.9201      -1154.263          28.000  
G13  20773020.704   109163080.439        1334.934          45.000  
R12  23802120.251   127146388.782        1742.516          32.000  
G17  20902606.056   109844078.635        1918.643          50.000  
G19  22108717.328   116182157.965        2519.363          46.000  
G20  24352144.368   127971499.758        -926.404          38.000  
G28  20332343.899   106847305.869       -2325.095          49.000  
G30  21799112.423   114555216.379       -1722.516          45.000  
R 2  23766418.177   126822154.6963       2996.993          27.000  
S38  39289976.013   206470276.492        -287.359          42.000  
R11  20790615.933   111098883.140         535.605          49.000  
R 1  20610985.290   110177660.336        -337.561          45.000  
G15  23192743.630   121878738.764        2692.818          44.000  
G 7  24060540.585   126438988.219       -2577.654          42.000  
R 8  20924576.138   112050226.710       -3611.234          47.000  
R20  21366660.745   114257263.204         108.501          37.000  
R21  21549659.459   115316782.090        3189.567          45.000  
R10  21035857.175   112133073.448       -1530.892          42.000  
R 7  24148813.504                1      -4583.262          27.000  
S20  37781701.273   198544306.735        -217.492          40.000  
> 2017 11 25 12 43 31.7989999  0 21                     
G 5  23526630.373   123633294.965       -2576.660          45.000  
G11  25224926.745   132557846.710       -1154.108          29.000  
G13  20772970.064   109162813.433        1335.036          45.000  
R12  23802054.987   127146040.291        1742.027          35.000  
G17  20902532.730   109843694.905        1918.574          51.000  
G19  22108621.421   116181654.081        2519.168          45.000  
G20  24352179.617   127971685.088        -926.689          40.000  
G28  20332432.162   106847770.868       -2324.792          49.000  
G30  21799177.652   114555560.886       -1722.624          43.000  
R 2  23766303.424   126821555.4663       2995.939          27.000  
S38  39289986.902   206470333.936        -287.486          42.000  
R11  20790595.831   111098775.957         535.953          49.000  
R 1  20610997.749   110177727.824        -337.604          45.000  
G15  23192641.092   121878200.186        2692.777          44.000  
G 7  24060638.690   126439503.728       -2577.231          41.000  
R 8  20924711.028   112050949.044       -3611.940          48.000  
R20  21366656.522   114257241.509         108.736          37.000  
R21  21549540.274   115316144.176        3189.288          45.000  
R10  21035914.621   112133379.572       -1530.592          42.000  
R 7  24148983.364                1      -4586.041          27.000  
S20  37781709.580   198544350.235        -217.812          40.000  
> 2017 11 25 12 43 31.9989999  0 21                     
G 5  23526728.268   123633810.289       -2576.489          45.000  
G11  25224968.172                1      -1151.717          29.000  
G13  20772919.284   109162546.463        1334.975          45.000  
R12  23801989.619   127145691.973        1741.798          35.000  
G17  20902459.788   109843311.245        1918.065          51.000  
G19  22108525.759   116181150.280        2518.724          45.000  
G20  24352215.111   127971870.443        -926.553          40.000  
G28  20332520.705   106848235.883       -2325.000          49.000  
G30  21799243.056   114555905.517       -1723.013          44.000  
R 2  23766189.684   126820955.9413       2997.848          27.000  
S38  39289997.861   206470391.412        -286.863          42.000  
R11  20790575.868   111098668.797         536.018          49.000  
R 1  20611010.349   110177795.391        -337.811          46.000  
G15  23192538.695   121877661.581        2693.289          44.000  
G 7  24060736.516   126440019.279       -2577.609          39.000  
R 8  20924846.163   112051671.448       -3611.964          48.000  
R20  21366652.439   114257219.771         108.380          37.000  
R21  21549420.880   115315506.422        3188.638          44.000  
R10  21035972.137   112133685.700       -1530.615          42.000  
R 7  24149151.828                1      -4586.987          27.000  
S20  37781717.956   198544393.792        -217.844          40.000  
> 2017 11 25 12 43 32.1989999  0 21                     
G 5  23526826.234   123634325.613       -2577.087          45.000  
G11  25225013.333                1      -1153.335          29.000  
G13  20772868.503   109162279.436        1335.079          45.000  
R12  23801924.146   127145343.439        1743.565          32.000  
G17  20902386.637   109842927.617        1918.036          51.000  
G19  22108429.922   116180646.482        2518.899          45.000  
G20  24352250.361   127972055.636        -925.959          38.000  
G28  20332609.247   106848700.832       -2324.973          49.000  
G30  21799308.599   114556250.045       -1722.660          44.000  
R 2  23766076.397   126820356.6243       2997.093          27.000  
S38  39290008.750   206470448.894        -287.925          42.000  
R11  20790555.765   111098561.545         536.186          49.000  
R 1  20611022.948   110177862.948        -338.043          45.000  
G15  23192436.262   121877122.951        2693.318          45.000  
G 7  24060834.412   126440534.780       -2578.037          39.000  
R 8  20924981.262   112052393.890       -3612.521          48.000  
R20  21366648.530   114257198.085         107.839          39.000  
R21  21549301.660   115314868.615        3188.823          45.000  
R10  21036029.513   112133991.698       -1530.122          42.000  
R 7  24149324.062                1      -4579.166          27.000  
S20  37781726.192   198544437.332        -218.376          40.000  
> 2017 11 25 12 43 32.3989999  0 21                     
G 5  23526924.234   123634841.007       -2576.666          45.000  
G11  25225058.006                1      -1152.335          29.000  
G13  20772817.688   109162012.483        1334.802          45.000  
R12  23801858.917   127144994.978        1742.148          35.000  
G17  20902313.765   109842544.053        1917.489          51.000  
G19  22108333.981   116180142.808        2518.008          44.000  
G20  24352285.680   127972241.001        -927.171          40.000  
G28  20332697.685   106849165.762       -2324.962          49.000  
G30  21799374.037   114556594.580       -1722.963          44.000  
R 2  23765961.086   126819757.1703       2997.017          28.000  
S38  39290019.918   206470506.419        -287.971          43.000  
R11  20790535.592   111098454.299         536.173          48.000  
R 1  20611035.442   110177930.493        -337.708          45.000  
G15  23192333.829   121876584.235        2693.226          46.000  
G 7  24060932.482   126441050.315       -2578.002          40.000  
R 8  20925116.152   112053116.424       -3613.182          48.000  
R20  21366644.481   114257176.390         109.037          39.000  
R21  21549182.510   115314230.952        3188.003          46.000  
R10  21036086.995   112134297.708       -1529.679          43.000  
R 7  24149495.353                1      -4584.188          27.000  
S20  37781734.498   198544480.884        -217.958          40.000  
> 2017 11 25 12 43 32.5989999  0 21                     
G 5  23527022.444   123635356.455       -2577.655          45.000  
G11  25225105.052                1      -1154.473          29.000  
G13  20772766.838   109161745.480        1334.897          45.000  
R12  23801793.653   127144646.519        1742.927          33.000  
G17  20902240.823   109842160.537        1917.695          51.000  
G19  22108238.040   116179639.177        2517.873          45.000  
G20  24352320.894   127972426.254        -926.487          39.000  
G28  20332786.157   106849630.713       -2324.763          49.000  
G30  21799439.615   114556939.115       -1722.322          44.000  
R 2  23765842.669                1       2996.032          28.000  
S38  39290031.086   206470563.949        -287.275          43.000  
R11  20790515.315   111098347.038         535.992          49.000  
R 1  20611048.076   110177998.124        -338.208          46.000  
G15  23192231.187   121876045.566        2693.561          46.000  
G 7  24061030.831   126441565.946       -2577.590          42.000  
R 8  20925251.182   112053838.989       -3612.891          48.000  
R20  21366640.363   114257154.822         107.424          39.000  
R21  21549063.220   115313593.332        3187.471          47.000  
R10  21036144.406   112134603.731       -1530.331          43.000  
R 7  24149665.109                1      -4584.937          27.000  
S20  37781742.840   198544524.529        -218.097          40.000  
> 2017 11 25 12 43 32.7989999  0 21                     
G 5  23527120.375   123635871.859       -2576.740          46.000  
G11  25225147.840                1      -1152.539          28.000  
G13  20772716.128   109161478.484        1335.342          45.000  
R12  23801728.250   127144298.001        1743.459          32.000  
G17  20902167.672   109841777.093        1917.432          51.000  
G19  22108142.308   116179135.565        2518.307          45.000  
G20  24352356.179   127972611.585        -926.368          39.000  
G28  20332874.665   106850095.620       -2324.236          49.000  
G30  21799504.983   114557283.716       -1722.937          45.000  
R 2  23765726.625                1       2996.974          29.000  
S38  39290042.079   206470621.422        -286.998          42.000  
R11  20790495.073   111098239.719         536.672          49.000  
R 1  20611060.710   110178065.735        -338.055          46.000  
G15  23192128.545   121875506.849        2693.349          46.000  
G 7  24061129.111   126442081.522       -2578.097          42.000  
R 8  20925386.177   112054561.597       -3612.507          48.000  
R20  21366636.245   114257133.161         107.444          39.000  
R21  21548943.965   115312955.736        3188.067          48.000  
R10  21036201.782   112134909.670       -1530.222          43.000  
R 7  24149836.017                1      -4584.357          27.000  
S20  37781751.216   198544568.151        -217.793          39.000  
> 2017 11 25 12 43 32.9989999  0 21                     
G 5  23527218.584   123636387.251       -2576.556          46.000  
G11  25225197.503                1      -1154.756          28.000  
G13  20772665.173   109161211.562        1334.554          45.000  
R12  23801662.811   127143949.463        1740.458          27.000  
G17  20902094.695   109841393.587        1916.944          51.000  
G19  22108046.332   116178631.933        2518.238          45.000  
G20  24352391.603   127972796.931        -927.237          40.000  
G28  20332963.103   106850560.590       -2324.970          49.000  
G30  21799570.422   114557628.225       -1723.319          45.000  
R 2  23765609.918   126817958.7483       2996.213          33.000  
S38  39290053.038   206470678.924        -287.625          42.000  
R11  20790475.250   111098132.440         536.079          50.000  
R 1  20611073.239   110178133.414        -338.739          46.000  
G15  23192025.833   121874968.165        2693.739          45.000  
G 7  24061227.216   126442597.040       -2578.264          42.000  
R 8  20925521.242   112055284.192       -3613.223          48.000  
R20  21366632.161   114257111.549         108.251          39.000  
R21  21548824.710   115312318.085        3188.163          48.000  
R10  21036259.228   112135215.620       -1530.100          42.000  
R 7  24150007.343                1      -4583.968          27.000  
S20  37781759.487   198544611.712        -218.197          39.000  
> 2017 11 25 12 43 33.1989999  0 21                     
G 5  23527316.724   123636902.700       -2577.289          44.000  
G11  25225242.245                1      -1154.700          28.000  
G13  20772614.289   109160944.603        1334.233          45.000  
R12  23801598.839   127143601.007        1743.208          28.000  
G17  20902021.683   109841010.135        1917.403          51.000  
G19  22107950.425   116178128.333        2517.976          45.000  
G20  24352426.887   127972982.252        -926.140          39.000  
G28  20333051.680   106851025.581       -2325.340          49.000  
G30  21799635.895   114557972.789       -1722.550          45.000  
R 2  23765494.502   126817359.3193       2995.271          33.000  
S38  39290064.102   206470736.403        -287.684          43.000  
R11  20790455.182   111098025.151         535.961          49.000  
R 1  20611085.838   110178201.089        -338.489          46.000  
G15  23191923.400   121874429.520        2693.459          45.000  
G 7  24061325.147   126443112.649       -2577.357          41.000  
R 8  20925656.132   112056006.788       -3613.035          48.000  
R20  21366628.183   114257090.048         107.367          39.000  
R21  21548705.211   115311680.519        3187.857          48.000  
R10  21036316.639   112135521.626       -1530.032          42.000  
R 7  24150180.658                1      -4584.650          27.000  
S20  37781767.793   198544655.302        -217.788          39.000  
> 2017 11 25 12 43 33.3989999  0 21                     
G 5  23527414.655   123637418.152       -2578.113          45.000  
G11  25225280.810                1      -1155.329          20.000  
G13  20772563.613   109160677.712        1334.760          45.000  
R12  23801534.447   127143252.405        1742.431          29.000  
G17  20901948.392   109840626.717        1916.990          50.000  
G19  22107854.484   116177624.747        2517.866          45.000  
G20  24352462.032   127973167.630        -927.265          39.000  
G28  20333140.257   106851490.549       -2324.847          50.000  
G30  21799701.647   114558317.376       -1722.469          45.000  
R 2  23765379.051   126816759.8803       2996.035          33.000  
S38  39290074.956   206470793.880        -287.447          42.000  
R11  20790434.975   111097917.861         536.995          49.000  
R 1  20611098.682   110178268.823        -338.812          46.000  
G15  23191821.142   121873890.880        2693.861          47.000  
G 7  24061423.112   126443628.216       -2578.231          42.000  
R 8  20925791.267   112056729.435       -3613.582          48.000  
R20  21366624.030   114257068.483         107.566          37.000  
R21  21548586.201   115311042.927        3187.697          48.000  
R10  21036374.016   112135827.595       -1529.286          42.000  
R 7  24150350.344                1      -4585.069          27.000  
S20  37781776.030   198544698.906        -217.786          39.000  
> 2017 11 25 12 43 33.5989999  0 21                     
G 5  23527512.725   123637933.620       -2577.063          46.000  
G11  25225328.100                1      -1157.211          20.000  
G13  20772512.763   109160410.842        1334.144          45.000  
R12  23801466.078   127142904.028        1743.131          33.000  
G17  20901875.590   109840243.337        1916.696          51.000  
G19  22107758.613   116177121.229        2517.583          45.000  
G20  24352497.211   127973352.984        -927.105          39.000  
G28  20333228.660   106851955.546       -2324.963          49.000  
G30  21799767.295   114558661.975       -1723.154          45.000  
R 2  23765263.496   126816160.4743       2997.100          32.000  
S38  39290086.019   206470851.427        -287.735          43.000  
R11  20790415.011   111097810.642         535.973          49.000  
R 1  20611111.176   110178336.661        -339.044          45.000  
G15  23191718.883   121873352.293        2692.601          46.000  
G 7  24061520.938   126444143.813       -2577.487          40.000  
R 8  20925926.122   112057452.137       -3613.433          48.000  
R20  21366619.911   114257047.067         107.605          39.000  
R21  21548467.016   115310405.402        3187.691          48.000  
R10  21036431.462   112136133.587       -1530.013          42.000  
R 7  24150523.590                1      -4583.373          27.000  
S20  37781784.232   198544742.556        -218.311          39.000  
> 2017 11 25 12 43 33.7989999  0 21                     
G 5  23527610.830   123638449.101       -2576.770          46.000  
G11  25225371.796                1      -1157.877          20.000  
G13  20772462.018   109160143.949        1334.133          45.000  
R12  23801400.255   127142555.497        1741.623          36.000  
G17  20901802.683   109839859.973        1916.844          52.000  
G19  22107662.916   116176617.691        2517.035          45.000  
G20  24352532.566   127973538.392        -926.494          39.000  
G28  20333317.063   106852420.549       -2324.871          49.000  
G30  21799832.873   114559006.577       -1723.246          45.000  
R 2  23765146.998   126815561.0653       2996.734          32.000  
S38  39290097.187   206470908.941        -287.541          44.000  
R11  20790394.909   111097703.365         535.908          49.000  
R 1  20611123.810   110178404.452        -339.209          45.000  
G15  23191616.276   121872813.620        2692.574          46.000  
G 7  24061619.218   126444659.442       -2578.936          41.000  
R 8  20926061.082   112058174.849       -3613.820          48.000  
R20  21366615.933   114257025.625         106.479          40.000  
R21  21548347.901   115309767.888        3187.411          47.000  
R10  21036488.733   112136439.540       -1530.016          42.000  
R 7  24150694.881                1      -4584.997          27.000  
S20  37781792.433   198544786.150        -217.917          39.000  
> 2017 11 25 12 43 33.9989999  0 21                     
G 5  23527708.901   123638964.586       -2577.716          44.000  
G11  25225411.303                1      -1149.994          22.000  
G13  20772411.168   109159877.169        1334.030          45.000  
R12  23801333.875   127142207.126        1742.818          33.000  
G17  20901729.671   109839476.654        1916.616          52.000  
G19  22107567.184   116176114.150        2517.559          45.000  
G20  24352567.989   127973723.877        -927.864          41.000  
G28  20333405.710   106852885.645       -2325.420          49.000  
G30  21799898.451   114559351.194       -1723.190          45.000  
R 2  23765031.269   126814961.8332       2994.179          32.000  
S38  39290108.286   206470966.496        -288.099          44.000  
R11  20790374.701   111097596.160         535.708          49.000  
R 1  20611136.723   110178472.344        -339.661          46.000  
G15  23191513.808   121872275.100        2693.022          45.000  
G 7  24061717.323   126445175.037       -2577.710          41.000  
R 8  20926195.937   112058897.540       -3613.347          47.000  
R20  21366611.919   114257004.213         107.245          38.000  
R21  21548228.646   115309130.372        3186.953          46.000  
R10  21036546.040   112136745.603       -1530.369          42.000  
R 7  24150867.394                1      -4584.229          27.000  
S20  37781800.670   198544829.764        -218.019          39.000  
> 2017 11 25 12 43 34.3989999  0 21                     
G 5  23527904.971   123639995.642       -2578.052          45.000  
G11  25225499.985                1      -1154.012          29.000  
G13  20772309.503   109159343.626        1333.473          45.000  
R12  23801204.918   127141510.339        1740.283          36.000  
G17  20901583.927   109838710.144        1916.117          51.000  
G19  22107375.510   116175107.271        2516.763          46.000  
G20  24352638.663   127974094.880        -928.161          40.000  
G28  20333582.725   106853815.840       -2326.035          49.000  
G30  21800029.467   114560040.547       -1724.076          45.000  
R 2  23764802.985   126813763.2602       2994.972          32.000  
S38  39290130.308   206471081.640        -288.188          43.000  
R11  20790334.671   111097381.763         535.656          50.000  
R 1  20611161.782   110178608.269        -340.326          45.000  
G15  23191309.117   121871198.016        2692.280          46.000  
G 7  24061913.463   126446206.345       -2577.910          39.000  
R 8  20926465.822   112060343.159       -3614.287          47.000  
R20  21366603.962   114256961.638         105.632          40.000  
R21  21547990.136   115307855.410        3187.735          46.000  
R10  21036660.932   112137357.629       -1529.968          42.000  
R 7  24151206.347                1      -4585.033          27.000  
S20  37781817.457   198544917.112        -218.605          40.000  
> 2017 11 25 12 43 34.5989999  0 21                     
G 5  23528003.111   123640511.271       -2578.015          47.000  
G11  25225546.612                1      -1154.600          30.000  
G13  20772258.583   109159076.955        1333.480          44.000  
R12  23801138.432   127141161.799        1743.215          35.000  
G17  20901511.020   109838326.992        1916.129          51.000  
G19  22107279.988   116174603.902        2517.266          46.000  
G20  24352674.017   127974280.420        -927.928          40.000  
G28  20333671.372   106854280.962       -2326.006          50.000  
G30  21800095.010   114560385.229       -1723.330          46.000  
R 2  23764689.768   126813164.0132       2994.779          32.000  
S38  39290141.266   206471139.273        -287.862          43.000  
R11  20790314.533   111097274.547         536.124          50.000  
R 1  20611174.415   110178676.330        -340.131          45.000  
G15  23191206.510   121870659.491        2693.156          46.000  
G 7  24062011.464   126446722.110       -2578.290          40.000  
R 8  20926600.782   112061066.113       -3614.509          48.000  
R20  21366600.053   114256940.341         107.287          39.000  
R21  21547871.021   115307218.064        3187.094          45.000  
R10  21036718.343   112137663.702       -1530.209          42.000  
R 7  24151376.277                1      -4584.921          27.000  
S20  37781825.728   198544960.778        -218.235          40.000  
> 2017 11 25 12 43 34.7989999  0 21                     
G 5  23528101.042   123641026.946       -2578.339          46.000  
G11  25225590.412                1      -1155.314          30.000  
G13  20772208.048   109158810.339        1332.532          46.000  
R12  23801072.785   127140813.633        1740.747          36.000  
G17  20901437.973   109837943.907        1915.266          51.000  
G19  22107184.186   116174100.598        2516.904          46.000  
G20  24352709.301   127974466.041        -928.036          41.000  
G28  20333759.984   106854746.178       -2326.223          49.000  
G30  21800160.658   114560730.016       -1724.008          46.000  
R 2  23764578.191   126812564.7852       2994.862          32.000  
S38  39290152.121   206471196.967        -288.926          43.000  
R11  20790294.465   111097167.466         535.612          49.000  
R 1  20611187.119   110178744.479        -341.272          46.000  
G15  23191103.868   121870121.092        2692.246          47.000  
G 7  24062109.674   126447237.895       -2579.132          40.000  
R 8  20926735.812   112061789.052       -3615.114          48.000  
R20  21366596.039   114256919.366         105.344          37.000  
R21  21547751.941   115306580.708        3186.799          46.000  
R10  21036775.720   112137969.830       -1531.016          42.000  
R 7  24151550.640                1      -4583.367          27.000  
S20  37781834.104   198545004.512        -218.557          40.000  
> 2017 11 25 12 43 34.9989999  0 21                     
G 5  23528199.182   123641542.586       -2578.687          44.000  
G11  25225631.874                1      -1155.938          30.000  
G13  20772157.372   109158543.725        1332.604          46.000  
R12  23801007.032   127140465.254        1740.893          36.000  
G17  20901364.927   109837560.819        1914.947          51.000  
G19  22107088.280   116173597.286        2516.260          46.000  
G20  24352744.690   127974651.732        -929.092          41.000  
G28  20333848.457   106855211.445       -2326.529          49.000  
G30  21800226.131   114561074.791       -1724.102          44.000  
R 2  23764463.927   126811965.6502       2996.752          32.000  
S38  39290163.149   206471254.625        -288.278          44.000  
R11  20790274.363   111097060.424         534.523          49.000  
R 1  20611199.718   110178812.636        -340.912          46.000  
G15  23191001.575   121869582.717        2691.358          46.000  
G 7  24062207.744   126447753.701       -2579.515          40.000  
R 8  20926870.702   112062512.007       -3615.182          48.000  
R20  21366592.061   114256898.275         104.110          40.000  
R21  21547632.826   115305943.432        3186.325          47.000  
R10  21036833.305   112138275.993       -1531.207          42.000  
R 7  24151718.930                1      -4583.045          26.000  
S20  37781842.515   198545048.243        -219.071          40.000  
> 2017 11 25 12 43 35.1989999  0 21                     
G 5  23528297.078   123642058.294       -2577.893          43.000  
G11  25225673.545                1      -1158.057          23.000  
G13  20772106.592   109158277.211        1332.234          44.000  
R12  23800939.535   127140116.977        1742.000          36.000  
G17  20901292.020   109837177.825        1914.981          51.000  
G19  22106992.339   116173094.060        2516.071          45.000  
G20  24352779.975   127974837.415        -928.282          39.000  
G28  20333936.860   106855676.714       -2325.967          49.000  
G30  21800291.918   114561419.644       -1724.119          45.000  
R 2  23764352.630   126811366.5712       2996.958          32.000  
S38  39290174.073   206471312.404        -289.520          42.000  
R11  20790254.295   111096953.337         535.154          49.000  
R 1  20611212.457   110178880.927        -341.742          46.000  
G15  23190899.107   121869044.331        2691.770          45.000  
G 7  24062305.640   126448269.500       -2579.368          39.000  
R 8  20927005.522   112063235.090       -3615.391          48.000  
R20  21366588.187   114256877.163         105.370          38.000  
R21  21547513.571   115305306.214        3186.063          46.000  
R10  21036890.752   112138582.120       -1530.251          42.000  
R 7  24151893.048                1      -4583.137          26.000  
S20  37781850.717   198545091.935        -218.539          38.000  
> 2017 11 25 12 43 35.3989999  0 21                     
G 5  23528395.078   123642573.981       -2578.436          43.000  
G11  25225717.903                1      -1154.541          24.000  
G13  20772055.812   109158010.656        1332.871          45.000  
R12  23800873.712   127139768.696        1740.951          36.000  
G17  20901219.078   109836794.814        1914.878          51.000  
G19  22106896.432   116172590.785        2516.127          45.000  
G20  24352815.224   127975023.108        -928.832          40.000  
G28  20334025.332   106856142.005       -2326.440          49.000  
G30  21800357.566   114561764.447       -1724.459          46.000  
R 2  23764241.716   126810767.6242       2994.193          32.000  
S38  39290185.276   206471370.065        -288.431          43.000  
R11  20790234.262   111096846.276         535.360          49.000  
R 1  20611225.196   110178949.194        -341.266          45.000  
G15  23190796.709   121868506.000        2691.953          45.000  
G 7  24062403.849   126448785.248       -2578.588          43.000  
R 8  20927140.552   112063958.121       -3615.100          48.000  
R20  21366584.313   114256856.188         105.253          38.000  
R21  21547394.421   115304668.958        3186.017          46.000  
R10  21036948.163   112138888.275       -1531.063          43.000  
R 7  24152065.212                1      -4582.366          26.000  
S20  37781859.058   198545135.646        -218.587          38.000  
> 2017 11 25 12 43 35.5989999  0 21                     
G 5  23528493.044   123643089.743       -2577.948          44.000  
G11  25225758.807                1      -1151.333          23.000  
G13  20772005.276   109157744.216        1331.975          46.000  
R12  23800809.565   127139420.525        1740.343          33.000  
G17  20901146.345   109836411.938        1914.148          51.000  
G19  22106800.596   116172087.648        2515.358          45.000  
G20  24352850.334   127975208.905        -928.635          40.000  
G28  20334113.875   106856607.405       -2327.451          50.000  
G30  21800423.179   114562109.379       -1724.749          45.000  
R 2  23764125.742   126810168.5652       2995.314          32.000  
S38  39290196.130   206471427.928        -289.270          43.000  
R11  20790214.264   111096739.323         534.863          49.000  
R 1  20611238.004   110179017.600        -341.974          47.000  
G15  23190694.311   121867967.782        2690.739          46.000  
G 7  24062501.850   126449301.211       -2580.438          39.000  
R 8  20927275.582   112064681.291       -3616.042          48.000  
R20  21366580.404   114256835.337         103.077          39.000  
R21  21547275.201   115304031.826        3185.220          46.000  
R10  21037005.679   112139194.534       -1531.558          42.000  
R 7  24152237.446                1      -4582.806          25.000  
S20  37781867.434   198545179.504        -219.475          40.000  
> 2017 11 25 12 43 35.7989999  0 21                     
G 5  23528591.079   123643605.499       -2578.540          43.000  
G11  25225804.073                1      -1158.690          23.000  
G13  20771954.601   109157477.805        1332.028          44.000  
R12  23800738.962   127139072.224        1741.658          33.000  
G17  20901073.578   109836028.967        1915.224          51.000  
G19  22106704.864   116171584.384        2516.525          45.000  
G20  24352885.688   127975394.716        -929.100          40.000  
G28  20334202.592   106857072.783       -2327.281          50.000  
G30  21800488.722   114562454.243       -1724.282          45.000  
R 2  23764013.014   126809569.6812       2994.995          32.000  
S38  39290207.193   206471485.638        -288.404          43.000  
R11  20790194.336   111096632.354         534.336          49.000  
R 1  20611250.778   110179085.965        -342.401          45.000  
G15  23190591.809   121867429.510        2690.603          45.000  
G 7  24062600.234   126449816.967       -2578.776          43.000  
R 8  20927410.612   112065404.334       -3615.085          48.000  
R20  21366576.391   114256814.421         104.774          38.000  
R21  21547155.841   115303394.565        3186.837          46.000  
R10  21037063.055   112139500.768       -1531.479          42.000  
R 7  24152408.353                1      -4581.879          24.000  
S20  37781875.706   198545223.237        -218.359          40.000  
> 2017 11 25 12 43 35.9989999  0 21                     
G 5  23528689.045   123644121.254       -2579.822          43.000  
G11  25225854.539                1      -1155.615          23.000  
G13  20771903.786   109157211.437        1331.730          45.000  
R12  23800677.886   127138723.893        1741.736          36.000  
G17  20901000.845   109835646.085        1913.587          51.000  
G19  22106609.202   116171081.210        2515.199          45.000  
G20  24352921.042   127975580.515        -929.169          40.000  
G28  20334290.959   106857538.182       -2326.688          49.000  
G30  21800554.509   114562799.170       -1724.729          46.000  
R 2  23763900.215   126808970.8222       2994.954          32.000  
S38  39290218.222   206471543.438        -289.291          43.000  
R11  20790174.198   111096525.382         535.229          49.000  
R 1  20611263.621   110179154.454        -342.126          46.000  
G15  23190489.062   121866891.252        2691.696          45.000  
G 7  24062698.269   126450332.940       -2580.768          39.000  
R 8  20927545.816   112066127.475       -3616.155          48.000  
R20  21366572.621   114256793.647         103.635          38.000  
R21  21547036.587   115302757.441        3184.929          46.000  
R10  21037120.327   112139806.999       -1530.995          42.000  
R 7  24152581.704                1      -4584.098          24.000  
S20  37781884.047   198545267.053        -219.572          40.000  
> 2017 11 25 12 43 36.3989999  0 21                     
G 5  23528884.941   123645152.783       -2578.265          44.000  
G11  25225943.325                1      -1160.216          22.000  
G13  20771802.539   109156678.611        1332.180          45.000  
R12  23800548.545   127138027.448        1742.558          36.000  
G17  20900854.892   109834880.433        1913.549          51.000  
G19  22106417.494   116170074.961        2515.137          44.000  
G20  24352991.541   127975952.144        -928.544          39.000  
G28  20334468.114   106858469.078       -2327.130          50.000  
G30  21800685.909   114563489.064       -1724.617          45.000  
R 2  23763676.189   126807773.051        2995.437          32.000  
S38  39290240.279   206471659.019        -289.029          44.000  
R11  20790134.307   111096311.472         535.413          49.000  
R 1  20611289.168   110179291.390        -342.261          46.000  
G15  23190283.987   121865814.805        2691.248          45.000  
G 7  24062894.619   126451364.802       -2580.929          37.000  
R 8  20927815.876   112067573.876       -3616.562          47.000  
R20  21366564.873   114256752.111         104.417          38.000  
R21  21546798.531   115301483.281        3184.521          46.000  
R10  21037235.289   112140419.514       -1530.999          42.000  
R 7  24152925.473                1      -4579.249          23.000  
S20  37781900.904   198545354.733        -219.649          39.000  
> 2017 11 25 12 43 36.5989999  0 21                     
G 5  23528982.801   123645668.575       -2578.790          42.000  
G11  25225993.861                1      -1159.478          22.000  
G13  20771751.724   109156412.316        1331.420          44.000  
R12  23800485.550   127137679.236        1740.983          36.000  
G17  20900781.950   109834497.665        1913.821          51.000  
G19  22106321.657   116169571.823        2516.155          44.000  
G20  24353026.791   127976138.003        -928.726          39.000  
G28  20334556.761   106858934.533       -2327.919          50.000  
G30  21800751.487   114563834.046       -1725.053          45.000  
R 2  23763564.194   126807174.289        2993.037          32.000  
S38  39290251.412   206471716.817        -288.960          44.000  
R11  20790114.309   111096204.506         534.298          49.000  
R 1  20611301.907   110179359.933        -342.755          46.000  
G15  23190181.554   121865276.589        2690.947          45.000  
G 7  24062992.480   126451880.634       -2578.796          39.000  
R 8  20927950.696   112068297.087       -3615.906          47.000  
R20  21366560.930   114256731.400         103.423          38.000  
R21  21546679.485   115300846.193        3185.170          46.000  
R10  21037292.770   112140725.785       -1531.417          42.000  
R 7  24153094.565                1      -4589.394          23.000  
S20  37781909.315   198545398.604        -219.685          40.000  
> 2017 11 25 12 43 36.7989999  0 21                     
G 5  23529080.872   123646184.439       -2579.175          42.000  
G11  25226037.557                1      -1155.210          22.000  
G13  20771700.979   109156145.998        1330.985          45.000  
R12  23800419.413   127137331.142        1740.299          33.000  
G17  20900709.043   109834114.974        1913.094          51.000  
G19  22106225.890   116169068.820        2515.513          44.000  
G20  24353062.215   127976323.921        -930.004          41.000  
G28  20334645.338   106859400.028       -2327.639          50.000  
G30  21800817.030   114564179.071       -1725.117          44.000  
R 2  23763450.035   126806575.5071       2991.384          31.000  
S38  39290262.476   206471774.695        -289.801          44.000  
R11  20790094.242   111096097.550         534.884          49.000  
R 1  20611314.715   110179428.605        -343.695          46.000  
G15  23190079.086   121864738.411        2690.770          45.000  
G 7  24063090.585   126452396.698       -2580.890          39.000  
R 8  20928085.761   112069020.404       -3616.895          47.000  
R20  21366557.125   114256710.825         102.447          38.000  
R21  21546560.335   115300209.212        3185.247          47.000  
R10  21037350.286   112141032.073       -1531.743          42.000  
R 7  24153267.148                1      -4582.778          24.000  
S20  37781917.656   198545442.538        -219.579          40.000  
> 2017 11 25 12 43 36.9989999  0 21                     
G 5  23529179.186   123646700.269       -2580.084          43.000  
G11  25226087.743                1      -1156.157          23.000  
G13  20771650.374   109155879.732        1331.580          45.000  
R12  23800351.602   127136982.787        1741.930          29.000  
G17  20900636.206   109833732.173        1913.660          51.000  
G19  22106130.123   116168565.714        2515.712          45.000  
G20  24353097.569   127976509.881        -930.317          41.000  
G28  20334733.846   106859865.537       -2327.700          50.000  
G30  21800882.748   114564524.042       -1724.918          46.000  
R 2  23763339.086                1       2993.687          31.000  
S38  39290273.365   206471832.533        -289.104          44.000  
R11  20790074.209   111095990.689         533.693          49.000  
R 1  20611327.419   110179497.217        -343.689          46.000  
G15  23189976.758   121864200.284        2690.020          46.000  
G 7  24063188.725   126452912.657       -2579.305          41.000  
R 8  20928220.686   112069743.661       -3615.895          48.000  
R20  21366553.286   114256690.142         103.380          38.000  
R21  21546441.220   115299572.185        3184.915          47.000  
R10  21037407.662   112141338.359       -1531.351          42.000  
R 7  24153438.474                1      -4583.289          24.000  
S20  37781926.032   198545486.387        -219.339          40.000  
> 2017 11 25 12 43 37.1989999  0 21                     
G 5  23529277.396   123647216.074       -2578.357          43.000  
G11  25226131.020                1      -1158.291          23.000  
G13  20771599.733   109155613.496        1330.410          45.000  
R12  23800288.048   127136634.670        1740.925          33.000  
G17  20900563.438   109833349.474        1913.780          51.000  
G19  22106034.391   116168062.681        2515.686          45.000  
G20  24353133.028   127976695.810        -929.316          41.000  
G28  20334822.458   106860331.047       -2327.620          50.000  
G30  21800948.535   114564869.030       -1724.866          45.000  
R 2  23763223.461                1       2994.525          31.000  
S38  39290284.463   206471890.314        -289.048          44.000  
R11  20790054.141   111095883.740         534.644          49.000  
R 1  20611340.227   110179565.871        -343.231          45.000  
G15  23189874.535   121863662.099        2690.637          46.000  
G 7  24063286.830   126453428.553       -2579.958          39.000  
R 8  20928355.925   112070467.003       -3616.853          48.000  
R20  21366549.482   114256669.557         102.439          38.000  
R21  21546322.035   115298935.150        3185.058          48.000  
R10  21037465.073   112141644.648       -1531.349          42.000  
R 7  24153611.406                1      -4583.600          25.000  
S20  37781934.513   198545530.289        -219.238          40.000  
> 2017 11 25 12 43 37.3989999  0 21                     
G 5  23529375.641   123647731.973       -2579.486          44.000  
G11  25226173.564                1      -1164.919          23.000  
G13  20771548.918   109155347.224        1331.602          44.000  
R12  23800224.460   127136286.444        1740.811          30.000  
G17  20900490.741   109832966.783        1913.288          51.000  
G19  22105938.694   116167559.676        2514.625          45.000  
G20  24353168.382   127976881.749        -930.314          41.000  
G28  20334910.931   106860796.591       -2327.654          50.000  
G30  21801014.043   114565214.043       -1725.263          45.000  
R 2  23763112.268                1       2992.114          30.000  
S38  39290295.352   206471948.194        -289.076          43.000  
R11  20790034.143   111095776.868         533.932          49.000  
R 1  20611353.106   110179634.665        -344.043          46.000  
G15  23189772.277   121863123.985        2691.019          46.000  
G 7  24063384.866   126453944.516       -2579.493          42.000  
R 8  20928491.059   112071190.307       -3617.219          48.000  
R20  21366545.678   114256649.040         102.449          39.000  
R21  21546202.920   115298298.163        3185.433          48.000  
R10  21037522.624   112141950.965       -1531.385          42.000  
R 7  24153781.964                1      -4585.665          26.000  
S20  37781942.889   198545574.184        -219.957          40.000  
> 2017 11 25 12 43 37.5989999  0 21                     
G 5  23529473.746   123648247.814       -2579.724          43.000  
G11  25226224.658                1      -1156.939          23.000  
G13  20771498.417   109155081.057        1331.436          45.000  
R12  23800160.592   127135938.313        1741.496          30.000  
G17  20900417.938   109832584.143        1913.174          52.000  
G19  22105842.823   116167056.668        2514.546          45.000  
G20  24353203.526   127977067.785        -929.986          39.000  
G28  20334999.543   106861262.132       -2327.747          49.000  
G30  21801079.691   114565559.049       -1724.703          45.000  
R 2  23763002.960                1       2993.302          30.000  
S38  39290306.415   206472006.110        -289.405          43.000  
R11  20790014.075   111095669.925         535.260          48.000  
R 1  20611365.844   110179703.410        -343.732          46.000  
G15  23189670.018   121862585.900        2690.831          46.000  
G 7  24063483.180   126454460.551       -2580.327          41.000  
R 8  20928626.229   112071913.665       -3616.386          48.000  
R20  21366541.769   114256628.479         103.121          39.000  
R21  21546083.770   115297661.239        3184.663          47.000  
R10  21037580.000   112142257.265       -1531.598          42.000  
R 7  24153953.011                1      -4584.994          26.000  
S20  37781951.160   198545618.043        -219.133          40.000  
> 2017 11 25 12 43 37.7989999  0 21                     
G 5  23529571.851   123648763.615       -2579.114          43.000  
G11  25226271.075                1      -1155.512          23.000  
G13  20771447.742   109154814.874        1330.496          44.000  
R12  23800095.293   127135590.145        1740.534          34.000  
G17  20900345.345   109832201.529        1912.693          52.000  
G19  22105747.056   116166553.669        2514.429          45.000  
G20  24353238.985   127977253.782        -930.123          41.000  
G28  20335088.051   106861727.702       -2328.116          49.000  
G30  21801145.339   114565904.077       -1725.488          45.000  
R 2  23762894.175                1       2992.504          30.000  
S38  39290317.339   206472063.952        -289.953          42.000  
R11  20789994.077   111095563.061         534.797          49.000  
R 1  20611378.792   110179772.214        -344.202          46.000  
G15  23189567.516   121862047.776        2690.531          46.000  
G 7  24063581.320   126454976.394       -2579.196          41.000  
R 8  20928761.328   112072637.058       -3616.809          48.000  
R20  21366537.895   114256607.988         102.568          39.000  
R21  21545964.620   115297024.256        3184.042          46.000  
R10  21037637.342   112142563.576       -1532.494          42.000  
R 7  24154122.697                1      -4585.192          27.000  
S20  37781959.606   198545661.970        -219.782          40.000  
> 2017 11 25 12 43 37.9989999  0 21                     
G 5  23529670.166   123649279.527       -2578.906          45.000  
G11  25226319.168                1      -1161.034          23.000  
G13  20771396.961   109154548.664        1330.951          45.000  
R12  23800029.960   127135241.877        1741.266          35.000  
G17  20900272.299   109831818.923        1912.879          50.000  
G19  22105651.359   116166050.699        2514.788          45.000  
G20  24353274.270   127977439.740        -930.153          41.000  
G28  20335176.733   106862193.262       -2328.104          50.000  
G30  21801210.847   114566249.090       -1724.970          45.000  
R 2  23762780.191                1       2993.881          30.000  
S38  39290328.333   206472121.802        -288.961          42.000  
R11  20789974.044   111095456.165         534.066          49.000  
R 1  20611391.671   110179841.039        -344.598          46.000  
G15  23189465.013   121861509.687        2690.905          46.000  
G 7  24063679.425   126455492.420       -2580.450          38.000  
R 8  20928896.533   112073360.500       -3616.654          48.000  
R20  21366534.231   114256587.531         101.686          39.000  
R21  21545845.574   115296387.332        3184.494          46.000  
R10  21037694.823   112142869.828       -1531.886          43.000  
R 7  24154293.430                1      -4585.326          28.000  
S20  37781967.808   198545705.866        -219.652          38.000  
> 2017 11 25 12 43 38.1989999  0 21                     
G 5  23529768.445   123649795.475       -2579.919          44.000  
G11  25226364.923                1      -1159.927          23.000  
G13  20771346.216   109154282.550        1330.841          45.000  
R12  23799964.067   127134893.741        1740.496          32.000  
G17  20900199.357   109831436.311        1913.346          51.000  
G19  22105555.732   116165547.719        2514.980          45.000  
G20  24353309.694   127977625.831        -930.235          40.000  
G28  20335265.554   106862658.827       -2327.932          50.000  
G30  21801276.390   114566594.124       -1725.140          45.000  
R 2  23762668.684                1       2992.586          30.000  
S38  39290339.326   206472179.696        -289.675          42.000  
R11  20789954.081   111095349.270         534.432          49.000  
R 1  20611404.514   110179909.905        -343.805          46.000  
G15  23189362.580   121860971.632        2690.122          46.000  
G 7  24063777.635   126456008.334       -2578.994          40.000  
R 8  20929031.528   112074083.931       -3616.941          48.000  
R20  21366530.531   114256567.067         102.689          39.000  
R21  21545726.564   115295750.396        3184.907          47.000  
R10  21037752.373   112143176.085       -1530.779          43.000  
R 7  24154464.303                1      -4584.418          32.000  
S20  37781976.184   198545749.737        -218.645          40.000  
> 2017 11 25 12 43 38.3989999  0 21                     
G 5  23529866.620   123650311.318       -2579.669          43.000  
G11  25226406.768                1      -1161.176          24.000  
G13  20771295.576   109154016.423        1330.656          45.000  
R12  23799899.955   127134545.640        1740.886          35.000  
G17  20900126.834   109831053.738        1913.504          52.000  
G19  22105460.000   116165044.719        2515.062          45.000  
G20  24353345.117   127977811.858        -930.344          39.000  
G28  20335353.992   106863124.429       -2327.751          49.000  
G30  21801342.003   114566939.166       -1724.901          45.000  
R 2  23762553.059                1       2992.643          30.000  
S38  39290350.250   206472237.524        -289.182          42.000  
R11  20789934.118   111095242.383         534.515          50.000  
R 1  20611417.497   110179978.800        -344.812          46.000  
G15  23189260.217   121860433.534        2690.274          46.000  
G 7  24063875.880   126456524.302       -2579.833          40.000  
R 8  20929166.627   112074807.321       -3616.556          47.000  
R20  21366526.622   114256546.711         101.500          37.000  
R21  21545607.518   115295113.435        3185.097          46.000  
R10  21037809.924   112143482.398       -1531.236          43.000  
R 7  24154636.467   129301692.3923      -4584.811          32.000  
S20  37781984.525   198545793.666        -219.652          40.000  
> 2017 11 25 12 43 38.5989999  0 21                     
G 5  23529964.621   123650827.162       -2578.741          44.000  
G11  25226444.600                1      -1158.217          24.000  
G13  20771244.761   109153750.318        1330.619          44.000  
R12  23799833.784   127134197.353        1742.197          35.000  
G17  20900053.997   109830671.248        1911.784          51.000  
G19  22105364.373   116164541.766        2514.790          46.000  
G20  24353380.541   127977997.955        -930.051          41.000  
G28  20335442.220   106863590.117       -2328.102          49.000  
G30  21801407.720   114567284.267       -1725.892          45.000  
R 2  23762440.086   126801187.1741       2992.531          29.000  
S38  39290361.314   206472295.271        -288.584          42.000  
R11  20789914.155   111095135.525         534.385          50.000  
R 1  20611430.375   110180047.760        -344.470          46.000  
G15  23189157.855   121859895.513        2690.205          46.000  
G 7  24063973.915   126457040.338       -2580.299          38.000  
R 8  20929301.587   112075530.797       -3617.970          47.000  
R20  21366522.679   114256526.401         101.615          37.000  
R21  21545488.613   115294476.534        3184.659          47.000  
R10  21037867.336   112143788.719       -1531.391          44.000  
R 7  24154810.201   129302609.4792      -4584.710          32.000  
S20  37781992.901   198545837.541        -219.763          40.000  
> 2017 11 25 12 43 38.7989999  0 21                     
G 5  23530062.830   123651343.082       -2579.333          44.000  
G11  25226486.411                1      -1155.958          24.000  
G13  20771194.295   109153484.277        1329.906          45.000  
R12  23799766.950   127133849.186        1741.511          31.000  
G17  20899981.194   109830288.711        1912.125          51.000  
G19  22105268.746   116164038.853        2514.574          46.000  
G20  24353416.035   127978184.053        -931.301          41.000  
G28  20335530.623   106864055.782       -2328.794          49.000  
G30  21801473.298   114567629.325       -1725.569          45.000  
R 2  23762328.335   126800588.6511       2991.972          29.000  
S38  39290372.238   206472353.179        -289.786          42.000  
R11  20789894.053   111095028.671         533.839          50.000  
R 1  20611443.393   110180116.750        -345.129          46.000  
G15  23189055.352   121859357.505        2689.699          46.000  
G 7  24064072.334   126457556.350       -2580.347          42.000  
R 8  20929436.617   112076254.279       -3617.985          48.000  
R20  21366519.014   114256506.101         100.824          41.000  
R21  21545369.428   115293839.680        3184.450          47.000  
R10  21037924.712   112144095.045       -1531.643          44.000  
R 7  24154984.075   129303526.5802      -4585.778          32.000  
S20  37782001.312   198545881.417        -219.028          40.000  
> 2017 11 25 12 43 38.9989999  0 21                     
G 5  23530161.005   123651859.010       -2580.750          44.000  
G11  25226529.792                1      -1162.766          24.000  
G13  20771143.829   109153218.201        1330.184          45.000  
R12  23799697.987   127133501.071        1740.554          26.000  
G17  20899908.183   109829906.199        1912.634          51.000  
G19  22105173.188   116163535.933        2514.702          46.000  
G20  24353451.459   127978370.119        -929.725          40.000  
G28  20335619.340   106864521.428       -2328.254          49.000  
G30  21801538.911   114567974.420       -1725.157          45.000  
R 2  23762219.375                1       2992.723          29.000  
S38  39290383.161   206472410.965        -288.861          43.000  
R11  20789873.985   111094921.801         534.615          50.000  
R 1  20611456.341   110180185.759        -344.910          47.000  
G15  23188952.849   121858819.455        2691.097          46.000  
G 7  24064170.544   126458072.378       -2579.736          40.000  
R 8  20929571.751   112076977.728       -3617.222          48.000  
R20  21366515.140   114256485.751         101.743          37.000  
R21  21545250.487   115293202.811        3183.630          47.000  
R10  21037982.193   112144401.370       -1531.398          43.000  
R 7  24155153.796   129304443.6562      -4586.227          32.000  
S20  37782009.619   198545925.326        -219.548          40.000  
> 2017 11 25 12 43 39.1989999  0 21                     
G 5  23530259.215   123652374.872       -2580.109          45.000  
G11  25226574.953                1      -1157.584          23.000  
G13  20771093.083   109152952.164        1329.837          45.000  
R12  23799636.352   127133152.731        1742.087          27.000  
G17  20899835.485   109829523.793        1912.151          52.000  
G19  22105077.491   116163033.066        2514.480          45.000  
G20  24353486.953   127978556.255        -930.934          40.000  
G28  20335707.952   106864987.086       -2328.865          49.000  
G30  21801604.768   114568319.539       -1726.030          46.000  
R 2  23762107.450                1       2992.065          29.000  
S38  39290394.155   206472468.758        -289.282          43.000  
R11  20789853.847   111094814.907         534.007          49.000  
R 1  20611469.115   110180254.770        -345.685          45.000  
G15  23188850.626   121858281.479        2689.471          46.000  
G 7  24064268.789   126458588.480       -2580.858          42.000  
R 8  20929706.991   112077701.267       -3617.045          47.000  
R20  21366511.336   114256465.643         101.411          38.000  
R21  21545131.407   115292565.998        3184.085          47.000  
R10  21038039.604   112144707.714       -1532.198          42.000  
R 7  24155326.832   129305360.6812      -4585.657          32.000  
S20  37782017.960   198545969.259        -219.657          39.000  
> 2017 11 25 12 43 39.3989999  0 21                     
G 5  23530357.425   123652890.785       -2578.430          43.000  
G11  25226617.602                1      -1153.501          24.000  
G13  20771042.478   109152686.121        1330.614          45.000  
R12  23799574.753   127132804.740        1739.815          31.000  
G17  20899762.752   109829141.361        1912.166          51.000  
G19  22104981.829   116162530.174        2515.078          45.000  
G20  24353522.551   127978742.357        -930.971          40.000  
G28  20335796.634   106865452.773       -2328.036          49.000  
G30  21801670.486   114568664.587       -1724.705          46.000  
R 2  23761995.699                1       2992.603          29.000  
S38  39290405.218   206472526.560        -288.677          44.000  
R11  20789833.815   111094708.055         534.790          49.000  
R 1  20611482.168   110180323.856        -345.038          46.000  
G15  23188748.472   121857743.473        2689.704          47.000  
G 7  24064366.894   126459104.433       -2579.518          40.000  
R 8  20929842.125   112078424.834       -3617.486          47.000  
R20  21366507.637   114256445.449         100.683          38.000  
R21  21545012.257   115291929.177        3184.246          47.000  
R10  21038097.050   112145014.054       -1531.648          42.000  
R 7  24155498.577   129306277.6782      -4584.901          32.000  
S20  37782026.301   198546013.130        -219.335          39.000  
> 2017 11 25 12 43 39.5989999  0 21                     
G 5  23530455.530   123653406.703       -2579.010          42.000  
G11  25226663.461                1      -1153.501          23.000  
G13  20770991.733   109152420.095        1330.103          45.000  
R12  23799509.769   127132456.474        1739.287          31.000  
G17  20899689.776   109828758.909        1911.909          50.000  
G19  22104886.132   116162027.301        2514.320          46.000  
G20  24353557.905   127978928.483        -930.175          41.000  
G28  20335885.176   106865918.449       -2328.258          49.000  
G30  21801736.203   114569009.753       -1726.398          45.000  
R 2  23761880.841                1       2993.544          29.000  
S38  39290416.212   206472584.386        -288.907          43.000  
R11  20789813.782   111094601.196         534.509          49.000  
R 1  20611495.081   110180392.951        -345.905          46.000  
G15  23188646.319   121857205.443        2690.011          47.000  
G 7  24064464.964   126459620.543       -2581.099          40.000  
R 8  20929977.364   112079148.365       -3618.194          47.000  
R20  21366503.763   114256425.208         100.606          38.000  
R21  21544893.176   115291292.330        3184.305          48.000  
R10  21038154.566   112145320.363       -1531.949          42.000  
R 7  24155669.240   129307194.6422      -4583.852          32.000  
S20  37782034.572   198546056.983        -219.459          39.000  
> 2017 11 25 12 43 39.7989999  0 21                     
G 5  23530553.530   123653922.548       -2580.304          42.000  
G11  25226711.973                1      -1162.365          24.000  
G13  20770941.092   109152154.129        1329.524          45.000  
R12  23799446.215                1       1736.474          26.000  
G17  20899616.869   109828376.452        1912.275          51.000  
G19  22104790.400   116161524.404        2513.908          44.000  
G20  24353593.364   127979114.651        -931.127          40.000  
G28  20335973.928   106866384.160       -2328.564          49.000  
G30  21801801.921   114569354.784       -1725.375          45.000  
R 2  23761769.055                1       2990.788          29.000  
S38  39290427.136   206472642.152        -289.227          43.000  
R11  20789793.714   111094494.338         533.771          50.000  
R 1  20611507.994   110180462.061        -346.069          46.000  
G15  23188544.026   121856667.479        2690.090          47.000  
G 7  24064563.035   126460136.410       -2579.377          40.000  
R 8  20930112.604   112079871.886       -3617.737          48.000  
R20  21366499.993   114256405.052         101.447          38.000  
R21  21544774.096   115290655.480        3184.302          47.000  
R10  21038212.047   112145626.646       -1531.676          42.000  
R 7  24155839.729   129308111.6862      -4584.339          32.000  
S20  37782042.948   198546100.805        -218.920          39.000  
> 2017 11 25 12 43 39.9989999  0 21                     
G 5  23530651.566   123654438.464       -2579.138          44.000  
G11  25226758.146                1      -1156.817          23.000  
G13  20770890.312   109151888.176        1329.484          44.000  
R12  23799380.881                1       1741.913          26.000  
G17  20899544.171   109827994.080        1911.809          52.000  
G19  22104694.564   116161021.530        2514.066          45.000  
G20  24353628.684   127979300.843        -931.061          40.000  
G28  20336062.645   106866849.882       -2328.935          49.000  
G30  21801867.743   114569699.898       -1725.625          46.000  
R 2  23761654.791                1       2992.982          29.000  
S38  39290438.269   206472699.961        -288.907          44.000  
R11  20789773.716   111094387.486         534.418          50.000  
R 1  20611520.802   110180531.297        -345.721          46.000  
G15  23188441.663   121856129.542        2689.358          46.000  
G 7  24064661.175   126460652.532       -2580.631          40.000  
R 8  20930247.564   112080595.515       -3618.208          48.000  
R20  21366496.364   114256385.002          99.033          38.000  
R21  21544655.120   115290018.662        3184.040          47.000  
R10  21038269.528   112145932.985       -1531.609          42.000  
R 7  24156009.275   129309028.7253      -4584.585          32.000  
S20  37782051.359   198546144.695        -219.504          39.000  
> 2017 11 25 12 43 40.1989999  0 21                     
G 5  23530749.915   123654954.495       -2579.510          45.000  
G11  25226803.272                1      -1154.543          23.000  
G13  20770839.602   109151622.265        1329.980          44.000  
R12  23799312.476                1       1739.723          32.000  
G17  20899471.508   109827611.757        1911.897          51.000  
G19  22104598.867   116160518.729        2514.101          45.000  
G20  24353664.177   127979487.051        -930.705          40.000  
G28  20336151.048   106867315.595       -2328.621          49.000  
G30  21801933.356   114570045.043       -1726.024          44.000  
R 2  23761540.597                1       2993.020          29.000  
S38  39290449.437   206472757.844        -289.103          44.000  
R11  20789753.718   111094280.698         534.174          50.000  
R 1  20611533.715   110180600.526        -346.393          47.000  
G15  23188339.195   121855591.586        2689.962          46.000  
G 7  24064759.384   126461168.518       -2580.201          40.000  
R 8  20930382.698   112081319.196       -3618.398          48.000  
R20  21366492.490   114256364.846         101.002          38.000  
R21  21544535.970   115289381.917        3183.865          47.000  
R10  21038326.974   112146239.286       -1531.736          42.000  
R 7  24156182.765   129309945.7853      -4585.922          31.000  
S20  37782059.666   198546188.593        -219.507          39.000  
> 2017 11 25 12 43 40.3989999  0 21                     
G 5  23530848.125   123655470.469       -2580.786          44.000  
G11  25226849.341                1      -1155.065          23.000  
G13  20770789.101   109151356.336        1328.991          46.000  
R12  23799244.700                1       1741.126          27.000  
G17  20899398.846   109827229.402        1910.910          51.000  
G19  22104503.135   116160015.888        2513.653          45.000  
G20  24353699.601   127979673.269        -931.790          40.000  
G28  20336239.625   106867781.324       -2328.793          49.000  
G30  21801998.969   114570390.094       -1725.541          45.000  
R 2  23761428.846                1       2992.138          29.000  
S38  39290460.361   206472815.621        -289.604          43.000  
R11  20789733.650   111094173.827         533.572          49.000  
R 1  20611546.559   110180669.728        -346.045          44.000  
G15  23188236.937   121855053.660        2689.044          47.000  
G 7  24064857.490   126461684.538       -2580.336          40.000  
R 8  20930518.077   112082042.809       -3618.870          47.000  
R20  21366488.616   114256344.767         100.539          38.000  
R21  21544417.099   115288745.129        3183.742          47.000  
R10  21038384.316   112146545.562       -1531.970          42.000  
R 7  24156356.814   129310862.7223      -4583.719          31.000  
S20  37782068.112   198546232.457        -219.597          39.000  
> 2017 11 25 12 43 40.5989999  0 21                     
G 5  23530946.230   123655986.287       -2579.193          45.000  
G11  25226892.512                1      -1155.814          23.000  
G13  20770738.704   109151090.337        1330.258          45.000  
R12  23799178.284   127130947.5743       1741.947          32.000  
G17  20899326.113   109826847.020        1912.146          51.000  
G19  22104407.473   116159513.016        2514.511          45.000  
G20  24353734.886   127979859.436        -930.071          40.000  
G28  20336328.342   106868247.063       -2328.521          49.000  
G30  21802064.581   114570735.223       -1725.029          45.000  
R 2  23761318.979                1       2991.949          29.000  
S38  39290471.459   206472873.360        -288.161          44.000  
R11  20789713.687   111094066.967         534.591          49.000  
R 1  20611559.542   110180739.021        -346.344          46.000  
G15  23188134.574   121854515.690        2689.719          46.000  
G 7  24064955.839   126462200.491       -2579.827          43.000  
R 8  20930653.107   112082766.381       -3617.586          47.000  
R20  21366484.777   114256324.810          99.967          38.000  
R21  21544297.949   115288108.354        3183.693          47.000  
R10  21038441.797   112146851.850       -1530.959          42.000  
R 7  24156529.711   129311779.6533      -4583.940          31.000  
S20  37782076.523   198546276.290        -219.110          40.000  
> 2017 11 25 12 43 40.7989999  0 21                     
G 5  23531044.300   123656502.152       -2578.149          44.000  
G11  25226933.102                1      -1155.025          24.000  
G13  20770688.134   109150824.406        1329.717          45.000  
R12  23799115.149   127130599.3532       1739.812          33.000  
G17  20899253.276   109826464.682        1912.023          51.000  
G19  22104311.811   116159010.128        2514.750          46.000  
G20  24353770.344   127980045.598        -930.902          40.000  
G28  20336417.129   106868712.766       -2328.487          50.000  
G30  21802130.229   114571080.326       -1725.687          45.000  
R 2  23761204.471                1       2992.552          29.000  
S38  39290482.418   206472931.127        -288.804          44.000  
R11  20789693.794   111093960.048         534.714          49.000  
R 1  20611572.455   110180808.218        -346.173          46.000  
G15  23188031.966   121853977.687        2690.055          46.000  
G 7  24065053.944   126462716.532       -2580.150          41.000  
R 8  20930788.276   112083489.952       -3617.300          48.000  
R20  21366481.077   114256304.757         100.165          38.000  
R21  21544178.799   115287471.528        3183.637          46.000  
R10  21038499.313   112147158.158       -1531.217          42.000  
R 7  24156700.793                1      -4583.311          30.000  
S20  37782084.899   198546320.100        -218.445          41.000  
> 2017 11 25 12 43 40.9989999  0 21                     
G 5  23531142.580   123657018.101       -2579.590          45.000  
G11  25226975.052                1      -1142.631          24.000  
G13  20770637.598   109150558.495        1329.259          45.000  
R12  23799051.421   127130251.1432       1742.599          32.000  
G17  20899180.299   109826082.358        1911.271          50.000  
G19  22104216.114   116158507.293        2514.298          46.000  
G20  24353805.664   127980231.753        -931.125          40.000  
G28  20336505.636   106869178.472       -2328.312          50.000  
G30  21802195.702   114571425.384       -1725.385          44.000  
R 2  23761094.116                1       2994.111          28.000  
S38  39290493.342   206472988.830        -288.438          44.000  
R11  20789673.831   111093853.121         534.884          49.000  
R 1  20611585.473   110180877.476        -345.880          46.000  
G15  23187929.534   121853439.691        2690.218          46.000  
G 7  24065152.119   126463232.513       -2580.118          40.000  
R 8  20930923.515   112084213.585       -3618.323          48.000  
R20  21366477.273   114256284.693         100.276          38.000  
R21  21544059.754   115286834.730        3184.093          47.000  
R10  21038556.689   112147464.394       -1530.835          42.000  
R 7  24156876.900                1      -4585.485          30.000  
S20  37782093.345   198546363.964        -219.357          39.000  
> 2017 11 25 12 43 41.1989999  0 21                     
G 5  23531240.860   123657533.871       -2580.176          44.000  
G11  25227019.376                1      -1151.045          23.000  
G13  20770587.097   109150292.436        1330.853          46.000  
R12  23798989.333   127129902.7692       1741.570          33.000  
G17  20899107.671   109825699.899        1912.485          51.000  
G19  22104120.556   116158004.326        2515.172          46.000  
G20  24353841.053   127980417.875        -929.953          40.000  
G28  20336594.109   106869644.131       -2328.260          49.000  
G30  21802261.490   114571770.386       -1724.708          45.000  
R 2  23760982.958                1       2991.819          28.000  
S38  39290504.336   206473046.540        -288.218          43.000  
R11  20789653.763   111093746.124         535.453          49.000  
R 1  20611598.526   110180946.726        -346.295          46.000  
G15  23187827.101   121852901.630        2690.318          45.000  
G 7  24065250.154   126463748.408       -2579.415          39.000  
R 8  20931058.580   112084937.107       -3617.064          48.000  
R20  21366473.609   114256264.690         100.439          38.000  
R21  21543940.778   115286197.863        3184.412          47.000  
R10  21038614.030   112147770.550       -1530.762          43.000  
R 7  24157050.111                1      -4582.996          24.000  
S20  37782101.686   198546407.599        -218.212          39.000  
> 2017 11 25 12 43 41.3989999  0 21                     
G 5  23531338.965   123658049.575       -2577.649          44.000  
G11  25227063.176                1      -1155.072          23.000  
G13  20770536.561   109150026.410        1330.121          46.000  
R12  23798920.859   127129554.3422       1741.783          29.000  
G17  20899034.939   109825317.504        1912.496          51.000  
G19  22104024.859   116157501.374        2515.285          46.000  
G20  24353876.442   127980603.930        -931.191          40.000  
G28  20336682.721   106870109.701       -2328.185          49.000  
G30  21802326.928   114572115.312       -1724.399          45.000  
R 2  23760870.229                1       2992.776          28.000  
S38  39290515.329   206473104.161        -287.792          44.000  
R11  20789633.591   111093639.059         535.569          49.000  
R 1  20611611.369   110181015.922        -346.313          46.000  
G15  23187724.563   121852363.530        2690.224          45.000  
G 7  24065348.364   126464264.201       -2579.302          38.000  
R 8  20931193.645   112085660.676       -3617.900          47.000  
R20  21366469.630   114256244.566          99.901          38.000  
R21  21543821.907   115285560.968        3184.635          47.000  
R10  21038671.407   112148076.627       -1530.701          43.000  
R 7  24157225.311                1      -4581.475          24.000  
S20  37782109.992   198546451.277        -217.256          39.000  
> 2017 11 25 12 43 41.5989999  0 21                     
G 5  23531437.000   123658565.343       -2577.869          43.000  
G11  25227104.812                1      -1155.072          22.000  
G13  20770485.781   109149760.354        1329.943          45.000  
R12  23798858.771   127129206.0222       1741.970          33.000  
G17  20898961.962   109824935.001        1912.621          51.000  
G19  22103929.023   116156998.334        2515.527          46.000  
G20  24353911.796   127980789.951        -929.238          38.000  
G28  20336771.403   106870575.259       -2327.791          49.000  
G30  21802392.645   114572460.193       -1724.185          46.000  
R 2  23760755.895                1       2992.719          27.000  
S38  39290526.009   206473161.740        -287.629          42.000  
R11  20789613.383   111093532.029         535.524          49.000  
R 1  20611624.422   110181085.091        -345.331          46.000  
G15  23187622.096   121851825.426        2690.861          44.000  
G 7  24065446.365   126464779.971       -2577.649          40.000  
R 8  20931328.605   112086384.114       -3617.341          46.000  
R20  21366465.721   114256224.433         101.716          38.000  
R21  21543702.827   115284923.948        3185.701          47.000  
R10  21038728.713   112148382.689       -1530.206          43.000  
R 7  24157399.150                1      -4606.563          23.000  
S20  37782118.229   198546494.875        -217.963          40.000  
> 2017 11 25 12 43 41.7989999  0 21                     
G 5  23531535.140   123659081.010       -2578.833          44.000  
G11  25227147.286                1      -1159.595          22.000  
G13  20770435.245   109149494.256        1330.511          45.000  
R12  23798792.460   127128857.4752       1743.041          30.000  
G17  20898889.369   109824552.505        1912.543          51.000  
G19  22103833.221   116156495.288        2515.266          46.000  
G20  24353947.185   127980976.023        -930.165          39.000  
G28  20336859.876   106871040.770       -2327.188          49.000  
G30  21802458.084   114572805.060       -1724.401          45.000  
R 2  23760643.027                1       2993.526          28.000  
S38  39290537.212   206473219.247        -287.461          44.000  
R11  20789593.211   111093424.897         535.531          49.000  
R 1  20611637.405   110181154.300        -346.802          46.000  
G15  23187519.558   121851287.244        2691.437          44.000  
G 7  24065544.574   126465295.688       -2578.942          41.000  
R 8  20931463.530   112087107.562       -3617.358          47.000  
R20  21366462.057   114256204.347         100.322          40.000  
R21  21543583.642   115284286.976        3185.015          46.000  
R10  21038786.124   112148688.705       -1530.048          42.000  
R 7  24157570.930                1      -4587.908          23.000  
S20  37782126.500   198546538.427        -217.760          40.000  
> 2017 11 25 12 43 41.9989999  0 21                     
G 5  23531633.385   123659596.540       -2577.277          45.000  
G11  25227189.829                1      -1153.519          23.000  
G13  20770384.500   109149228.062        1331.086          45.000  
R12  23798726.917   127128508.9862       1744.228          30.000  
G17  20898816.671   109824169.927        1913.128          51.000  
G19  22103737.524   116155992.132        2516.099          45.000  
G20  24353982.644   127981161.911        -929.309          37.000  
G28  20336948.453   106871506.229       -2326.918          49.000  
G30  21802523.836   114573149.862       -1723.943          45.000  
R 2  23760529.810                1       2993.623          28.000  
S38  39290548.206   206473276.724        -287.208          44.000  
R11  20789573.283   111093317.678         535.982          50.000  
R 1  20611650.318   110181223.363        -344.952          46.000  
G15  23187417.230   121850749.008        2691.212          44.000  
G 7  24065642.714   126465811.326       -2577.253          41.000  
R 8  20931598.594   112087830.909       -3616.722          47.000  
R20  21366458.253   114256184.116         100.805          39.000  
R21  21543464.667   115283649.869        3185.402          47.000  
R10  21038843.536   112148994.607       -1529.562          43.000  
R 7  24157742.954                1      -4577.046          23.000  
S20  37782134.772   198546581.888        -217.250          40.000  
> 2017 11 25 12 43 42.1989999  0 21                     
G 5  23531731.385   123660112.006       -2576.471          45.000  
G11  25227233.560                1      -1156.668          24.000  
G13  20770333.859   109148961.826        1331.253          45.000  
R12  23798659.734   127128160.3272       1742.400          30.000  
G17  20898743.799   109823787.243        1913.769          51.000  
G19  22103641.757   116155488.838        2517.023          45.000  
G20  24354018.033   127981347.852        -929.496          37.000  
G28  20337036.961   106871971.600       -2327.490          49.000  
G30  21802589.275   114573494.478       -1723.126          46.000  
R 2  23760417.710   126790147.6353       2993.917          28.000  
S38  39290559.060   206473334.009        -286.043          44.000  
R11  20789553.250   111093210.342         536.310          49.000  
R 1  20611663.371   110181292.419        -345.215          46.000  
G15  23187315.007   121850210.657        2691.427          45.000  
G 7  24065740.855   126466326.834       -2578.192          41.000  
R 8  20931733.450   112088554.147       -3615.664          47.000  
R20  21366454.274   114256163.863         101.431          35.000  
R21  21543345.656   115283012.613        3187.329          48.000  
R10  21038900.842   112149300.444       -1529.228          43.000  
R 7  24157912.361                1      -4586.521          24.000  
S20  37782143.008   198546625.204        -216.523          40.000  
> 2017 11 25 12 43 42.3989999  0 21                     
G 5  23531829.560   123660627.367       -2576.953          46.000  
G11  25227276.033                1      -1157.581          30.000  
G13  20770283.149   109148695.601        1330.962          45.000  
R12  23798592.829   127127811.6912       1742.795          31.000  
G17  20898670.613   109823404.494        1913.458          50.000  
G19  22103546.060   116154985.501        2516.661          44.000  
G20  24354053.317   127981533.662        -929.561          37.000  
G28  20337125.643   106872436.953       -2326.955          49.000  
G30  21802654.783   114573839.109       -1723.283          46.000  
R 2  23760305.540   126789548.9033       2994.403          28.000  
S38  39290570.018   206473391.269        -286.493          43.000  
R11  20789533.217   111093103.037         536.715          49.000  
R 1  20611675.935   110181361.457        -345.270          44.000  
G15  23187212.400   121849672.354        2691.608          44.000  
G 7  24065838.925   126466842.303       -2577.167          42.000  
R 8  20931868.549   112089277.354       -3616.249          47.000  
R20  21366450.540   114256143.625         100.565          38.000  
R21  21543226.366   115282375.373        3186.229          47.000  
R10  21038958.253   112149606.262       -1529.280          43.000  
R 7  24158084.804                1      -4582.280          23.000  
S20  37782151.175   198546668.471        -216.121          40.000  
> 2017 11 25 12 43 42.5989999  0 21                     
G 5  23531927.596   123661142.691       -2576.031          47.000  
G11  25227315.436                1      -1156.007          30.000  
G13  20770232.578   109148429.347        1331.435          46.000  
R12  23798527.775   127127462.8962       1745.107          31.000  
G17  20898597.916   109823021.633        1914.389          51.000  
G19  22103450.189   116154481.980        2517.415          44.000  
G20  24354088.671   127981719.527        -929.152          39.000  
G28  20337214.011   106872902.290       -2326.462          49.000  
G30  21802720.291   114574183.662       -1722.812          45.000  
R 2  23760201.397   126788950.3163       2991.399          32.000  
S38  39290580.733   206473448.493        -285.607          44.000  
R11  20789513.149   111092995.754         536.321          49.000  
R 1  20611688.918   110181430.549        -345.294          46.000  
G15  23187110.071   121849134.115        2690.971          46.000  
G 7  24065936.925   126467357.644       -2577.014          41.000  
R 8  20932003.404   112090000.480       -3615.320          47.000  
R20  21366446.840   114256123.252         101.997          38.000  
R21  21543107.321   115281737.918        3187.503          47.000  
R10  21039015.699   112149912.026       -1529.051          43.000  
R 7  24158257.666                1      -4579.438          24.000  
S20  37782159.272   198546711.573        -215.690          40.000  
> 2017 11 25 12 43 42.7989999  0 21                     
G 5  23532025.491   123661657.891       -2576.257          47.000  
G11  25227359.341                1      -1155.688          34.000  
G13  20770182.008   109148163.056        1331.277          47.000  
R12  23798460.173   127127114.2062       1743.622          31.000  
G17  20898525.148   109822638.717        1914.625          51.000  
G19  22103354.178   116153978.383        2518.419          43.000  
G20  24354124.025   127981905.340        -929.163          39.000  
G28  20337302.553   106873367.572       -2326.343          49.000  
G30  21802785.729   114574528.150       -1722.364          44.000  
R 2  23760087.657   126788351.4833       2993.771          32.000  
S38  39290591.587   206473505.584        -285.664          44.000  
R11  20789492.907   111092888.367         536.684          47.000  
R 1  20611701.831   110181499.580        -345.514          46.000  
G15  23187007.708   121848595.803        2691.164          46.000  
G 7  24066034.856   126467872.894       -2576.060          40.000  
R 8  20932138.469   112090723.503       -3615.127          47.000  
R20  21366443.141   114256102.874         101.892          40.000  
R21  21542988.136   115281100.394        3187.824          46.000  
R10  21039073.006   112150217.728       -1527.872          43.000  
R 7  24158429.970                1      -4572.044          24.000  
S20  37782167.369   198546754.560        -214.569          38.000  
> 2017 11 25 12 43 42.9989999  0 21                     
G 5  23532123.457   123662172.979       -2575.195          46.000  
G11  25227401.710   132570923.6403      -1155.531          33.000  
G13  20770131.123   109147896.680        1331.831          47.000  
R12  23798392.536   127126765.3922       1744.135          31.000  
G17  20898452.346   109822255.668        1915.309          51.000  
G19  22103258.271   116153474.627        2518.964          44.000  
G20  24354159.310   127982091.049        -928.480          40.000  
G28  20337391.095   106873832.814       -2326.283          49.000  
G30  21802851.098   114574872.541       -1721.866          45.000  
R 2  23759974.335   126787752.8332       2993.551          31.000  
S38  39290602.476   206473562.572        -284.829          44.000  
R11  20789472.909   111092780.992         536.847          47.000  
R 1  20611714.674   110181568.570        -345.166          46.000  
G15  23186905.520   121848057.432        2691.846          45.000  
G 7  24066132.682   126468388.061       -2575.709          40.000  
R 8  20932273.534   112091446.373       -3614.264          47.000  
R20  21366439.232   114256082.434         102.757          40.000  
R21  21542868.846   115280462.688        3188.614          46.000  
R10  21039130.382   112150523.429       -1528.552          43.000  
R 7  24158601.784                1      -4579.895          25.000  
S20  37782175.570   198546797.435        -214.120          38.000  
> 2017 11 25 12 43 43.1989999  0 21                     
G 5  23532221.527   123662687.982       -2574.713          47.000  
G11  25227443.486   132571154.7893      -1155.352          33.000  
G13  20770080.238   109147630.341        1331.890          47.000  
R12  23798327.097   127126416.4812       1745.251          32.000  
G17  20898379.648   109821872.580        1915.884          51.000  
G19  22103162.260   116152970.860        2519.216          44.000  
G20  24354194.559   127982276.766        -928.244          40.000  
G28  20337479.638   106874298.070       -2326.227          49.000  
G30  21802916.780   114575216.943       -1721.921          47.000  
R 2  23759858.466   126787154.0613       2994.061          31.000  
S38  39290613.295   206473619.513        -284.223          45.000  
R11  20789452.702   111092673.603         537.198          46.000  
R 1  20611727.622   110181637.561        -344.800          47.000  
G15  23186803.052   121847519.081        2691.785          45.000  
G 7  24066230.612   126468903.214       -2575.663          40.000  
R 8  20932408.424   112092169.254       -3613.883          47.000  
R20  21366435.393   114256062.077         101.423          39.000  
R21  21542749.487   115279824.971        3188.900          46.000  
R10  21039187.689   112150829.132       -1528.414          43.000  
R 7  24158772.831                1      -4586.563          24.000  
S20  37782183.667   198546840.278        -213.797          39.000  
> 2017 11 25 12 43 43.3989999  0 21                     
G 5  23532319.353   123663202.901       -2574.286          47.000  
G11  25227484.459   132571385.9792      -1155.778          33.000  
G13  20770029.562   109147363.984        1332.006          48.000  
R12  23798261.101   127126067.5822       1744.564          32.000  
G17  20898306.846   109821489.431        1915.977          51.000  
G19  22103066.109   116152466.967        2519.801          44.000  
G20  24354229.948   127982462.461        -928.094          40.000  
G28  20337568.145   106874763.347       -2326.257          49.000  
G30  21802982.428   114575561.312       -1721.701          47.000  
R 2  23759747.901   126786555.4592       2993.203          31.000  
S38  39290624.149   206473676.352        -283.930          45.000  
R11  20789432.669   111092566.214         537.213          45.000  
R 1  20611740.535   110181706.526        -344.659          46.000  
G15  23186700.375   121846980.753        2691.835          44.000  
G 7  24066328.752   126469418.304       -2575.343          40.000  
R 8  20932543.628   112092891.996       -3613.414          47.000  
R20  21366431.484   114256041.642         101.820          39.000  
R21  21542630.197   115279187.161        3189.292          46.000  
R10  21039245.065   112151134.826       -1528.201          42.000  
R 7  24158943.844                1      -4588.976          23.000  
S20  37782191.764   198546883.030        -213.514          39.000  
> 2017 11 25 12 43 43.5989999  0 21                     
G 5  23532417.353   123663717.726       -2574.011          47.000  
G11  25227528.887   132571617.1672      -1155.933          33.000  
G13  20769978.957   109147097.599        1331.905          48.000  
R12  23798196.360   127125718.5642       1744.719          32.000  
G17  20898233.730   109821106.255        1915.857          51.000  
G19  22102970.098   116151963.010        2520.188          44.000  
G20  24354265.233   127982648.099        -928.210          39.000  
G28  20337656.723   106875228.624       -2326.546          49.000  
G30  21803048.111   114575905.685       -1721.888          47.000  
R 2  23759636.639   126785956.8062       2993.476          31.000  
S38  39290635.038   206473733.105        -283.567          45.000  
R11  20789412.462   111092458.785         537.033          45.000  
R 1  20611753.204   110181775.479        -344.647          46.000  
G15  23186597.628   121846442.383        2691.716          44.000  
G 7  24066426.788   126469933.416       -2575.869          40.000  
R 8  20932678.484   112093614.663       -3613.072          47.000  
R20  21366427.610   114256021.276         101.929          40.000  
R21  21542510.907   115278549.317        3189.353          46.000  
R10  21039302.127   112151440.538       -1528.750          42.000  
R 7  24159115.763                1      -4588.976          23.000  
S20  37782200.035   198546925.733        -213.408          38.000  
> 2017 11 25 12 43 43.7989999  0 21                     
G 5  23532515.144   123664232.469       -2573.309          48.000  
G11  25227566.230   132571848.3952      -1156.322          32.000  
G13  20769928.246   109146831.219        1332.071          48.000  
R12  23798130.399   127125369.5292       1745.455          33.000  
G17  20898160.578   109820723.032        1916.438          51.000  
G19  22102873.878   116151458.982        2520.548          44.000  
G20  24354300.482   127982833.695        -927.676          39.000  
G28  20337745.125   106875693.926       -2326.285          48.000  
G30  21803113.898   114576250.057       -1721.668          47.000  
R 2  23759522.584   126785358.2902       2991.930          30.000  
S38  39290645.752   206473789.780        -283.108          45.000  
R11  20789392.289   111092351.363         537.189          45.000  
R 1  20611766.222   110181844.445        -344.684          47.000  
G15  23186494.847   121845904.018        2692.062          44.000  
G 7  24066524.823   126470448.436       -2574.863          40.000  
R 8  20932813.548   112094337.279       -3612.758          47.000  
R20  21366423.736   114256000.951         101.823          40.000  
R21  21542391.583   115277911.401        3189.942          46.000  
R10  21039359.573   112151746.264       -1528.341          42.000  
R 7  24159288.276                1      -4580.260          22.000  
S20  37782208.202   198546968.377        -212.997          38.000  
> 2017 11 25 12 43 43.9989999  0 21                     
G 5  23532613.145   123664747.166       -2573.468          48.000  
G11  25227606.226   132572079.5642      -1156.678          32.000  
G13  20769877.571   109146564.800        1332.072          48.000  
R12  23798066.321   127125020.4762       1744.874          36.000  
G17  20898087.497   109820339.787        1916.104          51.000  
G19  22102778.006   116150954.929        2520.029          44.000  
G20  24354335.731   127983019.269        -927.851          39.000  
G28  20337833.842   106876159.171       -2326.313          48.000  
G30  21803179.546   114576594.360       -1721.491          47.000  
R 2  23759408.110   126784759.5133       2994.014          30.000  
S38  39290656.676   206473846.394        -282.989          45.000  
R11  20789372.326   111092243.874         537.484          45.000  
R 1  20611778.996   110181913.379        -344.745          47.000  
G15  23186392.100   121845365.611        2692.212          44.000  
G 7  24066622.684   126470963.462       -2575.375          40.000  
R 8  20932948.543   112095059.848       -3613.092          47.000  
R20  21366419.827   114255980.583         101.447          40.000  
R21  21542272.328   115277273.447        3189.670          46.000  
R10  21039416.950   112152051.925       -1528.173          42.000  
R 7  24159456.671                1      -4580.260          21.000  
S20  37782216.439   198547010.976        -213.036          38.000  
> 2017 11 25 12 43 44.3989999  0 21                     
G 5  23532808.832   123665776.476       -2573.560          48.000  
G11  25227697.212   132572541.8122      -1155.580          33.000  
G13  20769775.976   109146031.947        1331.993          48.000  
R12  23797936.945   127124322.2512       1745.074          36.000  
G17  20897941.334   109819573.267        1916.149          51.000  
G19  22102585.984   116149946.730        2520.505          44.000  
G20  24354406.510   127983390.376        -927.971          41.000  
G28  20338011.032   106877089.663       -2326.118          46.000  
G30  21803310.841   114577282.944       -1721.387          46.000  
R 2  23759175.464                1       2994.171          29.000  
S38  39290678.140   206473959.541        -283.026          45.000  
R11  20789332.191   111092028.852         537.595          44.000  
R 1  20611804.717   110182051.275        -344.952          48.000  
G15  23186186.571   121844288.767        2692.150          42.000  
G 7  24066818.720   126471993.423       -2574.668          40.000  
R 8  20933218.742   112096504.924       -3613.100          45.000  
R20  21366412.393   114255939.870         102.052          40.000  
R21  21542033.818   115275997.503        3189.687          46.000  
R10  21039531.807   112152663.190       -1527.938          43.000  
R 7  24159798.730                1      -4582.619          20.000  
S20  37782232.563   198547096.035        -212.426          39.000  
> 2017 11 25 12 43 44.5989999  0 21                     
G 5  23532906.902   123666291.125       -2573.297          48.000  
G11  25227741.815   132572772.9572      -1155.532          33.000  
G13  20769725.231   109145765.536        1331.976          48.000  
R12  23797872.275   127123973.0722       1745.968          36.000  
G17  20897868.392   109819190.042        1916.397          51.000  
G19  22102490.008   116149442.661        2520.736          44.000  
G20  24354441.724   127983575.929        -928.002          41.000  
G28  20338099.539   106877554.918       -2326.190          46.000  
G30  21803376.349   114577627.245       -1721.241          46.000  
R 2  23759056.872                1       2993.107          28.000  
S38  39290688.680   206474016.072        -282.628          45.000  
R11  20789311.844   111091921.332         537.480          44.000  
R 1  20611817.700   110182120.245        -344.977          48.000  
G15  23186083.754   121843750.330        2691.934          43.000  
G 7  24066916.790   126472508.412       -2574.218          39.000  
R 8  20933353.598   112097227.459       -3612.702          45.000  
R20  21366408.729   114255919.574         101.555          40.000  
R21  21541914.599   115275359.535        3190.239          46.000  
R10  21039589.149   112152968.810       -1527.885          43.000  
R 7  24159966.496                1      -4582.619          20.000  
S20  37782240.590   198547138.566        -212.025          39.000  
> 2017 11 25 12 43 44.7989999  0 21                     
G 5  23533004.902   123666805.698       -2572.906          48.000  
G11  25227785.999   132573004.0092      -1154.954          34.000  
G13  20769674.450   109145499.046        1332.355          47.000  
R12  23797806.208   127123623.8882       1745.543          36.000  
G17  20897795.520   109818806.766        1916.408          51.000  
G19  22102393.997   116148938.516        2521.213          44.000  
G20  24354476.973   127983761.428        -927.527          42.000  
G28  20338188.012   106878020.115       -2325.934          45.000  
G30  21803441.962   114577971.466       -1720.967          46.000  
R 2  23758940.654                1       2992.783          28.000  
S38  39290699.569   206474072.525        -282.176          45.000  
R11  20789291.706   111091813.706         538.160          44.000  
R 1  20611830.544   110182189.172        -344.708          48.000  
G15  23185981.147   121843211.809        2692.565          44.000  
G 7  24067014.616   126473023.340       -2574.352          39.000  
R 8  20933488.488   112097949.934       -3612.189          44.000  
R20  21366405.064   114255899.215         101.850          41.000  
R21  21541795.518   115274721.520        3190.319          46.000  
R10  21039646.420   112153274.339       -1527.684          44.000  
R 7  24160136.147                1      -4577.693          20.000  
S20  37782248.756   198547181.015        -211.828          39.000  
> 2017 11 25 12 43 44.9989999  0 21                     
G 5  23533102.693   123667320.233       -2572.443          48.000  
G11  25227827.321   132573235.0512      -1155.303          34.000  
G13  20769623.705   109145232.529        1332.806          47.000  
R12  23797742.201   127123274.6312       1745.801          36.000  
G17  20897722.752   109818423.431        1916.909          51.000  
G19  22102297.881   116148434.347        2520.982          44.000  
G20  24354512.258   127983946.908        -927.294          43.000  
G28  20338276.484   106878485.251       -2325.685          45.000  
G30  21803507.296   114578315.615       -1720.509          46.000  
R 2  23758826.774                1       2999.421          28.000  
S38  39290710.388   206474128.931        -281.649          45.000  
R11  20789271.569   111091706.074         538.269          44.000  
R 1  20611843.422   110182258.083        -344.513          48.000  
G15  23185878.610   121842673.281        2692.576          44.000  
G 7  24067112.546   126473538.184       -2574.310          39.000  
R 8  20933623.448   112098672.396       -3612.085          44.000  
R20  21366401.330   114255878.829         102.063          40.000  
R21  21541676.333   115274083.445        3190.616          46.000  
R10  21039703.657   112153579.796       -1527.218          44.000  
R 7  24160306.357                1      -4572.983          20.000  
S20  37782256.818   198547223.385        -211.799          39.000  
> 2017 11 25 12 43 45.1989999  0 21                     
G 5  23533200.310   123667834.698       -2572.614          47.000  
G11  25227869.760   132573466.0132      -1155.169          34.000  
G13  20769572.820   109144965.980        1332.750          47.000  
R12  23797676.449   127122925.2522       1747.058          36.000  
G17  20897649.845   109818040.093        1916.653          51.000  
G19  22102201.765   116147930.126        2520.865          44.000  
G20  24354547.577   127984132.340        -927.080          43.000  
G28  20338364.887   106878950.347       -2325.613          45.000  
G30  21803572.839   114578659.738       -1720.704          46.000  
R 2  23758712.789                1       2993.556          27.000  
S38  39290720.893   206474185.255        -281.699          44.000  
R11  20789251.291   111091598.355         538.596          45.000  
R 1  20611856.440   110182326.965        -344.440          48.000  
G15  23185776.072   121842134.690        2692.930          45.000  
G 7  24067210.442   126474052.988       -2574.038          39.000  
R 8  20933758.443   112099394.803       -3612.179          44.000  
R20  21366397.491   114255858.415         102.244          40.000  
R21  21541557.113   115273445.336        3190.465          46.000  
R10  21039760.824   112153885.204       -1527.013          44.000  
R 7  24160474.995                1      -4570.126          21.000  
S20  37782264.845   198547265.690        -211.587          40.000  
> 2017 11 25 12 43 45.3989999  0 21                     
G 5  23533297.961   123668349.143       -2571.979          47.000  
G11  25227915.863   132573696.9522      -1154.180          34.000  
G13  20769522.075   109144699.416        1333.184          47.000  
R12  23797610.522   127122575.9102       1747.348          36.000  
G17  20897576.938   109817656.728        1917.149          51.000  
G19  22102105.789   116147425.860        2521.723          43.000  
G20  24354583.036   127984317.754        -926.865          43.000  
G28  20338453.395   106879415.434       -2325.360          45.000  
G30  21803638.172   114579003.826       -1720.033          46.000  
R 2  23758599.258                1       2993.627          27.000  
S38  39290731.607   206474241.543        -281.113          44.000  
R11  20789231.154   111091490.628         539.002          46.000  
R 1  20611869.248   110182395.861        -344.232          48.000  
G15  23185673.395   121841596.108        2693.105          45.000  
G 7  24067308.477   126474567.764       -2573.622          40.000  
R 8  20933893.158   112100117.220       -3611.516          44.000  
R20  21366393.791   114255838.025         102.260          40.000  
R21  21541437.824   115272807.211        3191.124          46.000  
R10  21039818.095   112154190.583       -1526.495          45.000  
R 7  24160645.414                1      -4573.968          19.000  
S20  37782272.768   198547307.961        -211.005          40.000  
> 2017 11 25 12 43 45.5989999  0 21                     
G 5  23533395.787   123668863.537       -2571.710          47.000  
G11  25227960.187   132573927.9012      -1154.401          34.000  
G13  20769471.260   109144432.807        1333.154          46.000  
R12  23797546.096   127122226.4672       1747.306          36.000  
G17  20897504.066   109817273.357        1916.926          51.000  
G19  22102009.708   116146921.611        2521.573          42.000  
G20  24354618.320   127984503.087        -926.495          43.000  
G28  20338541.867   106879880.448       -2324.988          45.000  
G30  21803703.611   114579347.904       -1720.348          46.000  
R 2  23758487.507                1       2994.791          27.000  
S38  39290742.357   206474297.747        -280.753          44.000  
R11  20789210.946   111091382.818         539.267          47.000  
R 1  20611882.057   110182464.708        -344.067          48.000  
G15  23185570.997   121841057.439        2693.520          45.000  
G 7  24067406.443   126475082.498       -2573.497          41.000  
R 8  20934028.014   112100839.590       -3611.502          45.000  
R20  21366390.092   114255817.619         101.913          40.000  
R21  21541318.534   115272169.089        3190.735          46.000  
R10  21039875.437   112154495.903       -1526.368          45.000  
R 7  24160811.854                1      -4568.748          20.000  
S20  37782280.900   198547350.212        -211.144          40.000  
> 2017 11 25 12 43 45.7989999  0 21                     
G 5  23533493.683   123669377.900       -2571.887          48.000  
G11  25228005.592   132574158.7842      -1154.425          35.000  
G13  20769420.410   109144166.177        1333.145          46.000  
R12  23797481.460   127121877.0442       1746.600          36.000  
G17  20897431.019   109816889.908        1917.313          51.000  
G19  22101913.592   116146417.258        2521.771          42.000  
G20  24354653.535   127984688.438        -926.800          44.000  
G28  20338630.200   106880345.438       -2324.748          46.000  
G30  21803768.944   114579691.870       -1719.605          47.000  
R 2  23758371.219                1       2994.031          27.000  
S38  39290753.001   206474353.933        -281.136          44.000  
R11  20789190.704   111091275.009         539.106          48.000  
R 1  20611894.970   110182533.585        -344.519          48.000  
G15  23185468.495   121840518.768        2693.229          45.000  
G 7  24067504.339   126475597.121       -2572.537          41.000  
R 8  20934162.974   112101561.944       -3611.794          45.000  
R20  21366386.323   114255797.131         102.666          40.000  
R21  21541199.105   115271530.843        3191.373          46.000  
R10  21039932.743   112154801.180       -1526.202          45.000  
R 7  24160982.378                1      -4580.312          21.000  
S20  37782289.031   198547392.329        -210.373          40.000  
> 2017 11 25 12 43 45.9989999  0 21                     
G 5  23533591.474   123669892.210       -2571.570          48.000  
G11  25228050.404   132574389.6202      -1154.480          35.000  
G13  20769369.525   109143899.504        1333.301          46.000  
R12  23797415.044   127121527.4912       1747.494          36.000  
G17  20897358.008   109816506.452        1917.218          51.000  
G19  22101817.407   116145912.884        2521.880          43.000  
G20  24354688.854   127984873.742        -926.720          44.000  
G28  20338718.778   106880810.388       -2324.911          46.000  
G30  21803834.417   114580035.834       -1719.986          47.000  
R 2  23758261.247                1       2994.637          27.000  
S38  39290763.716   206474410.048        -280.761          44.000  
R11  20789170.532   111091167.120         539.589          49.000  
R 1  20611907.743   110182602.412        -344.281          48.000  
G15  23185365.992   121839980.022        2693.682          45.000  
G 7  24067602.479   126476111.745       -2573.145          42.000  
R 8  20934297.759   112102284.244       -3611.479          45.000  
R20  21366382.519   114255776.668         102.220          41.000  
R21  21541079.850   115270892.607        3191.288          46.000  
R10  21039989.910   112155106.404       -1526.289          45.000  
R 7  24161152.832                1      -4577.456          22.000  
S20  37782297.163   198547434.433        -210.511          40.000  
> 2017 11 25 12 43 46.3989999  0 21                     
G 5  23533787.370   123670920.926       -2571.826          48.000  
G11  25228137.062   132574851.2012      -1153.770          36.000  
G13  20769267.930   109143366.255        1333.155          46.000  
R12  23797282.388   127120828.5442       1747.522          36.000  
G17  20897211.949   109815739.476        1917.604          51.000  
G19  22101625.140   116144904.096        2522.037          42.000  
G20  24354759.388   127985244.482        -927.021          43.000  
G28  20338895.758   106881740.196       -2324.382          46.000  
G30  21803964.910   114580723.557       -1718.875          47.000  
R 2  23758052.194   126777518.1383       2993.447          32.000  
S38  39290785.214   206474522.424        -280.889          44.000  
R11  20789130.152   111090951.367         539.249          49.000  
R 1  20611933.640   110182740.217        -344.684          48.000  
G15  23185161.092   121838902.631        2693.598          44.000  
G 7  24067798.619   126477140.756       -2572.054          43.000  
R 8  20934567.539   112103728.926       -3611.635          45.000  
R20  21366374.980   114255735.612         102.651          42.000  
R21  21540841.340   115269616.028        3191.667          46.000  
R10  21040104.419   112155716.707       -1525.518          45.000  
R 7  24161493.181                1      -4573.315          30.000  
S20  37782313.322   198547518.459        -209.824          41.000  
> 2017 11 25 12 43 46.5989999  0 21                     
G 5  23533885.370   123671435.298       -2572.125          48.000  
G11  25228181.246   132575081.9332      -1153.630          36.000  
G13  20769217.115   109143099.638        1332.672          46.000  
R12  23797217.578   127120479.0892       1746.517          36.000  
G17  20897138.973   109815355.939        1917.538          51.000  
G19  22101528.990   116144399.643        2522.475          43.000  
G20  24354794.777   127985429.891        -927.279          43.000  
G28  20338984.230   106882205.022       -2324.313          46.000  
G30  21804030.523   114581067.315       -1718.857          47.000  
R 2  23757946.271   126776919.1863       2994.690          32.000  
S38  39290796.068   206474578.615        -281.109          44.000  
R11  20789110.014   111090843.464         539.288          49.000  
R 1  20611946.553   110182809.181        -345.123          48.000  
G15  23185058.694   121838363.933        2693.376          44.000  
G 7  24067896.515   126477655.148       -2571.497          43.000  
R 8  20934702.465   112104451.278       -3612.062          45.000  
R20  21366371.071   114255715.014         102.929          43.000  
R21  21540722.016   115268977.631        3192.081          45.000  
R10  21040161.655   112156021.770       -1525.603          45.000  
R 7  24161662.902                1      -4573.169          31.000  
S20  37782321.349   198547560.373        -209.273          41.000  
> 2017 11 25 12 43 46.7989999  0 21                     
G 5  23533983.406   123671949.698       -2571.820          49.000  
G11  25228222.359   132575312.5032      -1151.940          36.000  
G13  20769166.579   109142833.019        1333.379          46.000  
R12  23797151.616   127120129.7682       1745.995          36.000  
G17  20897066.031   109814972.380        1918.097          51.000  
G19  22101433.153   116143895.186        2522.931          44.000  
G20  24354830.061   127985615.357        -927.302          44.000  
G28  20339072.773   106882669.807       -2323.600          46.000  
G30  21804095.996   114581411.004       -1718.034          48.000  
R 2  23757830.332   126776320.4333       2992.670          31.000  
S38  39290806.957   206474634.856        -281.056          45.000  
R11  20789089.702   111090735.584         539.669          49.000  
R 1  20611959.536   110182878.202        -345.081          48.000  
G15  23184956.226   121837825.294        2693.392          44.000  
G 7  24067994.306   126478169.434       -2570.884          43.000  
R 8  20934837.145   112105173.678       -3611.782          44.000  
R20  21366367.162   114255694.329         103.612          42.000  
R21  21540602.656   115268339.164        3192.702          45.000  
R10  21040218.857   112156326.755       -1524.454          45.000  
R 7  24161830.040                1      -4572.978          31.000  
S20  37782329.132   198547602.199        -208.621          40.000  
> 2017 11 25 12 43 46.9989999  0 21                     
G 5  23534081.476   123672464.098       -2572.095          49.000  
G11  25228266.194   132575543.1262      -1152.966          36.000  
G13  20769115.939   109142566.430        1332.970          46.000  
R12  23797088.970   127119780.2212       1747.571          38.000  
G17  20896993.054   109814588.815        1918.043          51.000  
G19  22101337.351   116143390.704        2522.477          44.000  
G20  24354865.346   127985800.854        -927.397          44.000  
G28  20339161.176   106883134.606       -2323.647          46.000  
G30  21804161.434   114581754.658       -1717.746          48.000  
R 2  23757717.394   126775721.5463       2994.453          31.000  
S38  39290817.846   206474691.133        -281.280          45.000  
R11  20789069.460   111090627.698         539.337          49.000  
R 1  20611972.414   110182947.239        -345.227          48.000  
G15  23184853.758   121837286.633        2693.409          45.000  
G 7  24068092.132   126478683.674       -2570.554          43.000  
R 8  20934971.931   112105896.062       -3611.791          44.000  
R20  21366363.288   114255673.660         103.871          42.000  
R21  21540483.402   115267700.726        3192.465          46.000  
R10  21040276.094   112156631.734       -1524.609          45.000  
R 7  24162003.076                1      -4571.243          30.000  
S20  37782336.985   198547643.986        -208.611          40.000  
> 2017 11 25 12 43 47.1989999  0 21                     
G 5  23534179.407   123672978.603       -2572.351          49.000  
G11  25228310.063   132575773.6032      -1152.608          36.000  
G13  20769065.368   109142299.869        1332.926          46.000  
R12  23797024.858   127119431.0132       1746.025          36.000  
G17  20896919.903   109814205.211        1917.758          51.000  
G19  22101241.584   116142886.221        2522.011          45.000  
G20  24354900.909   127985986.423        -928.161          45.000  
G28  20339249.613   106883599.377       -2323.890          46.000  
G30  21804226.943   114582098.206       -1718.013          48.000  
R 2  23757613.530   126775122.6702       2992.774          31.000  
S38  39290828.596   206474747.471        -281.967          45.000  
R11  20789049.357   111090519.871         539.101          50.000  
R 1  20611985.327   110183016.408        -346.094          48.000  
G15  23184751.395   121836748.065        2692.500          45.000  
G 7  24068189.888   126479197.812       -2571.321          42.000  
R 8  20935106.891   112106618.521       -3612.663          45.000  
R20  21366359.310   114255652.929         103.185          42.000  
R21  21540363.902   115267062.218        3192.379          46.000  
R10  21040333.365   112156936.623       -1524.889          45.000  
R 7  24162172.204                1      -4574.448          23.000  
S20  37782344.942   198547685.744        -208.927          40.000  
> 2017 11 25 12 43 47.3989999  0 21                     
G 5  23534277.547   123673493.118       -2573.102          48.000  
G11  25228354.631   132576004.1962      -1152.105          36.000  
G13  20769014.623   109142033.362        1332.672          46.000  
R12  23796958.477   127119081.6752       1744.607          36.000  
G17  20896846.926   109813821.641        1918.184          51.000  
G19  22101145.573   116142381.734        2522.762          44.000  
G20  24354936.298   127986172.075        -928.618          44.000  
G28  20339338.016   106884064.160       -2323.785          46.000  
G30  21804292.520   114582441.807       -1717.637          48.000  
R 2  23757502.267   126774524.1833       2992.852          31.000  
S38  39290839.240   206474803.831        -281.910          44.000  
R11  20789029.150   111090412.037         539.046          49.000  
R 1  20611998.450   110183085.607        -346.149          48.000  
G15  23184648.963   121836209.536        2692.478          45.000  
G 7  24068287.714   126479711.984       -2569.817          42.000  
R 8  20935241.572   112107341.022       -3612.312          45.000  
R20  21366355.436   114255632.251         103.993          43.000  
R21  21540244.403   115266423.694        3193.005          46.000  
R10  21040390.532   112157241.558       -1524.235          46.000  
R 7  24162343.181                1      -4571.616          22.000  
S20  37782352.829   198547727.431        -208.481          40.000  
> 2017 11 25 12 43 47.5989999  0 21                     
G 5  23534375.512   123674007.627       -2571.997          49.000  
G11  25228397.908   132576234.6312      -1152.631          36.000  
G13  20768963.878   109141766.812        1332.844          46.000  
R12  23796894.120   127118732.3182       1748.518          33.000  
G17  20896773.949   109813438.031        1918.020          51.000  
G19  22101049.632   116141877.224        2522.773          44.000  
G20  24354971.513   127986357.739        -928.027          44.000  
G28  20339426.349   106884528.888       -2323.363          46.000  
G30  21804357.889   114582785.310       -1717.237          47.000  
R 2  23757386.747                1       2992.294          31.000  
S38  39290849.920   206474860.229        -281.195          44.000  
R11  20789008.908   111090304.193         540.025          49.000  
R 1  20612011.328   110183154.858        -345.984          48.000  
G15  23184546.634   121835671.014        2693.156          45.000  
G 7  24068385.540   126480226.045       -2570.992          43.000  
R 8  20935376.497   112108063.569       -3612.578          45.000  
R20  21366351.597   114255611.467         103.823          42.000  
R21  21540125.009   115265785.156        3193.175          46.000  
R10  21040447.595   112157546.383       -1524.089          45.000  
R 7  24162517.334                1      -4571.056          23.000  
S20  37782360.717   198547769.079        -207.412          40.000  
> 2017 11 25 12 43 47.7989999  0 21                     
G 5  23534473.478   123674522.214       -2572.754          48.000  
G11  25228442.790   132576465.0642      -1151.966          36.000  
G13  20768913.237   109141500.364        1332.505          46.000  
R12  23796828.577   127118383.2552       1746.543          33.000  
G17  20896701.042   109813054.425        1918.288          51.000  
G19  22100953.865   116141372.716        2522.523          44.000  
G20  24355006.902   127986543.474        -928.337          45.000  
G28  20339514.787   106884993.619       -2323.776          45.000  
G30  21804423.223   114583128.803       -1717.294          48.000  
R 2  23757277.334                1       2994.979          31.000  
S38  39290860.460   206474916.692        -282.261          44.000  
R11  20788988.561   111090196.436         538.289          48.000  
R 1  20612024.381   110183224.184        -347.284          48.000  
G15  23184444.446   121835132.580        2691.812          45.000  
G 7  24068483.331   126480739.984       -2569.459          41.000  
R 8  20935511.282   112108786.096       -3613.034          45.000  
R20  21366347.653   114255590.698         104.525          42.000  
R21  21540005.615   115265146.584        3192.765          46.000  
R10  21040504.761   112157851.201       -1523.607          45.000  
R 7  24162688.695                1      -4569.859          30.000  
S20  37782368.709   198547810.739        -208.388          42.000  
> 2017 11 25 12 43 47.9989999  0 21                     
G 5  23534571.303   123675036.791       -2572.803          48.000  
G11  25228487.811   132576695.4842      -1152.074          37.000  
G13  20768862.701   109141233.931        1331.701          45.000  
R12  23796763.209   127118034.0732       1747.181          36.000  
G17  20896628.135   109812670.813        1918.161          51.000  
G19  22100857.994   116140868.208        2522.543          44.000  
G20  24355042.186   127986729.250        -928.877          45.000  
G28  20339603.120   106885458.384       -2323.767          45.000  
G30  21804488.452   114583472.272       -1717.755          48.000  
R 2  23757164.047                1       2991.695          31.000  
S38  39290871.104   206474973.112        -281.929          44.000  
R11  20788968.423   111090088.626         538.918          49.000  
R 1  20612037.433   110183293.544        -346.857          48.000  
G15  23184342.153   121834594.084        2692.060          45.000  
G 7  24068581.261   126481253.995       -2569.974          41.000  
R 8  20935646.102   112109508.658       -3612.469          45.000  
R20  21366343.814   114255569.977         103.626          42.000  
R21  21539886.360   115264507.958        3193.003          46.000  
R10  21040561.859   112158156.002       -1524.147          44.000  
R 7  24162860.440                1      -4572.463          30.000  
S20  37782376.701   198547852.286        -207.980          40.000  
> 2017 11 25 12 43 48.3989999  0 21                     
G 5  23534767.060   123676066.103       -2573.346          48.000  
G11  25228576.563   132577156.3532      -1152.050          38.000  
G13  20768761.281   109140701.153        1332.028          46.000  
R12  23796633.275   127117335.967        1744.192          33.000  
G17  20896482.112   109811903.696        1917.547          51.000  
G19  22100666.425   116139859.276        2521.915          44.000  
G20  24355112.929   127987100.958        -929.142          45.000  
G28  20339779.960   106886387.943       -2324.044          46.000  
G30  21804619.119   114584159.180       -1717.511          48.000  
R 2  23756941.766                1       2992.105          31.000  
S38  39290892.568   206475086.155        -283.121          44.000  
R11  20788928.078   111089873.217         538.485          49.000  
R 1  20612063.330   110183432.520        -347.498          48.000  
G15  23184137.532   121833517.229        2692.287          46.000  
G 7  24068776.739   126482281.937       -2569.912          41.000  
R 8  20935916.267   112110953.993       -3613.428          45.000  
R20  21366336.171   114255528.510         103.574          42.000  
R21  21539647.676   115263230.767        3193.290          46.000  
R10  21040676.157   112158765.651       -1523.812          43.000  
R 7  24163205.815                1      -4575.230          23.000  
S20  37782392.476   198547935.537        -207.872          40.000  
> 2017 11 25 12 43 48.5989999  0 21                     
G 5  23534864.921   123676580.757       -2573.718          48.000  
G11  25228620.293   132577386.8612      -1152.328          38.000  
G13  20768710.466   109140434.845        1331.574          46.000  
R12  23796568.465   127116986.842        1744.988          36.000  
G17  20896409.205   109811520.178        1917.492          51.000  
G19  22100570.658   116139354.836        2521.818          44.000  
G20  24355148.423   127987286.837        -929.760          45.000  
G28  20339868.014   106886852.781       -2323.899          44.000  
G30  21804684.557   114584502.655       -1717.144          47.000  
R 2  23756831.656   126770932.0333       2994.957          31.000  
S38  39290903.317   206475142.637        -282.826          43.000  
R11  20788907.906   111089765.502         538.624          49.000  
R 1  20612076.138   110183502.062        -347.955          47.000  
G15  23184035.134   121832978.915        2691.219          45.000  
G 7  24068874.355   126482795.967       -2570.543          41.000  
R 8  20936051.122   112111676.676       -3614.061          44.000  
R20  21366332.367   114255507.883         102.839          42.000  
R21  21539528.561   115262592.258        3192.569          46.000  
R10  21040733.394   112159070.501       -1525.141          43.000  
R 7  24163375.187                1      -4569.347          24.000  
S20  37782400.224   198547977.185        -208.492          40.000  
> 2017 11 25 12 43 48.7989999  0 21                     
G 5  23534962.991   123677095.398       -2573.370          48.000  
G11  25228664.442   132577617.3462      -1152.497          38.000  
G13  20768659.651   109140168.486        1331.430          46.000  
R12  23796503.375   127116637.684        1744.834          36.000  
G17  20896336.298   109811136.722        1917.170          51.000  
G19  22100474.578   116138850.376        2522.367          44.000  
G20  24355183.742   127987472.693        -929.152          45.000  
G28  20339956.522   106887317.584       -2324.098          46.000  
G30  21804749.786   114584846.181       -1717.889          48.000  
R 2  23756719.346   126770333.5063       2995.266          32.000  
S38  39290914.032   206475199.106        -282.297          44.000  
R11  20788887.664   111089657.754         538.537          49.000  
R 1  20612089.261   110183571.604        -347.717          47.000  
G15  23183932.736   121832440.528        2692.091          46.000  
G 7  24068972.042   126483309.886       -2569.681          40.000  
R 8  20936186.152   112112399.336       -3613.710          46.000  
R20  21366328.632   114255487.272         102.817          42.000  
R21  21539409.271   115261953.715        3192.668          46.000  
R10  21040790.491   112159375.306       -1523.654          41.000  
R 7  24163543.512                1      -4571.484          23.000  
S20  37782408.216   198548018.842        -208.365          40.000  
> 2017 11 25 12 43 48.9989999  0 21                     
G 5  23535060.992   123677609.974       -2572.424          49.000  
G11  25228709.150   132577847.8632      -1152.196          36.000  
G13  20768609.010   109139902.102        1332.312          46.000  
R12  23796437.029   127116288.391        1745.341          36.000  
G17  20896263.076   109810753.228        1917.657          51.000  
G19  22100378.881   116138345.968        2522.281          45.000  
G20  24355219.061   127987658.504        -929.248          45.000  
G28  20340045.134   106887782.417       -2324.443          46.000  
G30  21804815.085   114585189.715       -1717.386          47.000  
R 2  23756605.466   126769735.0233       2991.095          32.000  
S38  39290924.711   206475255.511        -281.982          43.000  
R11  20788867.561   111089549.960         539.363          49.000  
R 1  20612102.104   110183641.100        -347.504          47.000  
G15  23183830.408   121831902.084        2692.419          46.000  
G 7  24069069.937   126483823.964       -2568.662          39.000  
R 8  20936321.007   112113121.981       -3612.491          46.000  
R20  21366324.863   114255466.720         102.720          42.000  
R21  21539290.156   115261315.279        3192.535          46.000  
R10  21040847.728   112159680.196       -1524.203          43.000  
R 7  24163713.163                1      -4568.855          23.000  
S20  37782416.034   198548060.505        -207.989          40.000  
> 2017 11 25 12 43 49.1989999  0 21                     
G 5  23535158.922   123678124.623       -2573.206          49.000  
G11  25228753.334   132578078.4092      -1151.560          38.000  
G13  20768558.335   109139635.816        1331.752          46.000  
R12  23796372.219   127115939.169        1747.304          38.000  
G17  20896190.239   109810369.807        1917.406          51.000  
G19  22100282.974   116137841.548        2522.404          44.000  
G20  24355254.346   127987844.376        -929.209          44.000  
G28  20340133.502   106888247.237       -2323.567          45.000  
G30  21804880.558   114585533.267       -1717.496          48.000  
R 2  23756497.519   126769136.3453       2993.656          31.000  
S38  39290935.496   206475311.956        -282.340          44.000  
R11  20788847.493   111089442.212         539.345          49.000  
R 1  20612114.878   110183710.683        -347.778          47.000  
G15  23183727.975   121831363.710        2691.999          44.000  
G 7  24069167.973   126484338.104       -2571.021          41.000  
R 8  20936456.037   112113844.743       -3613.530          45.000  
R20  21366320.954   114255446.171         103.561          41.000  
R21  21539170.691   115260676.790        3192.232          46.000  
R10  21040904.930   112159985.018       -1524.015          43.000  
R 7  24163885.431                1      -4568.855          22.000  
S20  37782423.957   198548102.150        -207.634          40.000  
> 2017 11 25 12 43 49.3989999  0 21                     
G 5  23535256.853   123678639.210       -2572.961          49.000  
G11  25228797.134   132578308.9942      -1151.777          36.000  
G13  20768507.659   109139369.464        1331.570          46.000  
R12  23796307.619   127115590.019        1747.174          38.000  
G17  20896117.088   109809986.368        1917.431          51.000  
G19  22100186.928   116137337.126        2522.158          44.000  
G20  24355289.665   127988030.209        -929.208          44.000  
G28  20340221.974   106888712.090       -2324.392          46.000  
G30  21804945.822   114585876.784       -1717.466          47.000  
R 2  23756384.407                1       2992.578          27.000  
S38  39290946.140   206475368.323        -281.924          44.000  
R11  20788827.356   111089334.463         538.372          48.000  
R 1  20612127.721   110183780.256        -347.809          47.000  
G15  23183625.577   121830825.307        2691.823          44.000  
G 7  24069265.694   126484852.111       -2571.010          41.000  
R 8  20936590.962   112114567.392       -3613.268          45.000  
R20  21366317.220   114255425.740         101.901          42.000  
R21  21539051.402   115260038.308        3192.901          46.000  
R10  21040961.992   112160289.827       -1524.285          43.000  
R 7  24164055.082                1      -4575.436          23.000  
S20  37782431.949   198548143.851        -208.262          40.000  
> 2017 11 25 12 43 49.5989999  0 20                     
G 5  23535354.783   123679153.864       -2572.778          49.000  
G11  25228841.458   132578539.5252      -1151.832          36.000  
G13  20768456.949   109139103.186        1331.685          45.000  
R12  23796242.076   127115240.869        1745.400          38.000  
G17  20896044.146   109809602.969        1917.092          51.000  
G19  22100091.022   116136832.739        2522.736          44.000  
G20  24355325.019   127988216.156        -929.473          44.000  
G28  20340310.412   106889176.887       -2323.845          45.000  
G30  21805011.086   114586220.268       -1717.250          48.000  
S38  39290956.925   206475424.795        -282.180          43.000  
R11  20788806.904   111089226.698         538.705          48.000  
R 1  20612140.843   110183849.918        -348.096          47.000  
G15  23183523.214   121830286.907        2692.757          44.000  
G 7  24069363.415   126485366.039       -2569.302          41.000  
R 8  20936725.713   112115290.192       -3613.375          45.000  
R20  21366313.311   114255405.183         102.825          41.000  
R21  21538932.182   115259399.835        3192.709          46.000  
R10  21041019.124   112160594.611       -1523.402          44.000  
R 7  24164225.885                1      -4571.668          29.000  
S20  37782439.836   198548185.473        -208.071          40.000  
> 2017 11 25 12 43 49.7989999  0 20                     
G 5  23535452.784   123679668.475       -2572.809          48.000  
G11  25228885.258   132578770.1162      -1153.134          36.000  
G13  20768406.308   109138836.882        1331.283          45.000  
R12  23796176.428   127114891.654        1745.976          38.000  
G17  20895971.344   109809219.521        1917.358          51.000  
G19  22099995.185   116136328.358        2521.415          44.000  
G20  24355360.338   127988402.030        -929.560          44.000  
G28  20340398.885   106889641.728       -2324.219          45.000  
G30  21805076.663   114586563.751       -1717.673          48.000  
S38  39290967.604   206475481.215        -281.567          44.000  
R11  20788786.767   111089118.916         538.834          49.000  
R 1  20612153.722   110183919.584        -348.785          47.000  
G15  23183420.956   121829748.563        2691.781          44.000  
G 7  24069461.241   126485880.053       -2569.575          41.000  
R 8  20936860.847   112116012.910       -3613.848          45.000  
R20  21366309.402   114255384.738         101.895          41.000  
R21  21538812.927   115258761.302        3192.546          46.000  
R10  21041076.256   112160899.404       -1524.136          44.000  
R 7  24164394.454                1      -4571.603          30.000  
S20  37782447.863   198548227.054        -208.289          40.000  
> 2017 11 25 12 43 49.9989999  0 21                     
G 5  23535550.400   123680183.128       -2572.754          48.000  
G11  25228929.058   132579000.6762      -1153.542          36.000  
G13  20768355.738   109138570.595        1331.744          45.000  
R12  23796111.025   127114542.562        1745.128          33.000  
G17  20895898.402   109808836.109        1917.283          51.000  
G19  22099899.000   116135823.917        2522.314          44.000  
G20  24355395.693   127988587.979        -929.275          44.000  
G28  20340487.183   106890106.549       -2324.036          46.000  
G30  21805141.927   114586907.185       -1716.624          48.000  
R 2  23756054.528                1       2991.281          27.000  
S38  39290978.423   206475537.679        -281.630          44.000  
R11  20788766.454   111089011.167         539.232          49.000  
R 1  20612166.460   110183989.258        -347.766          47.000  
G15  23183318.488   121829210.202        2691.822          44.000  
G 7  24069559.067   126486393.990       -2568.906          41.000  
R 8  20936995.737   112116735.660       -3612.989          45.000  
R20  21366305.458   114255364.176         102.752          42.000  
R21  21538693.707   115258122.782        3192.966          46.000  
R10  21041133.493   112161204.138       -1523.589          44.000  
R 7  24164566.478                1      -4570.622          23.000  
S20  37782455.821   198548268.638        -207.298          40.000  
> 2017 11 25 12 43 50.3989999  0 21                     
G 5  23535745.843   123681212.388       -2572.925          48.000  
G11  25229016.588   132579461.8532      -1154.261          33.000  
G13  20768254.107   109138038.110        1330.827          45.000  
R12  23795980.427   127113844.162        1746.252          37.000  
G17  20895752.623   109808069.402        1916.547          51.000  
G19  22099707.047   116134815.172        2521.068          44.000  
G20  24355466.471   127988959.844        -930.308          45.000  
G28  20340664.337   106891036.291       -2324.988          46.000  
G30  21805272.560   114587594.256       -1718.194          47.000  
R 2  23755822.824                1       2990.870          32.000  
S38  39290999.992   206475650.561        -282.079          44.000  
R11  20788726.110   111088795.678         538.011          49.000  
R 1  20612192.706   110184128.801        -349.408          47.000  
G15  23183113.308   121828133.511        2691.037          44.000  
G 7  24069754.439   126487421.999       -2569.973          42.000  
R 8  20937265.518   112118181.203       -3613.926          45.000  
R20  21366297.676   114255323.485         101.034          43.000  
R21  21538455.023   115256845.913        3191.887          46.000  
R10  21041247.862   112161813.780       -1525.176          44.000  
R 7  24164910.841                1      -4567.706          30.000  
S20  37782471.735   198548351.849        -208.185          40.000  
> 2017 11 25 12 43 50.5989999  0 21                     
G 5  23535843.634   123681727.045       -2573.694          47.000  
G11  25229060.667   132579692.5072      -1154.239          36.000  
G13  20768203.397   109137771.906        1331.265          46.000  
R12  23795914.989   127113494.980        1746.941          39.000  
G17  20895679.436   109807686.069        1916.471          51.000  
G19  22099611.036   116134310.812        2522.079          42.000  
G20  24355501.755   127989145.795        -929.908          45.000  
G28  20340752.740   106891501.186       -2324.135          46.000  
G30  21805337.754   114587937.807       -1717.529          47.000  
R 2  23755711.212   126765023.8083       2992.840          38.000  
S38  39291010.497   206475707.032        -282.043          44.000  
R11  20788706.042   111088687.899         538.683          50.000  
R 1  20612205.619   110184198.572        -349.133          47.000  
G15  23183010.701   121827595.135        2692.123          44.000  
G 7  24069852.231   126487936.058       -2570.087          41.000  
R 8  20937400.303   112118904.031       -3614.178          45.000  
R20  21366293.906   114255303.134         101.400          42.000  
R21  21538335.664   115256207.492        3192.107          46.000  
R10  21041305.098   112162118.542       -1523.138          44.000  
R 7  24165082.411                1      -4572.696          29.000  
S20  37782479.658   198548393.508        -208.662          40.000  
> 2017 11 25 12 43 50.7989999  0 21                     
G 5  23535941.564   123682241.734       -2573.273          48.000  
G11  25229104.711   132579923.1502      -1154.083          36.000  
G13  20768152.931   109137505.793        1330.559          45.000  
R12  23795849.655   127113145.894        1745.874          39.000  
G17  20895606.111   109807302.791        1916.528          51.000  
G19  22099515.130   116133806.485        2521.443          44.000  
G20  24355537.179   127989331.845        -929.984          45.000  
G28  20340841.213   106891966.155       -2324.897          46.000  
G30  21805403.157   114588281.337       -1717.836          47.000  
R 2  23755600.857   126764425.5343       2992.075          36.000  
S38  39291021.141   206475763.561        -282.414          44.000  
R11  20788685.974   111088580.254         538.315          50.000  
R 1  20612218.706   110184268.509        -349.384          47.000  
G15  23182908.094   121827056.970        2691.680          41.000  
G 7  24069949.987   126488450.037       -2569.769          41.000  
R 8  20937535.298   112119626.873       -3613.833          45.000  
R20  21366290.102   114255282.806         101.458          42.000  
R21  21538216.304   115255569.058        3192.483          46.000  
R10  21041362.370   112162423.424       -1524.697          44.000  
R 7  24165250.492                1      -4566.235          23.000  
S20  37782487.615   198548435.135        -208.433          40.000  
> 2017 11 25 12 43 50.9989999  0 21                     
G 5  23536039.600   123682756.451       -2573.438          48.000  
G11  25229148.546   132580153.8952      -1154.251          38.000  
G13  20768102.256   109137239.655        1330.735          45.000  
R12  23795784.217   127112796.742        1746.083          39.000  
G17  20895533.273   109806919.571        1916.243          52.000  
G19  22099419.084   116133302.212        2521.320          43.000  
G20  24355572.638   127989517.887        -930.668          45.000  
G28  20340929.720   106892431.100       -2324.603          46.000  
G30  21805468.421   114588624.963       -1717.604          47.000  
R 2  23755489.734   126763827.1862       2990.954          36.000  
S38  39291031.856   206475820.068        -282.161          44.000  
R11  20788665.837   111088472.544         538.759          50.000  
R 1  20612231.759   110184338.426        -350.092          47.000  
G15  23182805.766   121826518.760        2690.805          41.000  
G 7  24070047.813   126488964.184       -2570.795          43.000  
R 8  20937670.328   112120349.801       -3615.064          44.000  
R20  21366286.507   114255262.607         101.512          42.000  
R21  21538096.805   115254930.720        3192.332          46.000  
R10  21041419.467   112162728.283       -1524.012          43.000  
R 7  24165421.504                1      -4569.875          23.000  
S20  37782495.502   198548476.840        -207.746          40.000  
> 2017 11 25 12 43 51.1989999  0 21                     
G 5  23536137.844   123683271.156       -2573.145          49.000  
G11  25229192.451   132580384.6232      -1153.751          37.000  
G13  20768051.720   109136973.585        1330.111          44.000  
R12  23795718.744   127112447.637        1746.525          39.000  
G17  20895460.436   109806536.363        1915.762          51.000  
G19  22099322.759   116132797.942        2521.598          43.000  
G20  24355607.922   127989703.931        -929.661          45.000  
G28  20341018.402   106892896.162       -2325.564          47.000  
G30  21805533.824   114588968.620       -1718.652          48.000  
R 2  23755378.576   126763228.8592       2991.486          35.000  
S38  39291042.605   206475876.573        -281.299          44.000  
R11  20788645.664   111088364.908         538.582          50.000  
R 1  20612244.917   110184408.379        -349.579          46.000  
G15  23182703.333   121825980.532        2691.087          42.000  
G 7  24070145.638   126489478.264       -2570.906          41.000  
R 8  20937805.218   112121072.660       -3613.676          45.000  
R20  21366282.668   114255242.501          99.880          42.000  
R21  21537977.620   115254292.465        3191.318          46.000  
R10  21041476.634   112163033.194       -1524.595          44.000  
R 7  24165592.377                1      -4574.872          24.000  
S20  37782503.425   198548518.604        -209.117          40.000  
> 2017 11 25 12 43 51.3989999  0 21                     
G 5  23536236.019   123683785.874       -2573.383          50.000  
G11  25229236.391   132580615.3882      -1152.610          38.000  
G13  20768001.254   109136707.529        1330.924          45.000  
R12  23795653.235   127112098.533        1745.385          39.000  
G17  20895387.459   109806153.188        1916.111          51.000  
G19  22099226.713   116132293.701        2521.228          44.000  
G20  24355643.241   127989890.056        -930.916          45.000  
G28  20341107.015   106893361.148       -2324.680          46.000  
G30  21805599.367   114589312.221       -1717.875          48.000  
R 2  23755264.347   126762630.5512       2991.849          35.000  
S38  39291053.494   206475933.125        -282.258          45.000  
R11  20788625.527   111088257.269         537.832          50.000  
R 1  20612258.109   110184478.385        -349.933          47.000  
G15  23182600.761   121825442.306        2691.151          42.000  
G 7  24070243.534   126489992.308       -2569.695          42.000  
R 8  20937940.073   112121795.629       -3614.562          45.000  
R20  21366278.864   114255222.315         101.107          41.000  
R21  21537858.400   115253654.113        3191.229          46.000  
R10  21041533.766   112163338.093       -1524.510          44.000  
R 7  24165764.052                1      -4579.497          24.000  
S20  37782511.243   198548560.230        -208.395          40.000  
> 2017 11 25 12 43 51.5989999  0 21                     
G 5  23536333.985   123684300.642       -2573.718          47.000  
G11  25229280.226   132580846.1482      -1153.438          38.000  
G13  20767950.648   109136441.474        1330.073          45.000  
R12  23795587.902   127111749.359        1746.799          40.000  
G17  20895314.483   109805770.013        1915.823          51.000  
G19  22099130.771   116131789.462        2521.088          44.000  
G20  24355678.595   127990076.150        -930.361          45.000  
G28  20341195.417   106893826.196       -2325.176          46.000  
G30  21805664.806   114589655.816       -1718.547          47.000  
R 2  23755151.758   126762032.2992       2992.141          35.000  
S38  39291064.139   206475989.654        -282.278          44.000  
R11  20788605.633   111088149.607         538.730          50.000  
R 1  20612271.057   110184548.428        -349.493          47.000  
G15  23182498.293   121824904.109        2690.380          41.000  
G 7  24070341.500   126490506.434       -2569.974          43.000  
R 8  20938074.963   112122518.569       -3614.840          45.000  
R20  21366275.235   114255202.224         100.526          42.000  
R21  21537739.006   115253015.773        3191.583          46.000  
R10  21041590.968   112163642.945       -1524.015          43.000  
R 7  24165938.379                1      -4575.377          24.000  
S20  37782519.095   198548601.898        -207.982          41.000  
