     3.01           OBSERVATION DATA    M: Mixed            RINEX VERSION / TYPE
CONVBIN 2.4.3 Emlid                     20171115 194640 UTC PGM / RUN BY / DATE 
log: /home/reach/logs/ref_201711151841.rtcm3                COMMENT             
format: RTCM 3, station ID: 0                               COMMENT             
                                                            MARKER NAME         
                                                            MARKER NUMBER       
                                                            MARKER TYPE         
                                                            OBSERVER / AGENCY   
                    TRIMBLE NETR8       4.85,12/FEB/2014    REC # / TYPE / VERS 
4951353663          TRM59800.00     NONE                    ANT # / TYPE        
  3467519.4064 -4300378.5382 -3177517.7346                  APPROX POSITION XYZ 
        0.0069        0.0000        0.0000                  ANTENNA: DELTA H/E/N
G   16 C1C L1C D1C S1C C1W L1W D1W S1W C2W L2W D2W S2W C2X  SYS / # / OBS TYPES 
       L2X D2X S2X                                          SYS / # / OBS TYPES 
R   16 C1C L1C D1C S1C C1P L1P D1P S1P C2C L2C D2C S2C C2P  SYS / # / OBS TYPES 
       L2P D2P S2P                                          SYS / # / OBS TYPES 
E    4 C1X L1X D1X S1X                                      SYS / # / OBS TYPES 
J    8 C1C L1C D1C S1C C2X L2X D2X S2X                      SYS / # / OBS TYPES 
S    4 C1C L1C D1C S1C                                      SYS / # / OBS TYPES 
C    4 C1I L1I D1I S1I                                      SYS / # / OBS TYPES 
  2017    11    15    18    41   46.0000000     GPS         TIME OF FIRST OBS   
  2017    11    15    18    44   19.0000000     GPS         TIME OF LAST OBS    
                                                            END OF HEADER       
> 2017 11 15 18 41 46.0000000  0 13                     
G29  21492930.758   112946207.764                          49.750                                                                                                                                    21492941.978    88010058.458                          47.250  
G12  20558623.204   108036352.963                          53.250                                                                                                                                    20558632.344    84184187.466                          49.750  
G 2  20773791.742   109167075.066                          48.250                                                                    20773798.122    85065339.853                          39.500                                                                  
G20  24504070.738   128769767.143                          35.000                                                                    24504091.978   100340081.297                          16.250                                                                  
G25  21634107.716   113688111.595                          47.750                                                                                                                                    21634120.336    88588165.874                          48.000  
G 5  23693599.022   124510772.080                          42.500                                                                                                                                    23693612.222    97021399.979                          41.000  
G24  21916450.714   115171732.127                          43.250                                                                                                                                    21916465.974    89744207.943                          47.250  
G 6  24038297.700   126322183.646                          41.750                                                                                                                                    24038311.600    98432889.558                          38.750  
R22  20465244.684   109244965.023                          53.250                                                                                                                                    20465252.304    84968330.814                          48.250  
R12  21601555.256   115391669.189                          47.000                                                                                                1                                                                                                 
R11  19166773.596   102421513.022                          54.500                                                                                                                                    19166780.756    79661197.867                          49.500  
R21  20132757.748   107734584.519                          53.750                                                                                                                                    20132764.208    83793598.528                          48.500  
R10  21177161.880   112886189.987                          49.750                                                                                                                                    21177173.260    87800376.797                          40.250  
> 2017 11 15 18 41 47.0000000  0 13                     
G29  21492721.658   112945106.855                          49.750                                                                                                                                    21492732.698    88009200.615                          47.500  
G12  20558581.244   108036132.459                          53.000                                                                                                                                    20558590.984    84184015.643                          49.750  
G 2  20774173.482   109169081.110                          49.000                                                                    20774180.282    85066903.002                          39.500                                                                  
G20  24503529.798   128766923.641                          34.750                                                                    24503550.278   100337865.576                          15.500                                                                  
G25  21633706.556   113686003.782                          47.000                                                                                                                                    21633719.336    88586523.420                          48.000  
G 5  23693196.502   124508659.716                          42.500                                                                                                                                    23693210.222    97019753.979                          40.750  
G24  21917017.334   115174710.234                          43.500                                                                                                                                    21917032.654    89746528.545                          47.250  
G 6  24038933.020   126325519.228                          42.250                                                                                                                                    24038946.520    98435488.710                          39.000  
R22  20465008.624   109243704.318                          53.000                                                                                                                                    20465015.904    84967350.265                          48.000  
R12  21600875.556   115388036.235                          47.250                                                                                                1                                                                                                 
R11  19166708.856   102421164.605                          54.000                                                                                                                                    19166715.896    79660926.878                          49.250  
R21  20133165.168   107736763.780                          53.750                                                                                                                                    20133172.088    83795293.508                          48.250  
R10  21177786.940   112889519.960                          49.500                                                                                                                                    21177798.440    87802966.778                          40.500  
> 2017 11 15 18 41 48.0000000  0 13                     
G29  21492512.198   112944006.209                          50.000                                                                                                                                    21492523.578    88008342.971                          47.250  
G12  20558539.664   108035912.341                          52.750                                                                                                                                    20558548.804    84183844.120                          50.000  
G 2  20774555.102   109171087.764                          49.000                                                                    20774561.682    85068466.634                          40.000                                                                  
G20  24502988.558   128764080.020                          35.250                                                                    24503009.078   100335649.783                          16.250                                                                  
G25  21633305.596   113683896.211                          46.500                                                                                                                                    21633317.616    88584881.159                          48.000  
G 5  23692794.582   124506547.601                          43.000                                                                                                                                    23692808.382    97018108.173                          41.250  
G24  21917584.274   115177688.739                          43.500                                                                                                                                    21917599.574    89748849.451                          47.500  
G 6  24039567.540   126328855.072                          42.000                                                                                                                                    24039581.400    98438088.077                          38.500  
R22  20464772.364   109242444.176                          53.000                                                                                                                                    20464780.244    84966370.157                          48.000  
R12  21600196.076   115384403.661                          47.500                                                                                                1                                                                                                 
R11  19166643.436   102420817.083                          53.750                                                                                                                                    19166650.136    79660656.579                          49.250  
R21  20133572.628   107738943.373                          53.750                                                                                                                                    20133578.388    83796988.749                          48.500  
R10  21178411.820   112892850.482                          49.500                                                                                                                                    21178423.200    87805557.176                          40.250  
> 2017 11 15 18 41 49.0000000  0 13                     
G29  21492302.478   112942905.933                          50.500                                                                                                                                    21492313.738    88007485.619                          47.250  
G12  20558497.784   108035692.667                          52.500                                                                                                                                    20558506.544    84183672.948                          50.500  
G 2  20774937.082   109173095.093                          48.500                                                                    20774943.662    85070030.787                          39.750                                                                  
G20  24502448.478   128761236.342                          35.500                                                                    24502468.478   100333433.929                          15.500                                                                  
G25  21632904.536   113681788.905                          47.000                                                                                                                                    21632916.676    88583239.106                          48.000  
G 5  23692392.482   124504435.737                          43.000                                                                                                                                    23692406.502    97016462.570                          41.000  
G24  21918151.514   115180667.684                          44.250                                                                                                                                    21918166.354    89751170.703                          47.500  
G 6  24040202.520   126332191.197                          41.500                                                                                                                                    24040216.200    98440687.653                          38.500  
R22  20464536.244   109241184.673                          53.000                                                                                                                                    20464544.224    84965390.547                          48.000  
R12  21599514.816   115380771.525                          47.000                                                                                                1                                                                                                 
R11  19166577.916   102420470.507                          53.750                                                                                                                                    19166585.896    79660387.020                          49.500  
R21  20133980.428   107741123.356                          54.000                                                                                                                                    20133986.308    83798684.290                          48.250  
R10  21179036.620   112896181.644                          49.750                                                                                                                                    21179047.780    87808148.074                          40.750  
> 2017 11 15 18 41 50.0000000  0 13                     
G29  21492093.378   112941805.954                          50.500                                                                                                                                    21492104.998    88006628.497                          47.500  
G12  20558455.944   108035473.385                          52.500                                                                                                                                    20558465.044    84183502.077                          50.250  
G 2  20775319.462   109175103.066                          49.000                                                                    20775325.502    85071595.441                          40.000                                                                  
G20  24501906.118   128758392.582                          35.500                                                                    24501927.458   100331218.008                          15.500                                                                  
G25  21632503.476   113679681.814                          47.500                                                                                                                                    21632515.616    88581597.218                          48.000  
G 5  23691990.322   124502324.121                          42.500                                                                                                                                    23692004.242    97014817.166                          40.750  
G24  21918718.174   115183647.029                          44.250                                                                                                                                    21918733.014    89753492.266                          47.500  
G 6  24040836.940   126335527.529                          41.500                                                                                                                                    24040850.720    98443287.395                          38.500  
R22  20464300.444   109239925.753                          52.750                                                                                                                                    20464308.544    84964411.392                          47.750  
R12  21598835.876   115377139.846                          46.750                                                                                                1                                                                                                 
R11  19166514.136   102420124.839                          53.750                                                                                                                                    19166520.956    79660118.165                          49.500  
R21  20134387.508   107743303.703                          53.750                                                                                                                                    20134392.788    83800380.113                          48.000  
R10  21179662.160   112899513.398                          49.750                                                                                                                                    21179672.960    87810739.430                          40.500  
> 2017 11 15 18 41 51.0000000  0 13                     
G29  21491883.998   112940705.957                          50.250                                                                                                                                    21491894.858    88005771.360                          47.000  
G12  20558414.324   108035254.224                          52.750                                                                                                                                    20558423.364    84183331.302                          50.250  
G 2  20775701.482   109177111.359                          49.000                                                                    20775708.402    85073160.339                          40.500                                                                  
G20  24501365.878   128755548.399                          35.750                                                                    24501386.178   100329001.789                          16.250                                                                  
G25  21632102.516   113677574.658                          47.500                                                                                                                                    21632114.896    88579955.276                          48.250  
G 5  23691588.502   124500212.475                          42.500                                                                                                                                    23691602.762    97013171.731                          40.500  
G24  21919285.034   115186626.456                          43.750                                                                                                                                    21919299.694    89755813.889                          47.000  
G 6  24041472.120   126338863.865                          42.000                                                                                                                                    24041485.920    98445887.131                          38.250  
R22  20464064.964   109238667.088                          53.000                                                                                                                                    20464072.824    84963432.428                          47.750  
R12  21598156.016   115373508.249                          46.500                                                                                                1                                                                                                 
R11  19166449.396   102419779.698                          54.000                                                                                                                                    19166456.916    79659849.722                          49.250  
R21  20134795.208   107745484.133                          53.500                                                                                                                                    20134800.728    83802076.001                          48.250  
R10  21180285.660   112902845.399                          49.500                                                                                                                                    21180298.440    87813330.978                          40.250  
> 2017 11 15 18 41 52.0000000  0 13                     
G29  21491674.498   112939606.412                          50.000                                                                                                                                    21491685.598    88004914.574                          47.250  
G12  20558372.504   108035035.588                          52.500                                                                                                                                    20558381.604    84183160.934                          50.250  
G 2  20776083.922   109179120.417                          48.500                                                                    20776090.082    85074725.840                          40.000                                                                  
G20  24500823.498   128752704.242                          35.500                                                                    24500844.958   100326785.553                          16.750                                                                  
G25  21631701.116   113675467.849                          47.000                                                                                                                                    21631713.556    88578313.610                          48.500  
G 5  23691186.982   124498101.196                          43.250                                                                                                                                    23691200.762    97011526.587                          40.500  
G24  21919852.294   115189606.389                          43.500                                                                                                                                    21919866.714    89758135.911                          47.000  
G 6  24042107.900   126342200.557                          42.000                                                                                                                                    24042120.800    98448487.159                          38.750  
R22  20463829.184   109237409.167                          53.000                                                                                                                                    20463837.044    84962454.049                          48.000  
R12  21597476.976   115369877.197                          47.000                                                                                                1                                                                                                 
R11  19166384.856   102419435.577                          54.250                                                                                                                                    19166392.256    79659582.075                          49.500  
R21  20135202.448   107747665.072                          53.750                                                                                                                                    20135208.548    83803772.289                          48.250  
R10  21180912.300   112906178.179                          49.500                                                                                                                                    21180923.560    87815923.138                          40.500  
> 2017 11 15 18 41 53.0000000  0 13                     
G29  21491465.698   112938507.056                          49.750                                                                                                                                    21491476.438    88004057.935                          47.250  
G12  20558331.084   108034817.263                          52.750                                                                                                                                    20558340.464    84182990.814                          50.000  
G 2  20776466.122   109181129.995                          48.500                                                                    20776472.522    85076291.751                          40.000                                                                  
G20  24500283.258   128749859.881                          35.750                                                                    24500303.258   100324569.138                          15.500                                                                  
G25  21631300.576   113673361.179                          47.500                                                                                                                                    21631312.776    88576672.047                          48.750  
G 5  23690785.582   124495990.056                          42.500                                                                                                                                    23690799.542    97009881.550                          40.750  
G24  21920419.494   115192586.593                          43.500                                                                                                                                    21920434.734    89760458.140                          47.250  
G 6  24042742.300   126345537.387                          42.250                                                                                                                                    24042755.740    98451087.282                          38.500  
R22  20463593.464   109236151.739                          53.250                                                                                                                                    20463601.204    84961476.052                          48.000  
R12  21596796.336   115366246.434                          46.500                                                                                                1                                                                                                 
R11  19166320.616   102419092.232                          53.750                                                                                                                                    19166327.536    79659315.028                          49.500  
R21  20135610.348   107749846.313                          53.750                                                                                                                                    20135615.748    83805468.806                          48.000  
R10  21181536.760   112909511.428                          49.500                                                                                                                                    21181548.260    87818515.652                          40.750  
> 2017 11 15 18 41 54.0000000  0 13                     
G29  21491256.658   112937407.918                          50.000                                                                                                                                    21491267.678    88003201.462                          47.500  
G12  20558289.744   108034599.250                          52.750                                                                                                                                    20558298.364    84182820.932                          50.000  
G 2  20776848.682   109183140.130                          48.500                                                                    20776855.542    85077858.089                          39.750                                                                  
G20  24499740.838   128747015.409                          35.750                                                                    24499762.238   100322352.650                          16.250                                                                  
G25  21630899.496   113671254.661                          48.250                                                                                                                                    21630911.816    88575030.606                          49.000  
G 5  23690383.962   124493879.080                          43.000                                                                                                                                    23690398.322    97008236.639                          41.000  
G24  21920986.994   115195567.121                          43.250                                                                                                                                    21921001.594    89762780.629                          47.000  
G 6  24043377.280   126348874.397                          41.750                                                                                                                                    24043391.480    98453687.552                          38.500  
R22  20463358.424   109234894.825                          53.500                                                                                                                                    20463366.404    84960498.456                          48.000  
R12  21596115.996   115362615.972                          46.500                                                                                                1                                                                                                 
R11  19166256.696   102418749.701                          54.000                                                                                                                                    19166263.156    79659048.613                          49.500  
R21  20136018.008   107752027.811                          53.750                                                                                                                                    20136023.528    83807165.530                          48.000  
R10  21182162.880   112912845.146                          49.500                                                                                                                                    21182174.040    87821108.542                          41.000  
> 2017 11 15 18 41 55.0000000  0 13                     
G29  21491047.198   112936309.003                          49.500                                                                                                                                    21491058.398    88002345.167                          47.000  
G12  20558248.024   108034381.528                          52.750                                                                                                                                    20558257.184    84182651.279                          50.000  
G 2  20777231.402   109185150.817                          48.500                                                                    20777237.562    85079424.862                          40.000                                                                  
G20  24499199.518   128744170.730                          35.250                                                                    24499220.938   100320136.062                          16.250                                                                  
G25  21630498.396   113669148.248                          47.750                                                                                                                                    21630510.896    88573389.252                          48.750  
G 5  23689982.362   124491768.255                          43.000                                                                                                                                    23689996.682    97006591.851                          41.500  
G24  21921553.654   115198547.982                          44.000                                                                                                                                    21921568.914    89765103.372                          47.000  
G 6  24044011.640   126352211.550                          41.750                                                                                                                                    24044025.840    98456287.926                          38.250  
R22  20463122.644   109233638.406                          53.500                                                                                                                                    20463130.264    84959521.242                          48.000  
R12  21595437.416   115358985.869                          46.500                                                                                                1                                                                                                 
R11  19166193.136   102418407.968                          54.000                                                                                                                                    19166199.936    79658782.821                          50.000  
R21  20136425.688   107754209.576                          53.500                                                                                                                                    20136430.268    83808862.461                          48.000  
R10  21182787.440   112916179.370                          49.250                                                                                                                                    21182799.640    87823701.819                          40.750  
> 2017 11 15 18 41 56.0000000  0 13                     
G29  21490838.338   112935210.367                          49.750                                                                                                                                    21490849.558    88001489.089                          47.000  
G12  20558206.964   108034164.204                          52.500                                                                                                                                    20558216.104    84182481.935                          50.000  
G 2  20777613.902   109187162.119                          48.250                                                                    20777620.702    85080992.108                          40.000                                                                  
G20  24498659.398   128741325.937                          35.000                                                                    24498678.738   100317919.353                          16.250                                                                  
G25  21630097.956   113667042.098                          47.750                                                                                                                                    21630110.236    88571748.094                          48.750  
G 5  23689580.262   124489657.660                          43.250                                                                                                                                    23689594.682    97004947.237                          41.000  
G24  21922120.934   115201529.203                          43.000                                                                                                                                    21922136.074    89767426.401                          47.000  
G 6  24044647.180   126355548.936                          41.500                                                                                                                                    24044661.260    98458888.489                          38.750  
R22  20462887.444   109232382.532                          53.500                                                                                                                                    20462894.724    84958544.453                          48.250  
R12  21594756.796   115355356.137                          47.000                                                                                                1                                                                                                 
R11  19166129.256   102418067.086                          54.250                                                                                                                                    19166135.836    79658517.688                          50.000  
R21  20136833.548   107756391.708                          53.500                                                                                                                                    20136838.728    83810559.677                          48.500  
R10  21183413.980   112919514.135                          49.250                                                                                                                                    21183425.000    87826295.520                          40.000  
> 2017 11 15 18 41 57.0000000  0 13                     
G29  21490629.418   112934112.054                          50.000                                                                                                                                    21490640.738    88000633.258                          47.000  
G12  20558165.484   108033947.286                          52.750                                                                                                                                    20558174.744    84182312.909                          50.000  
G 2  20777996.462   109189174.080                          48.750                                                                    20778003.502    85082559.874                          39.750                                                                  
G20  24498118.298   128738481.095                          35.500                                                                    24498138.118   100315702.597                          16.250                                                                  
G25  21629697.276   113664936.172                          48.500                                                                                                                                    21629710.236    88570107.113                          49.000  
G 5  23689179.122   124487547.348                          43.500                                                                                                                                    23689192.962    97003302.846                          40.750  
G24  21922688.434   115204510.860                          43.000                                                                                                                                    21922703.514    89769749.770                          47.000  
G 6  24045282.260   126358886.590                          41.500                                                                                                                                    24045296.100    98461489.265                          38.750  
R22  20462652.464   109231127.283                          54.000                                                                                                                                    20462660.224    84957568.150                          48.000  
R12  21594078.256   115351726.832                          46.750                                                                                                1                                                                                                 
R11  19166065.516   102417727.133                          54.250                                                                                                                                    19166072.196    79658253.285                          50.000  
R21  20137241.108   107758574.257                          53.500                                                                                                                                    20137247.208    83812257.215                          48.500  
R10  21184038.600   112922849.479                          49.000                                                                                                                                    21184051.980    87828889.670                          40.750  
> 2017 11 15 18 41 58.0000000  0 13                     
G29  21490419.898   112933013.920                          49.750                                                                                                                                    21490431.638    87999777.577                          47.000  
G12  20558124.364   108033730.645                          53.000                                                                                                                                    20558133.684    84182144.099                          50.000  
G 2  20778379.662   109191186.540                          48.500                                                                    20778386.722    85084128.021                          39.750                                                                  
G20  24497575.538   128735635.974                          35.500                                                                    24497597.178   100313485.611                          15.500                                                                  
G25  21629296.356   113662830.374                          48.250                                                                                                                                    21629309.556    88568466.229                          48.750  
G 5  23688777.442   124485437.165                          43.750                                                                                                                                    23688791.582    97001658.554                          40.750  
G24  21923255.994   115207492.801                          43.000                                                                                                                                    21923270.834    89772073.359                          47.000  
G 6  24045916.760   126362224.421                          41.250                                                                                                                                    24045931.900    98464090.176                          38.500  
R22  20462417.224   109229872.479                          53.750                                                                                                                                    20462425.104    84956592.192                          48.500  
R12  21593399.396   115348097.850                          47.000                                                                                                1                                                                                                 
R11  19166001.956   102417387.900                          54.250                                                                                                                                    19166008.296    79657989.434                          49.750  
R21  20137649.368   107760757.085                          54.000                                                                                                                                    20137655.128    83813954.968                          48.500  
R10  21184664.140   112926185.292                          49.500                                                                                                                                    21184676.360    87831484.189                          40.500  
> 2017 11 15 18 41 59.0000000  0 13                     
G29  21490211.138   112931915.980                          50.000                                                                                                                                    21490222.398    87998922.042                          47.250  
G12  20558083.324   108033514.284                          53.500                                                                                                                                    20558092.064    84181975.509                          49.750  
G 2  20778762.722   109193199.529                          49.000                                                                    20778769.702    85085696.585                          39.500                                                                  
G20  24497034.898   128732790.638                          35.500                                                                    24497055.138   100311268.489                          16.250                                                                  
G25  21628895.756   113660724.668                          48.250                                                                                                                                    21628908.196    88566825.421                          48.500  
G 5  23688376.102   124483327.084                          43.750                                                                                                                                    23688389.062    97000014.345                          40.500  
G24  21923823.134   115210474.994                          43.000                                                                                                                                    21923838.154    89774397.142                          46.750  
G 6  24046553.140   126365562.291                          41.750                                                                                                                                    24046567.040    98466691.111                          38.500  
R22  20462182.584   109228618.162                          53.750                                                                                                                                    20462189.864    84955616.615                          48.250  
R12  21592718.776   115344469.173                          47.000                                                                                                1                                                                                                 
R11  19165938.596   102417049.400                          54.250                                                                                                                                    19165945.276    79657726.157                          49.750  
R21  20138057.328   107762940.158                          54.000                                                                                                                                    20138063.088    83815652.920                          48.250  
R10  21185290.640   112929521.569                          49.750                                                                                                                                    21185302.860    87834079.056                          40.500  
> 2017 11 15 18 42  0.0000000  0 13                     
G29  21490002.318   112930818.321                          50.000                                                                                                                                    21490013.818    87998066.726                          47.000  
G12  20558042.104   108033298.318                          53.250                                                                                                                                    20558051.204    84181807.221                          50.000  
G 2  20779146.102   109195213.140                          49.000                                                                    20779152.502    85087265.629                          39.500                                                                  
G20  24496493.278   128729945.285                          35.500                                                                    24496513.798   100309051.350                          17.250                                                                  
G25  21628495.056   113658619.209                          47.500                                                                                                                                    21628507.676    88565184.808                          48.750  
G 5  23687974.702   124481217.261                          44.250                                                                                                                                    23687987.782    96998370.336                          40.500  
G24  21924390.834   115213457.603                          43.000                                                                                                                                    21924406.034    89776721.246                          47.000  
G 6  24047188.520   126368900.460                          42.250                                                                                                                                    24047202.600    98469292.280                          38.750  
R22  20461947.024   109227364.404                          53.750                                                                                                                                    20461955.364    84954641.477                          48.500  
R12  21592040.036   115340840.866                          47.500                                                                                                1                                                                                                 
R11  19165875.196   102416711.767                          54.500                                                                                                                                    19165881.536    79657463.551                          49.500  
R21  20138465.528   107765123.572                          53.750                                                                                                                                    20138471.148    83817351.128                          48.250  
R10  21185918.020   112932858.391                          49.500                                                                                                                                    21185928.820    87836674.358                          40.500  
> 2017 11 15 18 42  1.0000000  0 13                     
G29  21489793.158   112929720.836                          50.000                                                                                                                                    21489804.118    87997211.544                          46.750  
G12  20558001.024   108033082.612                          53.000                                                                                                                                    20558009.524    84181639.139                          50.000  
G 2  20779529.302   109197227.262                          49.000                                                                    20779535.922    85088835.074                          39.750                                                                  
G20  24495951.278   128727099.660                          35.500                                                                    24495972.318   100306834.018                          16.250                                                                  
G25  21628094.356   113656513.829                          46.750                                                                                                                                    21628106.976    88563544.256                          48.750  
G 5  23687573.382   124479107.553                          43.500                                                                                                                                    23687586.642    96996726.410                          40.000  
G24  21924958.494   115216440.466                          43.500                                                                                                                                    21924973.514    89779045.549                          47.000  
G 6  24047822.780   126372238.742                          41.250                                                                                                                                    24047837.140    98471893.539                          38.750  
R22  20461713.064   109226111.093                          54.000                                                                                                                                    20461720.224    84953666.685                          48.500  
R12  21591361.716   115337212.870                          46.750                                                                                                1                                                                                                 
R11  19165812.336   102416374.935                          54.250                                                                                                                                    19165818.676    79657201.571                          49.500  
R21  20138873.928   107767307.239                          54.000                                                                                                                                    20138879.428    83819049.535                          48.000  
R10  21186543.060   112936195.686                          49.750                                                                                                                                    21186553.860    87839270.028                          40.250  
> 2017 11 15 18 42  2.0000000  0 13                     
G29  21489584.598   112928623.724                          49.750                                                                                                                                    21489595.338    87996356.654                          47.000  
G12  20557960.104   108032867.376                          53.000                                                                                                                                    20557969.204    84181471.423                          50.000  
G 2  20779912.422   109199242.068                          49.250                                                                    20779919.342    85090405.060                          39.500                                                                  
G20  24495409.738   128724254.016                          35.750                                                                    24495430.978   100304616.609                          16.250                                                                  
G25  21627693.876   113654408.759                          47.000                                                                                                                                    21627706.796    88561903.942                          49.000  
G 5  23687172.142   124476998.148                          43.750                                                                                                                                    23687185.122    96995082.721                          40.750  
G24  21925526.834   115219423.799                          44.250                                                                                                                                    21925541.274    89781370.220                          47.250  
G 6  24048458.580   126375577.335                          41.250                                                                                                                                    24048472.780    98474495.042                          38.500  
R22  20461478.284   109224858.438                          54.000                                                                                                                                    20461485.444    84952692.402                          48.500  
R12  21590682.396   115333585.336                          47.000                                                                                                1                                                                                                 
R11  19165749.576   102416039.073                          53.750                                                                                                                                    19165756.136    79656940.349                          49.250  
R21  20139281.388   107769491.359                          54.250                                                                                                                                    20139287.148    83820748.299                          48.000  
R10  21187169.860   112939533.623                          49.750                                                                                                                                    21187181.120    87841866.197                          40.000  
> 2017 11 15 18 42  3.0000000  0 13                     
G29  21489375.918   112927526.890                          49.500                                                                                                                                    21489386.958    87995501.982                          47.000  
G12  20557919.304   108032652.501                          53.000                                                                                                                                    20557928.344    84181303.991                          50.000  
G 2  20780296.342   109201257.493                          49.000                                                                    20780302.862    85091975.514                          39.750                                                                  
G20  24494869.398   128721408.233                          36.500                                                                    24494889.498   100302399.099                          16.750                                                                  
G25  21627293.236   113652303.889                          48.000                                                                                                                                    21627304.796    88560263.781                          48.750  
G 5  23686770.542   124474888.969                          43.500                                                                                                                                    23686783.682    96993439.211                          40.750  
G24  21926093.814   115222407.488                          43.500                                                                                                                                    21926108.934    89783695.166                          47.000  
G 6  24049093.920   126378916.137                          41.750                                                                                                                                    24049108.000    98477096.708                          38.500  
R22  20461243.744   109223606.343                          53.750                                                                                                                                    20461251.024    84951718.553                          48.000  
R12  21590002.776   115329958.189                          47.000                                                                                                1                                                                                                 
R11  19165686.856   102415704.012                          54.000                                                                                                                                    19165693.316    79656679.744                          49.250  
R21  20139690.028   107771675.803                          53.750                                                                                                                                    20139695.188    83822447.310                          48.000  
R10  21187795.820   112942872.101                          49.750                                                                                                                                    21187807.560    87844462.785                          40.250  
> 2017 11 15 18 42  4.0000000  0 13                     
G29  21489167.218   112926430.157                          49.000                                                                                                                                    21489178.538    87994647.380                          46.750  
G12  20557878.344   108032437.832                          53.250                                                                                                                                    20557887.564    84181136.711                          50.000  
G 2  20780679.762   109203273.327                          48.250                                                                    20780686.382    85093546.294                          39.500                                                                  
G20  24494327.318   128718562.167                          36.500                                                                    24494348.178   100300181.399                          16.750                                                                  
G25  21626892.556   113650199.042                          47.500                                                                                                                                    21626905.036    88558623.645                          48.750  
G 5  23686368.922   124472779.831                          43.000                                                                                                                                    23686382.422    96991795.731                          40.750  
G24  21926661.854   115225391.391                          43.750                                                                                                                                    21926677.054    89786020.284                          47.250  
G 6  24049729.780   126382255.005                          41.500                                                                                                                                    24049743.520    98479698.424                          39.000  
R22  20461009.204   109222354.627                          53.750                                                                                                                                    20461016.484    84950744.994                          48.500  
R12  21589323.476   115326331.253                          46.750                                                                                                1                                                                                                 
R11  19165624.456   102415369.617                          54.000                                                                                                                                    19165631.036    79656419.663                          49.250  
R21  20140098.428   107773860.461                          53.500                                                                                                                                    20140103.948    83824146.488                          48.250  
R10  21188421.400   112946210.966                          50.000                                                                                                                                    21188433.020    87847059.673                          40.000  
> 2017 11 15 18 42  5.0000000  0 13                     
G29  21488958.378   112925333.751                          49.250                                                                                                                                    21488970.218    87993793.043                          46.500  
G12  20557837.804   108032223.587                          53.500                                                                                                                                    20557846.964    84180969.771                          49.750  
G 2  20781063.282   109205289.847                          48.250                                                                    20781069.502    85095117.612                          39.500                                                                  
G20  24493785.858   128715716.031                          37.000                                                                    24493806.018   100297963.625                          17.250                                                                  
G25  21626492.316   113648094.474                          47.250                                                                                                                                    21626504.816    88556983.722                          49.000  
G 5  23685967.602   124470670.985                          43.750                                                                                                                                    23685981.322    96990152.477                          40.750  
G24  21927229.854   115228375.731                          43.750                                                                                                                                    21927245.114    89788345.733                          47.500  
G 6  24050364.920   126385594.163                          41.500                                                                                                                                    24050378.940    98482300.366                          38.750  
R22  20460774.524   109221103.536                          53.500                                                                                                                                    20460782.384    84949771.932                          48.750  
R12  21588644.976   115322704.766                          46.750                                                                                                1                                                                                                 
R11  19165562.176   102415036.155                          54.000                                                                                                                                    19165568.396    79656160.301                          49.500  
R21  20140506.168   107776045.541                          53.750                                                                                                                                    20140511.568    83825845.995                          48.250  
R10  21189049.220   112949550.425                          50.000                                                                                                                                    21189059.780    87849657.026                          40.500  
> 2017 11 15 18 42  6.0000000  0 13                     
G29  21488750.258   112924237.556                          49.750                                                                                                                                    21488761.118    87992938.867                          46.750  
G12  20557797.244   108032009.657                          53.250                                                                                                                                    20557806.164    84180803.074                          50.000  
G 2  20781447.242   109207306.911                          48.250                                                                    20781453.822    85096689.346                          39.500                                                                  
G20  24493243.778   128712869.747                          37.500                                                                    24493264.258   100295745.739                          17.250                                                                  
G25  21626091.736   113645990.032                          47.750                                                                                                                                    21626104.536    88555343.893                          48.750  
G 5  23685566.582   124468562.287                          43.750                                                                                                                                    23685580.142    96988509.343                          41.000  
G24  21927797.634   115231360.373                          43.500                                                                                                                                    21927812.954    89790671.428                          47.000  
G 6  24051000.220   126388933.459                          41.250                                                                                                                                    24051014.360    98484902.409                          38.750  
R22  20460540.004   109219852.939                          53.500                                                                                                                                    20460548.564    84948799.245                          48.750  
R12  21587965.356   115319078.589                          46.250                                                                                                1                                                                                                 
R11  19165499.776   102414703.483                          53.750                                                                                                                                    19165506.356    79655901.556                          49.500  
R21  20140914.728   107778230.884                          53.750                                                                                                                                    20140920.248    83827545.708                          48.000  
R10  21189674.660   112952890.356                          50.000                                                                                                                                    21189686.400    87852254.744                          40.500  
> 2017 11 15 18 42  7.0000000  0 13                     
G29  21488541.578   112923141.595                          50.000                                                                                                                                    21488552.498    87992084.873                          47.000  
G12  20557756.664   108031796.053                          53.000                                                                                                                                    20557765.364    84180636.629                          50.250  
G 2  20781831.262   109209324.532                          48.500                                                                    20781838.122    85098261.521                          39.250                                                                  
G20  24492702.418   128710023.262                          37.500                                                                    24492722.758   100293527.730                          16.250                                                                  
G25  21625691.516   113643885.769                          47.250                                                                                                                                    21625703.496    88553704.211                          49.000  
G 5  23685165.542   124466453.777                          44.500                                                                                                                                    23685179.282    96986866.353                          41.500  
G24  21928365.654   115234345.354                          43.750                                                                                                                                    21928380.794    89792997.379                          47.250  
G 6  24051635.100   126392272.929                          41.500                                                                                                                                    24051649.640    98487504.596                          39.250  
R22  20460306.064   109218602.887                          53.500                                                                                                                                    20460313.684    84947826.984                          48.750  
R12  21587287.236   115315452.748                          46.000                                                                                                1                                                                                                 
R11  19165437.796   102414371.594                          53.750                                                                                                                                    19165444.136    79655643.421                          49.500  
R21  20141323.608   107780416.518                          53.250                                                                                                                                    20141329.008    83829245.644                          48.000  
R10  21190302.340   112956230.809                          50.500                                                                                                                                    21190313.380    87854852.868                          40.250  
> 2017 11 15 18 42  8.0000000  0 13                     
G29  21488333.058   112922045.888                          50.000                                                                                                                                    21488343.578    87991231.074                          46.500  
G12  20557715.864   108031582.775                          53.250                                                                                                                                    20557724.844    84180470.437                          50.250  
G 2  20782215.202   109211342.734                          48.250                                                                    20782221.962    85099834.145                          39.500                                                                  
G20  24492160.298   128707176.686                          38.000                                                                    24492181.418   100291309.633                          16.750                                                                  
G25  21625291.236   113641781.681                          48.000                                                                                                                                    21625303.436    88552064.663                          49.000  
G 5  23684764.882   124464345.460                          43.000                                                                                                                                    23684777.842    96985223.514                          41.000  
G24  21928933.714   115237330.680                          42.500                                                                                                                                    21928948.974    89795323.603                          47.500  
G 6  24052271.140   126395612.601                          41.250                                                                                                                                    24052285.800    98490106.938                          39.250  
R22  20460071.864   109217353.352                          53.750                                                                                                                                    20460080.304    84946855.121                          48.750  
R12  21586608.636   115311827.244                          46.500                                                                                                1                                                                                                 
R11  19165375.416   102414040.544                          53.500                                                                                                                                    19165382.216    79655385.935                          49.500  
R21  20141731.328   107782602.476                          53.000                                                                                                                                    20141737.428    83830945.832                          48.000  
R10  21190928.700   112959571.779                          50.250                                                                                                                                    21190940.200    87857451.394                          40.250  
> 2017 11 15 18 42  9.0000000  0 13                     
G29  21488124.458   112920950.390                          50.750                                                                                                                                    21488135.138    87990377.442                          47.000  
G12  20557675.204   108031369.810                          53.500                                                                                                                                    20557683.884    84180304.491                          50.500  
G 2  20782599.102   109213361.471                          48.750                                                                    20782605.722    85101407.192                          39.250                                                                  
G20  24491618.438   128704329.896                          37.000                                                                    24491639.258   100289091.322                          17.250                                                                  
G25  21624890.896   113639677.728                          48.500                                                                                                                                    21624903.396    88550425.223                          49.000  
G 5  23684363.082   124462237.263                          43.750                                                                                                                                    23684376.222    96983580.776                          41.250  
G24  21929501.754   115240316.294                          43.000                                                                                                                                    21929516.834    89797650.049                          47.500  
G 6  24052907.000   126398952.444                          41.250                                                                                                                                    24052920.980    98492709.407                          39.000  
R22  20459837.804   109216104.300                          53.750                                                                                                                                    20459845.784    84945883.643                          48.500  
R12  21585929.396   115308202.089                          46.500                                                                                                1                                                                                                 
R11  19165313.516   102413710.311                          54.000                                                                                                                                    19165320.676    79655129.088                          49.500  
R21  20142140.748   107784788.739                          53.500                                                                                                                                    20142146.148    83832646.260                          48.000  
R10  21191555.680   112962913.218                          50.250                                                                                                                                    21191567.080    87860050.287                          40.500  
> 2017 11 15 18 42 10.0000000  0 13                     
G29  21487916.378   112919855.209                          50.750                                                                                                                                    21487927.478    87989524.061                          47.000  
G12  20557634.764   108031157.262                          54.000                                                                                                                                    20557644.104    84180138.874                          50.000  
G 2  20782983.362   109215380.847                          48.250                                                                    20782990.522    85102980.725                          39.750                                                                  
G20  24491076.838   128701483.028                          37.250                                                                    24491097.658   100286872.971                          18.250                                                                  
G25  21624490.196   113637574.032                          48.250                                                                                                                                    21624503.276    88548785.985                          49.000  
G 5  23683961.282   124460129.374                          43.000                                                                                                                                    23683975.202    96981938.277                          41.500  
G24  21930070.514   115243302.363                          43.500                                                                                                                                    21930085.654    89799976.848                          47.000  
G 6  24053542.300   126402292.505                          41.250                                                                                                                                    24053557.140    98495312.052                          39.000  
R22  20459604.144   109214855.862                          53.250                                                                                                                                    20459612.124    84944912.642                          48.000  
R12  21585251.196   115304577.381                          46.750                                                                                                1                                                                                                 
R11  19165251.856   102413380.971                          53.750                                                                                                                                    19165258.656    79654872.936                          49.750  
R21  20142548.248   107786975.371                          53.750                                                                                                                                    20142554.228    83834346.974                          48.250  
R10  21192183.160   112966255.254                          50.000                                                                                                                                    21192193.960    87862649.640                          40.000  
> 2017 11 15 18 42 11.0000000  0 13                     
G29  21487707.458   112918760.188                          50.750                                                                                                                                    21487718.598    87988670.802                          46.500  
G12  20557594.444   108030944.969                          54.000                                                                                                                                    20557603.724    84179973.449                          50.250  
G 2  20783368.102   109217400.712                          48.000                                                                    20783374.602    85104554.648                          39.500                                                                  
G20  24490536.138   128698635.881                          37.250                                                                    24490555.778   100284654.424                          18.500                                                                  
G25  21624090.156   113635470.389                          48.000                                                                                                                                    21624102.716    88547146.783                          49.250  
G 5  23683560.744   124458021.592                          43.000                                                                                                                                    23683574.764    96980295.856                          41.500  
G24  21930638.414   115246288.663                          43.000                                                                                                                                    21930653.734    89802303.831                          47.000  
G 6  24054178.480   126405632.722                          41.750                                                                                                                                    24054192.620    98497914.818                          39.500  
R22  20459369.944   109213607.830                          53.500                                                                                                                                    20459377.684    84943941.948                          48.250  
R12  21584573.320   115300952.897                          47.000                                                                                                1                                                                                                 
R11  19165190.516   102413052.369                          54.250                                                                                                                                    19165197.096    79654617.357                          50.000  
R21  20142957.448   107789162.207                          53.250                                                                                                                                    20142962.968    83836047.844                          48.500  
R10  21192809.520   112969597.715                          50.000                                                                                                                                    21192821.020    87865249.327                          40.750  
> 2017 11 15 18 42 12.0000000  0 13                     
G29  21487499.698   112917665.480                          50.500                                                                                                                                    21487510.318    87987817.779                          46.500  
G12  20557553.944   108030733.086                          54.000                                                                                                                                    20557563.044    84179808.345                          50.250  
G 2  20783752.382   109219421.226                          48.000                                                                    20783759.422    85106129.070                          39.500                                                                  
G20  24489993.518   128695788.719                          37.000                                                                    24490013.578   100282435.868                          17.750                                                                  
G25  21623689.836   113633367.022                          48.250                                                                                                                                    21623702.556    88545507.793                          49.250  
G 5  23683159.404   124455914.034                          42.750                                                                                                                                    23683173.184    96978653.607                          41.500  
G24  21931206.754   115249275.354                          43.000                                                                                                                                    21931221.894    89804631.123                          47.000  
G 6  24054813.700   126408973.158                          41.250                                                                                                                                    24054827.500    98500517.755                          39.500  
R22  20459136.404   109212360.440                          53.500                                                                                                                                    20459144.864    84942971.762                          48.500  
R12  21583895.000   115297328.878                          46.750                                                                                                1                                                                                                 
R11  19165128.956   102412724.656                          54.500                                                                                                                                    19165135.636    79654362.467                          49.500  
R21  20143366.088   107791349.446                          53.500                                                                                                                                    20143372.308    83837749.029                          48.500  
R10  21193437.040   112972940.769                          50.000                                                                                                                                    21193448.300    87867849.475                          40.500  
> 2017 11 15 18 42 13.0000000  0 13                     
G29  21487291.258   112916571.029                          50.500                                                                                                                                    21487301.998    87986964.962                          46.500  
G12  20557514.004   108030521.568                          54.000                                                                                                                                    20557523.224    84179643.530                          50.000  
G 2  20784137.222   109221442.355                          48.000                                                                    20784143.862    85107703.982                          39.250                                                                  
G20  24489452.938   128692941.394                          36.500                                                                    24489471.878   100280217.183                          18.500                                                                  
G25  21623289.616   113631263.844                          48.500                                                                                                                                    21623302.416    88543868.957                          49.000  
G 5  23682758.104   124453806.704                          43.000                                                                                                                                    23682772.184    96977011.534                          41.500  
G24  21931775.294   115252262.440                          43.000                                                                                                                                    21931791.014    89806958.718                          47.250  
G 6  24055449.600   126412313.819                          41.000                                                                                                                                    24055463.400    98503120.869                          39.500  
R22  20458903.124   109211113.591                          53.250                                                                                                                                    20458910.984    84942001.994                          48.500  
R12  21583215.900   115293705.203                          46.500                                                                                                1                                                                                                 
R11  19165067.776   102412397.760                          54.750                                                                                                                                    19165074.116    79654108.213                          49.250  
R21  20143775.068   107793537.020                          53.750                                                                                                                                    20143781.408    83839450.479                          48.500  
R10  21194064.660   112976284.372                          50.000                                                                                                                                    21194075.820    87870450.049                          40.500  
> 2017 11 15 18 42 14.0000000  0 13                     
G29  21487083.458   112915476.792                          50.750                                                                                                                                    21487094.618    87986112.314                          47.000  
G12  20557473.664   108030310.339                          53.500                                                                                                                                    20557483.004    84179478.934                          50.250  
G 2  20784522.042   109223463.983                          48.500                                                                    20784528.742    85109279.270                          39.500                                                                  
G20  24488910.998   128690093.850                          36.750                                                                    24488930.118   100277998.291                          18.250                                                                  
G25  21622889.656   113629160.776                          48.750                                                                                                                                    21622901.916    88542230.203                          49.250  
G 5  23682357.384   124451699.511                          43.250                                                                                                                                    23682371.004    96975369.565                          41.250  
G24  21932343.614   115255249.801                          43.000                                                                                                                                    21932358.574    89809286.528                          47.250  
G 6  24056085.240   126415654.600                          41.250                                                                                                                                    24056099.500    98505724.071                          39.250  
R22  20458669.064   109209867.194                          53.000                                                                                                                                    20458677.384    84941032.575                          48.500  
R12  21582537.680   115290081.862                          46.500                                                                                                1                                                                                                 
R11  19165006.936   102412071.621                          54.750                                                                                                                                    19165013.636    79653854.551                          49.750  
R21  20144183.948   107795724.873                          53.500                                                                                                                                    20144189.588    83841152.140                          48.500  
R10  21194692.280   112979628.437                          49.750                                                                                                                                    21194703.900    87873050.986                          40.750  
> 2017 11 15 18 42 15.0000000  0 13                     
G29  21486875.218   112914382.848                          50.500                                                                                                                                    21486885.898    87985259.890                          46.750  
G12  20557433.424   108030099.526                          53.250                                                                                                                                    20557442.404    84179314.666                          50.250  
G 2  20784906.442   109225486.267                          48.500                                                                    20784913.142    85110855.081                          39.250                                                                  
G20  24488368.998   128687246.296                          36.500                                                                    24488387.998   100275779.418                          18.500                                                                  
G25  21622489.616   113627057.976                          49.000                                                                                                                                    21622502.276    88540591.654                          49.000  
G 5  23681956.564   124449592.592                          43.500                                                                                                                                    23681969.824    96973727.814                          41.000  
G24  21932912.394   115258237.573                          43.000                                                                                                                                    21932927.054    89811614.655                          47.500  
G 6  24056720.900   126418995.683                          41.250                                                                                                                                    24056735.680    98508327.507                          39.250  
R22  20458435.804   109208621.399                          53.000                                                                                                                                    20458443.444    84940063.623                          48.500  
R12  21581859.600   115286458.946                          46.500                                                                                                1                                                                                                 
R11  19164945.936   102411746.406                          54.750                                                                                                                                    19164953.456    79653601.602                          49.750  
R21  20144592.968   107797913.148                          53.750                                                                                                                                    20144598.728    83842854.128                          48.750  
R10  21195319.240   112982973.093                          50.000                                                                                                                                    21195330.040    87875652.375                          40.500  
> 2017 11 15 18 42 16.0000000  0 13                     
G29  21486666.978   112913289.094                          50.000                                                                                                                                    21486677.138    87984407.620                          47.000  
G12  20557393.324   108029888.969                          53.000                                                                                                                                    20557402.244    84179150.592                          50.250  
G 2  20785291.442   109227509.059                          48.250                                                                    20785297.662    85112431.284                          39.250                                                                  
G20  24487825.298   128684398.493                          36.250                                                                    24487845.878   100273560.367                          17.250                                                                  
G25  21622089.216   113624955.244                          48.500                                                                                                                                    21622101.536    88538953.166                          49.250  
G 5  23681555.304   124447485.790                          43.750                                                                                                                                    23681569.484    96972086.154                          40.750  
G24  21933480.654   115261225.625                          42.500                                                                                                                                    21933496.014    89813943.006                          47.500  
G 6  24057356.500   126422336.853                          41.250                                                                                                                                    24057370.700    98510931.008                          39.000  
R22  20458202.284   109207376.065                          52.500                                                                                                                                    20458210.964    84939095.034                          48.000  
R12  21581181.220   115282836.329                          46.500                                                                                                1                                                                                                 
R11  19164884.736   102411421.972                          54.500                                                                                                                                    19164891.896    79653349.262                          49.500  
R21  20145001.928   107800101.653                          53.750                                                                                                                                    20145007.328    83844556.303                          48.500  
R10  21195947.760   112986318.213                          50.000                                                                                                                                    21195957.960    87878254.129                          40.750  
> 2017 11 15 18 42 17.0000000  0 13                     
G29  21486458.858   112912195.553                          50.000                                                                                                                                    21486469.558    87983555.510                          47.000  
G12  20557353.184   108029678.752                          53.250                                                                                                                                    20557362.104    84178986.784                          50.500  
G 2  20785677.122   109229532.408                          48.750                                                                    20785683.062    85114007.920                          39.500                                                                  
G20  24487284.138   128681550.521                          36.000                                                                    24487304.598   100271341.180                          16.250                                                                  
G25  21621688.636   113622852.710                          48.500                                                                                                                                    21621701.556    88537314.833                          49.250  
G 5  23681154.664   124445379.167                          44.250                                                                                                                                    23681168.404    96970444.634                          41.000  
G24  21934048.974   115264213.991                          42.500                                                                                                                                    21934064.814    89816271.596                          47.750  
G 6  24057992.560   126425678.202                          41.000                                                                                                                                    24058006.740    98513534.662                          39.500  
R22  20457968.864   109206131.257                          52.500                                                                                                                                    20457977.424    84938126.854                          47.750  
R12  21580502.500   115279214.054                          46.500                                                                                                1                                                                                                 
R11  19164824.416   102411098.302                          54.500                                                                                                                                    19164831.696    79653097.518                          49.500  
R21  20145410.948   107802290.434                          53.750                                                                                                                                    20145417.288    83846258.683                          48.750  
R10  21196574.760   112989663.829                          50.500                                                                                                                                    21196585.680    87880856.274                          40.500  
> 2017 11 15 18 42 18.0000000  0 13                     
G29  21486251.238   112911102.324                          50.250                                                                                                                                    21486261.678    87982703.648                          47.000  
G12  20557313.464   108029468.929                          53.500                                                                                                                                    20557322.924    84178823.290                          50.250  
G 2  20786061.482   109231556.403                          48.750                                                                    20786068.062    85115585.061                          39.500                                                                  
G20  24486742.278   128678702.410                          36.750                                                                    24486762.098   100269121.885                          17.250                                                                  
G25  21621289.096   113620750.394                          49.000                                                                                                                                    21621301.936    88535676.663                          49.000  
G 5  23680753.404   124443272.781                          44.250                                                                                                                                    23680767.364    96968803.306                          40.500  
G24  21934618.634   115267202.729                          42.500                                                                                                                                    21934633.294    89818600.475                          47.500  
G 6  24058628.180   126429019.813                          41.250                                                                                                                                    24058643.240    98516138.525                          39.250  
R22  20457736.284   109204887.015                          52.750                                                                                                                                    20457744.484    84937159.115                          48.250  
R12  21579824.940   115275592.172                          47.000                                                                                                1                                                                                                 
R11  19164764.536   102410775.548                          54.250                                                                                                                                    19164770.756    79652846.488                          49.500  
R21  20145820.068   107804479.562                          53.750                                                                                                                                    20145825.828    83847961.347                          48.750  
R10  21197202.000   112993010.018                          50.500                                                                                                                                    21197213.740    87883458.863                          40.000  
> 2017 11 15 18 42 19.0000000  0 13                     
G29  21486042.718   112910009.290                          50.250                                                                                                                                    21486053.938    87981851.935                          47.500  
G12  20557273.644   108029259.395                          53.500                                                                                                                                    20557282.864    84178660.015                          50.000  
G 2  20786447.102   109233580.882                          49.000                                                                    20786453.902    85117162.573                          39.750                                                                  
G20  24486199.978   128675854.173                          36.500                                                                    24486220.318   100266902.515                          16.750                                                                  
G25  21620888.776   113618648.195                          49.250                                                                                                                                    21620901.736    88534038.588                          49.000  
G 5  23680353.404   124441166.526                          44.500                                                                                                                                    23680366.664    96967162.073                          41.000  
G24  21935187.014   115270191.764                          43.250                                                                                                                                    21935202.274    89820929.585                          47.500  
G 6  24059264.020   126432361.532                          41.000                                                                                                                                    24059278.920    98518742.462                          39.750  
R22  20457502.704   109203643.266                          53.000                                                                                                                                    20457511.264    84936191.757                          48.000  
R12  21579147.900   115271970.602                          46.500                                                                                                1                                                                                                 
R11  19164703.656   102410453.550                          54.250                                                                                                                                    19164710.576    79652596.045                          49.500  
R21  20146229.208   107806668.958                          53.250                                                                                                                                    20146235.208    83849664.211                          49.000  
R10  21197830.920   112996356.665                          51.000                                                                                                                                    21197841.020    87886061.801                          40.000  
> 2017 11 15 18 42 20.0000000  0 13                     
G29  21485834.818   112908916.487                          50.250                                                                                                                                    21485845.958    87981000.400                          46.750  
G12  20557233.524   108029050.187                          54.000                                                                                                                                    20557243.024    84178496.993                          49.750  
G 2  20786832.562   109235605.963                          49.000                                                                    20786839.722    85118740.560                          39.500                                                                  
G20  24485658.598   128673005.725                          36.750                                                                    24485678.118   100264682.917                          16.250                                                                  
G25  21620488.696   113616546.179                          49.000                                                                                                                                    21620501.776    88532400.653                          49.000  
G 5  23679952.904   124439060.491                          44.500                                                                                                                                    23679966.464    96965521.013                          41.500  
G24  21935755.814   115273181.152                          43.000                                                                                                                                    21935771.894    89823258.974                          47.250  
G 6  24059900.040   126435703.467                          41.000                                                                                                                                    24059914.820    98521346.565                          39.250  
R22  20457270.084   109202400.027                          52.750                                                                                                                                    20457278.644    84935224.793                          47.500  
R12  21578468.820   115268349.400                          46.500                                                                                                1                                                                                                 
R11  19164644.216   102410132.372                          53.750                                                                                                                                    19164651.156    79652346.242                          49.500  
R21  20146638.388   107808858.724                          53.750                                                                                                                                    20146644.388    83851367.360                          48.750  
R10  21198459.300   112999703.851                          51.000                                                                                                                                    21198468.680    87888665.159                          40.250  
> 2017 11 15 18 42 21.0000000  0 13                     
G29  21485626.958   112907823.899                          50.750                                                                                                                                    21485637.698    87980149.041                          47.000  
G12  20557194.004   108028841.320                          54.250                                                                                                                                    20557203.044    84178334.238                          50.000  
G 2  20787217.682   109237631.598                          48.750                                                                    20787224.662    85120318.976                          39.500                                                                  
G20  24485115.498   128670157.118                          36.750                                                                    24485136.318   100262463.188                          15.500                                                                  
G25  21620088.896   113614444.293                          49.000                                                                                                                                    21620101.676    88530762.820                          48.750  
G 5  23679552.024   124436954.610                          44.000                                                                                                                                    23679565.624    96963880.068                          41.750  
G24  21936324.774   115276170.831                          43.000                                                                                                                                    21936339.914    89825588.586                          47.500  
G 6  24060536.540   126439045.538                          41.000                                                                                                                                    24060550.780    98523950.778                          39.250  
R22  20457037.344   109201157.293                          53.000                                                                                                                                    20457046.024    84934258.218                          47.750  
R12  21577792.040   115264728.511                          46.750                                                                                                1                                                                                                 
R11  19164583.956   102409811.986                          53.500                                                                                                                                    19164591.456    79652097.050                          49.250  
R21  20147047.768   107811048.749                          54.500                                                                                                                                    20147053.768    83853070.708                          48.750  
R10  21199086.900   113003051.508                          51.000                                                                                                                                    21199097.360    87891268.893                          40.250  
> 2017 11 15 18 42 22.0000000  0 13                     
G29  21485418.778   112906731.617                          50.250                                                                                                                                    21485430.218    87979297.910                          47.250  
G12  20557154.124   108028632.829                          54.000                                                                                                                                    20557163.404    84178171.778                          49.750  
G 2  20787603.722   109239657.850                          49.000                                                                    20787610.062    85121897.876                          39.500                                                                  
G20  24484573.718   128667308.397                          36.250                                                                    24484593.698   100260243.424                          14.750                                                                  
G25  21619688.996   113612342.684                          48.750                                                                                                                                    21619701.476    88529125.203                          49.000  
G 5  23679151.124   124434848.983                          44.500                                                                                                                                    23679165.324    96962239.322                          41.000  
G24  21936893.614   115279160.914                          42.750                                                                                                                                    21936908.694    89827918.515                          47.000  
G 6  24061172.700   126442387.874                          40.500                                                                                                                                    24061186.960    98526555.192                          39.250  
R22  20456804.784   109199915.152                          53.500                                                                                                                                    20456813.004    84933292.116                          47.750  
R12  21577113.660   115261108.055                          46.750                                                                                                1                                                                                                 
R11  19164524.116   102409492.494                          54.000                                                                                                                                    19164530.796    79651848.559                          49.250  
R21  20147456.968   107813239.159                          54.000                                                                                                                                    20147462.708    83854774.363                          48.500  
R10  21199715.120   113006399.770                          50.750                                                                                                                                    21199725.680    87893873.090                          40.000  
> 2017 11 15 18 42 23.0000000  0 13                     
G29  21485211.518   112905639.565                          50.000                                                                                                                                    21485222.078    87978446.971                          47.250  
G12  20557114.524   108028424.683                          53.750                                                                                                                                    20557123.804    84178009.592                          49.750  
G 2  20787989.342   109241684.649                          49.000                                                                    20787996.382    85123477.198                          40.000                                                                  
G20  24484032.158   128664459.564                          36.500                                                                    24484051.558   100258023.562                          15.500                                                                  
G25  21619289.156   113610241.195                          49.000                                                                                                                                    21619301.956    88527487.679                          48.750  
G 5  23678750.044   124432743.526                          44.000                                                                                                                                    23678763.484    96960598.711                          40.750  
G24  21937462.954   115282151.284                          43.500                                                                                                                                    21937478.494    89830248.673                          46.500  
G 6  24061808.940   126445730.379                          40.750                                                                                                                                    24061823.080    98529159.741                          38.500  
R22  20456572.184   109198673.520                          53.250                                                                                                                                    20456580.404    84932326.400                          48.000  
R12  21576435.980   115257487.933                          46.750                                                                                                1                                                                                                 
R11  19164464.856   102409173.823                          54.000                                                                                                                                    19164471.556    79651600.708                          49.500  
R21  20147866.508   107815429.839                          53.500                                                                                                                                    20147871.568    83856478.221                          48.500  
R10  21200343.200   113009748.515                          50.500                                                                                                                                    21200353.180    87896477.664                          40.250  
> 2017 11 15 18 42 24.0000000  0 13                     
G29  21485003.638   112904547.690                          50.250                                                                                                                                    21485013.978    87977596.155                          46.500  
G12  20557075.144   108028216.807                          53.250                                                                                                                                    20557084.124    84177847.608                          49.750  
G 2  20788374.682   109243711.984                          48.750                                                                    20788382.382    85125056.940                          39.750                                                                  
G20  24483490.618   128661610.544                          36.000                                                                    24483510.098   100255803.573                          17.750                                                                  
G25  21618888.956   113608139.835                          48.750                                                                                                                                    21618901.976    88525850.260                          49.000  
G 5  23678348.764   124430638.207                          43.500                                                                                                                                    23678363.544    96958958.204                          40.750  
G24  21938031.794   115285141.951                          43.500                                                                                                                                    21938047.274    89832579.059                          46.750  
G 6  24062444.620   126449073.007                          40.750                                                                                                                                    24062459.060    98531764.383                          38.250  
R22  20456340.044   109197432.360                          53.000                                                                                                                                    20456347.664    84931361.058                          47.750  
R12  21575757.700   115253868.085                          46.500                                                                                                1                                                                                                 
R11  19164405.236   102408855.905                          54.000                                                                                                                                    19164410.876    79651353.438                          49.750  
R21  20148276.188   107817620.747                          53.500                                                                                                                                    20148281.928    83858182.261                          48.500  
R10  21200972.440   113013097.692                          50.750                                                                                                                                    21200980.760    87899082.575                          40.250  
> 2017 11 15 18 42 25.0000000  0 13                     
G29  21484795.638   112903456.158                          50.000                                                                                                                                    21484806.558    87976745.617                          46.500  
G12  20557035.764   108028009.362                          53.000                                                                                                                                    20557044.684    84177685.958                          50.250  
G 2  20788760.582   109245739.978                          48.750                                                                    20788767.582    85126637.199                          39.750                                                                  
G20  24482948.458   128658761.387                          35.500                                                                    24482967.158   100253583.465                          17.750                                                                  
G25  21618489.256   113606038.735                          48.750                                                                                                                                    21618501.636    88524213.041                          49.000  
G 5  23677948.884   124428533.163                          43.250                                                                                                                                    23677962.784    96957317.917                          40.750  
G24  21938601.254   115288133.023                          43.000                                                                                                                                    21938616.274    89834909.758                          46.250  
G 6  24063081.520   126452415.927                          41.000                                                                                                                                    24063095.020    98534369.259                          38.500  
R22  20456107.664   109196191.817                          53.000                                                                                                                                    20456114.944    84930396.196                          48.000  
R12  21575080.540   115250248.695                          46.250                                                                                                1                                                                                                 
R11  19164346.056   102408538.895                          53.500                                                                                                                                    19164352.396    79651106.867                          49.500  
R21  20148685.728   107819812.072                          53.500                                                                                                                                    20148691.368    83859886.625                          48.500  
R10  21201599.820   113016447.505                          50.500                                                                                                                                    21201610.020    87901687.979                          40.250  
> 2017 11 15 18 42 26.0000000  0 13                     
G29  21484587.998   112902364.887                          50.500                                                                                                                                    21484599.138    87975895.274                          47.000  
G12  20556996.224   108027802.279                          53.000                                                                                                                                    20557005.204    84177524.597                          50.000  
G 2  20789146.822   109247768.579                          49.500                                                                    20789153.282    85128217.921                          39.750                                                                  
G20  24482405.358   128655912.151                          36.250                                                                    24482425.118   100251363.291                          18.250                                                                  
G25  21618089.616   113603937.832                          48.500                                                                                                                                    21618102.216    88522575.972                          48.750  
G 5  23677548.364   124426428.340                          43.750                                                                                                                                    23677561.404    96955677.811                          40.750  
G24  21939170.354   115291124.486                          43.250                                                                                                                                    21939185.834    89837240.758                          46.250  
G 6  24063717.600   126455759.070                          41.250                                                                                                                                    24063731.620    98536974.310                          39.000  
R22  20455875.384   109194951.840                          53.500                                                                                                                                    20455882.904    84929431.769                          48.000  
R12  21574402.800   115246629.708                          46.750                                                                                                1                                                                                                 
R11  19164286.596   102408222.738                          53.750                                                                                                                                    19164293.876    79650860.969                          49.750  
R21  20149095.468   107822003.764                          53.750                                                                                                                                    20149101.108    83861591.274                          48.500  
R10  21202228.700   113019797.846                          50.500                                                                                                                                    21202238.440    87904293.796                          39.750  
> 2017 11 15 18 42 27.0000000  0 13                     
G29  21484380.258   112901273.858                          50.500                                                                                                                                    21484391.698    87975045.121                          46.750  
G12  20556956.984   108027595.543                          53.000                                                                                                                                    20556966.144    84177363.505                          50.000  
G 2  20789532.942   109249797.725                          49.000                                                                    20789539.562    85129799.073                          40.000                                                                  
G20  24481863.338   128653062.790                          36.000                                                                    24481882.858   100249142.995                          17.250                                                                  
G25  21617689.816   113601837.111                          48.250                                                                                                                                    21617702.376    88520939.046                          48.500  
G 5  23677147.724   124424323.696                          44.000                                                                                                                                    23677162.104    96954037.837                          41.000  
G24  21939739.754   115294116.270                          43.500                                                                                                                                    21939754.894    89839572.014                          46.500  
G 6  24064352.380   126459102.358                          40.500                                                                                                                                    24064367.340    98539579.463                          39.250  
R22  20455642.964   109193712.367                          53.500                                                                                                                                    20455651.184    84928467.733                          48.000  
R12  21573725.580   115243011.057                          47.000                                                                                                1                                                                                                 
R11  19164227.736   102407907.369                          54.000                                                                                                                                    19164234.416    79650615.682                          50.000  
R21  20149504.748   107824195.793                          54.000                                                                                                                                    20149510.028    83863296.189                          48.500  
R10  21202857.300   113023148.684                          50.500                                                                                                                                    21202867.520    87906899.998                          39.750  
> 2017 11 15 18 42 28.0000000  0 13                     
G29  21484173.018   112900182.918                          50.500                                                                                                                                    21484183.978    87974195.042                          46.500  
G12  20556917.384   108027389.012                          53.000                                                                                                                                    20556927.004    84177202.572                          50.000  
G 2  20789919.162   109251827.322                          49.000                                                                    20789925.742    85131380.578                          40.000                                                                  
G20  24481320.778   128650213.076                          35.500                                                                    24481340.958   100246922.453                          17.250                                                                  
G25  21617289.876   113599736.432                          47.750                                                                                                                                    21617302.676    88519302.157                          48.750  
G 5  23676747.844   124422219.112                          43.000                                                                                                                                    23676761.104    96952397.907                          41.000  
G24  21940308.634   115297108.266                          43.000                                                                                                                                    21940324.714    89841903.436                          46.750  
G 6  24064989.380   126462445.717                          40.750                                                                                                                                    24065003.460    98542184.678                          39.000  
R22  20455411.044   109192473.279                          53.750                                                                                                                                    20455418.804    84927504.003                          47.500  
R12  21573047.900   115239392.633                          46.500                                                                                                1                                                                                                 
R11  19164168.876   102407592.679                          54.250                                                                                                                                    19164174.976    79650370.925                          50.000  
R21  20149914.388   107826387.980                          54.000                                                                                                                                    20149920.248    83865001.221                          48.750  
R10  21203486.040   113026499.902                          50.250                                                                                                                                    21203495.900    87909506.493                          39.250  
> 2017 11 15 18 42 29.0000000  0 13                     
G29  21483965.358   112899092.369                          50.000                                                                                                                                    21483976.278    87973345.272                          47.000  
G12  20556878.484   108027182.944                          52.000                                                                                                                                    20556887.164    84177042.001                          49.500  
G 2  20790305.822   109253857.628                          48.750                                                                    20790312.402    85132962.643                          39.750                                                                  
G20  24480777.498   128647363.402                          35.500                                                                    24480798.378   100244701.918                          16.250                                                                  
G25  21616890.396   113597636.031                          46.750                                                                                                                                    21616903.296    88517665.483                          48.750  
G 5  23676347.064   124420114.854                          42.500                                                                                                                                    23676360.804    96950758.228                          41.000  
G24  21940878.594   115300100.699                          43.000                                                                                                                                    21940893.614    89844235.193                          47.000  
G 6  24065624.920   126465789.364                          40.250                                                                                                                                    24065639.940    98544790.122                          38.750  
R22  20455179.424   109191234.850                          53.250                                                                                                                                    20455186.464    84926540.783                          47.750  
R12  21572370.460   115235774.693                          46.500                                                                                                1                                                                                                 
R11  19164110.256   102407278.977                          53.500                                                                                                                                    19164116.716    79650126.933                          50.000  
R21  20150323.848   107828580.579                          54.250                                                                                                                                    20150329.468    83866706.578                          49.000  
R10  21204114.260   113029851.760                          50.500                                                                                                                                    21204124.940    87912113.487                          39.500  
> 2017 11 15 18 42 30.0000000  0 13                     
G29  21483757.958   112898002.049                          50.250                                                                                                                                    21483768.878    87972495.674                          47.000  
G12  20556839.144   108026977.231                          52.000                                                                                                                                    20556848.704    84176881.703                          49.500  
G 2  20790691.862   109255888.489                          48.500                                                                    20790698.742    85134545.124                          39.750                                                                  
G20  24480236.738   128644513.570                          35.750                                                                    24480256.558   100242481.282                          16.250                                                                  
G25  21616490.856   113595535.822                          46.750                                                                                                                                    21616502.896    88516028.959                          49.000  
G 5  23675946.504   124418010.769                          42.750                                                                                                                                    23675960.584    96949118.685                          41.250  
G24  21941448.254   115303093.481                          43.500                                                                                                                                    21941463.334    89846567.229                          47.000  
G 6  24066261.940   126469133.251                          40.750                                                                                                                                    24066276.240    98547395.744                          38.750  
R22  20454947.084   109189996.941                          53.000                                                                                                                                    20454955.064    84925577.965                          48.000  
R12  21571694.320   115232157.103                          46.500                                                                                                1                                                                                                 
R11  19164051.396   102406966.104                          53.750                                                                                                                                    19164058.216    79649883.591                          49.750  
R21  20150734.088   107830773.488                          54.250                                                                                                                                    20150739.968    83868412.174                          49.000  
R10  21204743.280   113033204.164                          50.000                                                                                                                                    21204753.960    87914720.906                          39.500  
> 2017 11 15 18 42 31.0000000  0 13                     
G29  21483550.238   112896911.986                          50.500                                                                                                                                    21483561.798    87971646.277                          46.750  
G12  20556800.104   108026771.843                          52.750                                                                                                                                    20556809.544    84176721.660                          49.750  
G 2  20791078.402   109257919.928                          48.750                                                                    20791085.922    85136128.065                          40.000                                                                  
G20  24479694.318   128641663.546                          36.500                                                                    24479714.138   100240260.494                          16.250                                                                  
G25  21616091.056   113593435.757                          47.500                                                                                                                                    21616103.676    88514392.545                          49.000  
G 5  23675545.944   124415906.879                          42.750                                                                                                                                    23675560.084    96947479.288                          41.250  
G24  21942017.834   115306086.597                          43.500                                                                                                                                    21942033.094    89848899.519                          47.000  
G 6  24066897.960   126472477.272                          40.000                                                                                                                                    24066911.980    98550001.470                          38.250  
R22  20454715.404   109188759.558                          53.000                                                                                                                                    20454722.564    84924615.560                          48.000  
R12  21571016.540   115228539.854                          46.250                                                                                                1                                                                                                 
R11  19163992.816   102406654.016                          54.000                                                                                                                                    19163999.516    79649640.854                          49.750  
R21  20151143.868   107832966.718                          54.250                                                                                                                                    20151149.148    83870118.016                          49.000  
R10  21205371.780   113036557.064                          50.000                                                                                                                                    21205382.220    87917328.718                          39.500  
> 2017 11 15 18 42 32.0000000  0 13                     
G29  21483342.758   112895822.076                          50.000                                                                                                                                    21483353.958    87970797.000                          47.000  
G12  20556761.044   108026566.715                          52.750                                                                                                                                    20556769.784    84176561.822                          50.000  
G 2  20791465.562   109259951.846                          48.750                                                                    20791472.302    85137711.382                          40.250                                                                  
G20  24479151.418   128638813.314                          36.250                                                                    24479171.598   100238039.528                          16.750                                                                  
G25  21615691.456   113591335.819                          47.000                                                                                                                                    21615704.596    88512756.229                          49.000  
G 5  23675146.244   124413803.104                          43.000                                                                                                                                    23675159.724    96945839.986                          41.000  
G24  21942587.074   115309079.970                          43.500                                                                                                                                    21942602.794    89851232.018                          46.750  
G 6  24067533.880   126475821.419                          40.250                                                                                                                                    24067548.780    98552607.307                          38.250  
R22  20454483.384   109187522.624                          53.000                                                                                                                                    20454491.364    84923653.506                          48.000  
R12  21570339.680   115224922.910                          46.500                                                                                                1                                                                                                 
R11  19163934.536   102406342.687                          53.750                                                                                                                                    19163940.976    79649398.707                          49.750  
R21  20151553.388   107835160.216                          53.750                                                                                                                                    20151559.248    83871824.070                          49.000  
R10  21206000.920   113039910.411                          50.250                                                                                                                                    21206011.140    87919936.864                          39.500  
> 2017 11 15 18 42 33.0000000  0 13                     
G29  21483135.338   112894732.516                          50.000                                                                                                                                    21483147.078    87969947.992                          47.250  
G12  20556722.264   108026362.029                          53.000                                                                                                                                    20556731.084    84176402.327                          49.750  
G 2  20791852.182   109261984.459                          49.250                                                                    20791858.702    85139295.234                          40.250                                                                  
G20  24478609.418   128635963.043                          36.000                                                                    24478629.778   100235818.540                          16.250                                                                  
G25  21615292.016   113589236.151                          47.500                                                                                                                                    21615304.396    88511120.122                          48.500  
G 5  23674745.544   124411699.647                          43.500                                                                                                                                    23674758.924    96944200.922                          41.000  
G24  21943156.754   115312073.798                          43.750                                                                                                                                    21943172.014    89853564.864                          46.500  
G 6  24068170.880   126479165.876                          39.750                                                                                                                                    24068185.240    98555213.371                          38.500  
R22  20454252.104   109186286.346                          53.000                                                                                                                                    20454259.264    84922691.961                          48.000  
R12  21569662.600   115221306.423                          46.500                                                                                                1                                                                                                 
R11  19163877.176   102406032.325                          53.750                                                                                                                                    19163883.396    79649157.314                          50.000  
R21  20151963.348   107837354.128                          53.750                                                                                                                                    20151969.448    83873530.444                          49.000  
R10  21206630.140   113043264.380                          50.750                                                                                                                                    21206640.700    87922545.503                          39.500  
> 2017 11 15 18 42 34.0000000  0 13                     
G29  21482927.858   112893643.089                          50.250                                                                                                                                    21482939.318    87969099.094                          47.250  
G12  20556683.164   108026157.595                          53.250                                                                                                                                    20556692.264    84176243.031                          49.500  
G 2  20792239.342   109264017.546                          49.500                                                                    20792246.262    85140879.460                          40.000                                                                  
G20  24478067.218   128633112.555                          35.750                                                                    24478086.618   100233597.417                          16.250                                                                  
G25  21614892.176   113587136.562                          47.750                                                                                                                                    21614905.036    88509484.079                          48.500  
G 5  23674345.224   124409596.243                          43.250                                                                                                                                    23674359.784    96942561.916                          41.000  
G24  21943726.834   115315067.849                          44.500                                                                                                                                    21943741.794    89855897.885                          47.000  
G 6  24068806.920   126482510.391                          40.250                                                                                                                                    24068821.480    98557819.485                          38.250  
R22  20454020.604   109185050.447                          53.000                                                                                                                                    20454028.484    84921730.704                          48.000  
R12  21568985.040   115217690.216                          46.750                                                                                                1                                                                                                 
R11  19163818.616   102405722.679                          54.000                                                                                                                                    19163825.416    79648916.478                          49.750  
R21  20152373.468   107839548.252                          53.500                                                                                                                                    20152379.568    83875236.983                          48.750  
R10  21207259.580   113046618.762                          50.500                                                                                                                                    21207270.140    87925154.462                          39.500  
> 2017 11 15 18 42 35.0000000  0 13                     
G29  21482720.738   112892553.865                          50.750                                                                                                                                    21482732.238    87968250.346                          47.250  
G12  20556644.424   108025953.458                          53.500                                                                                                                                    20556653.344    84176083.964                          49.750  
G 2  20792626.142   109266051.147                          48.500                                                                    20792632.842    85142464.084                          40.000                                                                  
G20  24477523.758   128630261.821                          35.500                                                                    24477544.158   100231376.085                          16.750                                                                  
G25  21614492.576   113585037.091                          47.500                                                                                                                                    21614505.016    88507848.132                          48.750  
G 5  23673945.444   124407493.039                          43.750                                                                                                                                    23673959.644    96940923.068                          41.250  
G24  21944296.494   115318062.229                          44.000                                                                                                                                    21944311.974    89858231.162                          46.500  
G 6  24069443.320   126485855.058                          40.500                                                                                                                                    24069458.520    98560425.715                          38.500  
R22  20453789.064   109183815.026                          52.750                                                                                                                                    20453797.404    84920769.826                          48.000  
R12  21568307.900   115214074.316                          46.250                                                                                                1                                                                                                 
R11  19163760.756   102405413.778                          54.000                                                                                                                                    19163767.556    79648676.225                          49.500  
R21  20152783.608   107841742.617                          53.750                                                                                                                                    20152789.128    83876943.711                          49.000  
R10  21207888.260   113049973.616                          50.500                                                                                                                                    21207898.820    87927763.793                          39.750  
> 2017 11 15 18 42 36.0000000  0 13                     
G29  21482513.418   112891464.948                          50.500                                                                                                                                    21482525.158    87967401.845                          47.000  
G12  20556605.664   108025749.715                          53.500                                                                                                                                    20556615.064    84175925.201                          50.000  
G 2  20793013.362   109268085.372                          48.500                                                                    20793020.122    85144049.190                          39.750                                                                  
G20  24476981.238   128627411.036                          35.750                                                                    24477001.758   100229154.675                          17.750                                                                  
G25  21614093.236   113582937.859                          47.000                                                                                                                                    21614105.676    88506212.371                          48.500  
G 5  23673544.904   124405390.063                          44.000                                                                                                                                    23673559.404    96939284.394                          41.500  
G24  21944866.554   115321056.953                          43.000                                                                                                                                    21944881.694    89860564.709                          46.250  
G 6  24070080.320   126489199.988                          40.250                                                                                                                                    24070095.620    98563032.152                          38.500  
R22  20453557.544   109182580.182                          53.000                                                                                                                                    20453566.124    84919809.397                          48.000  
R12  21567631.860   115210458.812                          46.500                                                                                                1                                                                                                 
R11  19163703.196   102405105.744                          54.000                                                                                                                                    19163709.876    79648436.640                          49.500  
R21  20153194.208   107843937.351                          53.750                                                                                                                                    20153199.388    83878650.728                          49.000  
R10  21208517.280   113053329.040                          50.500                                                                                                                                    21208528.780    87930373.559                          39.500  
> 2017 11 15 18 42 37.0000000  0 13                     
G29  21482306.158   112890376.349                          50.750                                                                                                                                    21482317.838    87966553.588                          47.000  
G12  20556566.944   108025546.421                          53.250                                                                                                                                    20556576.044    84175766.790                          49.500  
G 2  20793400.562   109270120.276                          48.500                                                                    20793406.962    85145634.836                          39.500                                                                  
G20  24476439.858   128624560.187                          36.000                                                                    24476459.158   100226933.218                          17.250                                                                  
G25  21613693.856   113580838.912                          47.250                                                                                                                                    21613706.176    88504576.827                          48.500  
G 5  23673145.044   124403287.353                          44.750                                                                                                                                    23673159.004    96937645.926                          41.500  
G24  21945436.214   115324052.149                          43.000                                                                                                                                    21945451.354    89862898.628                          46.250  
G 6  24070716.560   126492545.162                          40.250                                                                                                                                    24070731.460    98565638.781                          38.750  
R22  20453326.264   109181345.994                          53.000                                                                                                                                    20453335.064    84918849.475                          48.000  
R12  21566954.420   115206843.770                          46.000                                                                                                1                                                                                                 
R11  19163645.856   102404798.695                          54.000                                                                                                                                    19163653.116    79648197.822                          50.000  
R21  20153603.748   107846132.537                          54.000                                                                                                                                    20153609.628    83880358.095                          48.500  
R10  21209147.800   113056685.066                          50.250                                                                                                                                    21209158.240    87932983.799                          39.750  
> 2017 11 15 18 42 38.0000000  0 13                     
G29  21482099.358   112889287.900                          50.750                                                                                                                                    21482111.098    87965705.452                          47.000  
G12  20556528.484   108025343.366                          53.000                                                                                                                                    20556538.224    84175608.562                          49.500  
G 2  20793787.502   109272155.646                          48.750                                                                    20793794.722    85147220.834                          39.500                                                                  
G20  24475897.018   128621709.088                          35.500                                                                    24475916.998   100224711.591                          16.750                                                                  
G25  21613294.376   113578740.027                          47.250                                                                                                                                    21613306.516    88502941.332                          49.000  
G 5  23672744.824   124401184.771                          43.500                                                                                                                                    23672758.724    96936007.559                          41.250  
G24  21946006.914   115327047.580                          43.250                                                                                                                                    21946021.754    89865232.720                          46.000  
G 6  24071353.340   126495890.434                          40.500                                                                                                                                    24071367.840    98568245.484                          38.250  
R22  20453095.244   109180112.225                          52.750                                                                                                                                    20453103.104    84917889.885                          48.000  
R12  21566278.860   115203228.973                          46.000                                                                                                1                                                                                                 
R11  19163588.996   102404492.338                          54.000                                                                                                                                    19163595.336    79647959.547                          49.500  
R21  20154014.568   107848327.932                          53.750                                                                                                                                    20154020.188    83882065.623                          48.750  
R10  21209777.160   113060041.521                          50.250                                                                                                                                    21209787.020    87935594.372                          39.250  
> 2017 11 15 18 42 39.0000000  0 13                     
G29  21481892.138   112888199.739                          50.500                                                                                                                                    21481903.698    87964857.531                          47.250  
G12  20556489.604   108025140.690                          53.000                                                                                                                                    20556499.004    84175450.638                          49.500  
G 2  20794175.042   109274191.654                          49.250                                                                    20794182.562    85148807.339                          40.000                                                                  
G20  24475353.318   128618857.898                          35.250                                                                    24475374.078   100222489.884                          16.750                                                                  
G25  21612895.316   113576641.371                          47.750                                                                                                                                    21612907.756    88501306.014                          48.500  
G 5  23672344.784   124399082.407                          43.500                                                                                                                                    23672358.804    96934369.358                          40.750  
G24  21946576.634   115330043.402                          43.750                                                                                                                                    21946591.654    89867567.127                          46.250  
G 6  24071989.620   126499235.960                          40.250                                                                                                                                    24072004.280    98570852.390                          38.500  
R22  20452863.804   109178879.048                          52.500                                                                                                                                    20452871.424    84916930.752                          47.750  
R12  21565602.020   115199614.612                          46.250                                                                                                1                                                                                                 
R11  19163531.436   102404186.820                          53.750                                                                                                                                    19163538.376    79647721.926                          49.500  
R21  20154424.488   107850523.672                          54.000                                                                                                                                    20154430.228    83883773.420                          48.750  
R10  21210406.400   113063398.523                          50.250                                                                                                                                    21210417.080    87938205.365                          38.500  
> 2017 11 15 18 42 40.0000000  0 13                     
G29  21481685.258   112887111.829                          50.750                                                                                                                                    21481696.818    87964009.815                          47.000  
G12  20556451.204   108024938.361                          53.250                                                                                                                                    20556460.064    84175292.979                          50.000  
G 2  20794562.382   109276228.204                          49.250                                                                    20794569.702    85150394.258                          40.000                                                                  
G20  24474811.218   128616006.558                          35.250                                                                    24474831.818   100220268.079                          17.250                                                                  
G25  21612495.876   113574542.880                          47.000                                                                                                                                    21612508.136    88499670.828                          48.750  
G 5  23671944.324   124396980.227                          44.250                                                                                                                                    23671958.224    96932731.304                          40.500  
G24  21947147.214   115333039.524                          44.000                                                                                                                                    21947161.594    89869901.759                          46.250  
G 6  24072626.820   126502581.641                          40.000                                                                                                                                    24072641.720    98573459.418                          38.750  
R22  20452633.784   109177646.395                          53.000                                                                                                                                    20452641.644    84915972.016                          48.000  
R12  21564926.080   115196000.568                          46.250                                                                                                1                                                                                                 
R11  19163474.336   102403882.104                          53.500                                                                                                                                    19163481.156    79647484.922                          49.750  
R21  20154834.428   107852719.714                          53.750                                                                                                                                    20154840.408    83885481.457                          48.750  
R10  21211037.080   113066756.013                          49.750                                                                                                                                    21211047.520    87940816.746                          39.000  
> 2017 11 15 18 42 41.0000000  0 13                     
G29  21481478.158   112886024.121                          49.500                                                                                                                                    21481489.598    87963162.250                          47.000  
G12  20556413.044   108024736.363                          53.250                                                                                                                                    20556422.144    84175135.574                          50.000  
G 2  20794950.022   109278265.326                          49.000                                                                    20794957.302    85151981.624                          40.000                                                                  
G20  24474267.958   128613155.028                          35.250                                                                    24474288.838   100218046.118                          17.750                                                                  
G25  21612096.716   113572444.549                          47.750                                                                                                                                    21612108.676    88498035.768                          48.750  
G 5  23671544.104   124394878.258                          44.500                                                                                                                                    23671558.004    96931093.401                          40.500  
G24  21947716.974   115336035.945                          44.000                                                                                                                                    21947731.634    89872236.635                          46.500  
G 6  24073262.740   126505927.536                          40.250                                                                                                                                    24073278.040    98576066.608                          38.500  
R22  20452402.384   109176414.268                          53.000                                                                                                                                    20452409.664    84915013.703                          47.750  
R12  21564248.160   115192386.886                          46.250                                                                                                1                                                                                                 
R11  19163417.576   102403578.216                          53.250                                                                                                                                    19163423.796    79647248.565                          49.250  
R21  20155245.028   107854916.056                          54.000                                                                                                                                    20155251.008    83887189.725                          48.500  
R10  21211666.280   113070113.982                          49.500                                                                                                                                    21211677.080    87943428.493                          39.000  
> 2017 11 15 18 42 42.0000000  0 13                     
G29  21481271.018   112884936.728                          49.500                                                                                                                                    21481282.518    87962314.941                          47.250  
G12  20556374.544   108024534.753                          53.000                                                                                                                                    20556383.524    84174978.480                          50.250  
G 2  20795338.082   109280303.072                          49.000                                                                    20795344.822    85153569.480                          40.000                                                                  
G20  24473726.338   128610303.446                          35.500                                                                    24473746.098   100215824.106                          18.250                                                                  
G25  21611697.416   113570346.442                          47.500                                                                                                                                    21611710.216    88496400.883                          48.500  
G 5  23671145.044   124392776.525                          43.750                                                                                                                                    23671158.664    96929455.693                          40.500  
G24  21948287.634   115339032.805                          44.250                                                                                                                                    21948302.654    89874571.844                          47.000  
G 6  24073899.520   126509273.643                          40.500                                                                                                                                    24073914.780    98578673.958                          39.000  
R22  20452171.224   109175182.711                          53.500                                                                                                                                    20452179.804    84914055.828                          48.000  
R12  21563572.660   115188773.638                          46.000                                                                                                1                                                                                                 
R11  19163360.756   102403275.255                          53.500                                                                                                                                    19163367.556    79647012.927                          49.250  
R21  20155655.548   107857112.760                          54.000                                                                                                                                    20155661.308    83888898.272                          48.500  
R10  21212297.180   113073472.535                          49.500                                                                                                                                    21212306.920    87946040.697                          39.000  
> 2017 11 15 18 42 43.0000000  0 13                     
G29  21481064.198   112883849.589                          49.750                                                                                                                                    21481075.638    87961467.820                          47.500  
G12  20556336.344   108024333.501                          52.500                                                                                                                                    20556345.204    84174821.666                          50.000  
G 2  20795725.422   109282341.413                          49.000                                                                    20795732.882    85155157.796                          39.250                                                                  
G20  24473183.718   128607451.699                          36.000                                                                    24473203.258   100213601.969                          17.250                                                                  
G25  21611297.956   113568248.538                          47.750                                                                                                                                    21611310.676    88494766.152                          48.500  
G 5  23670744.724   124390674.978                          43.250                                                                                                                                    23670758.464    96927818.127                          41.000  
G24  21948857.854   115342030.004                          44.500                                                                                                                                    21948872.814    89876907.316                          47.000  
G 6  24074536.740   126512619.939                          41.000                                                                                                                                    24074551.160    98581281.464                          38.750  
R22  20451941.004   109173951.678                          53.500                                                                                                                                    20451948.984    84913098.357                          48.000  
R12  21562895.940   115185160.759                          46.750                                                                                                1                                                                                                 
R11  19163304.576   102402973.144                          53.500                                                                                                                                    19163310.556    79646777.955                          49.250  
R21  20156066.148   107859309.784                          54.000                                                                                                                                    20156071.888    83890607.069                          48.500  
R10  21212926.080   113076831.624                          49.500                                                                                                                                    21212937.460    87948653.315                          38.500  
> 2017 11 15 18 42 44.0000000  0 13                     
G29  21480857.198   112882762.617                          50.000                                                                                                                                    21480868.338    87960620.831                          46.500  
G12  20556297.724   108024132.512                          52.500                                                                                                                                    20556307.224    84174665.047                          50.000  
G 2  20796113.322   109284380.249                          49.250                                                                    20796120.602    85156746.501                          39.500                                                                  
G20  24472641.178   128604599.752                          36.000                                                                    24472661.178   100211379.691                          17.250                                                                  
G25  21610899.256   113566150.743                          48.000                                                                                                                                    21610911.576    88493131.509                          49.000  
G 5  23670344.924   124388573.563                          44.000                                                                                                                                    23670358.764    96926180.664                          41.250  
G24  21949428.154   115345027.440                          44.500                                                                                                                                    21949442.994    89879242.974                          47.000  
G 6  24075173.580   126515966.361                          40.750                                                                                                                                    24075188.120    98583889.066                          39.250  
R22  20451710.164   109172721.085                          53.000                                                                                                                                    20451718.864    84912141.230                          48.000  
R12  21562219.580   115181548.174                          46.500                                                                                                1                                                                                                 
R11  19163248.356   102402671.727                          53.750                                                                                                                                    19163254.116    79646543.516                          49.500  
R21  20156476.428   107861507.054                          54.250                                                                                                                                    20156483.128    83892316.059                          48.250  
R10  21213556.560   113080191.131                          49.500                                                                                                                                    21213566.540    87951266.261                          39.000  
> 2017 11 15 18 42 45.0000000  0 13                     
G29  21480650.758   112881675.886                          50.000                                                                                                                                    21480661.978    87959774.023                          47.000  
G12  20556259.844   108023931.885                          53.000                                                                                                                                    20556269.004    84174508.714                          50.000  
G 2  20796501.802   109286419.623                          48.500                                                                    20796509.202    85158335.624                          39.500                                                                  
G20  24472099.018   128601747.657                          35.250                                                                    24472118.898   100209157.290                          16.750                                                                  
G25  21610499.876   113564053.104                          48.250                                                                                                                                    21610512.716    88491496.991                          49.250  
G 5  23669944.704   124386472.329                          44.250                                                                                                                                    23669958.784    96924543.344                          41.000  
G24  21949998.414   115348025.201                          43.250                                                                                                                                    21950013.614    89881578.887                          47.000  
G 6  24075810.760   126519312.957                          40.750                                                                                                                                    24075825.020    98586496.801                          38.750  
R22  20451480.424   109171491.005                          53.000                                                                                                                                    20451488.524    84911184.500                          48.000  
R12  21561543.540   115177935.904                          46.500                                                                                                1                                                                                                 
R11  19163191.896   102402371.115                          54.000                                                                                                                                    19163198.456    79646309.704                          49.750  
R21  20156887.268   107863704.638                          54.000                                                                                                                                    20156893.248    83894025.291                          48.250  
R10  21214187.580   113083551.171                          49.500                                                                                                                                    21214197.680    87953879.622                          38.500  
> 2017 11 15 18 42 46.0000000  0 13                     
G29  21480443.798   112880589.402                          50.000                                                                                                                                    21480455.658    87958927.423                          47.000  
G12  20556221.804   108023731.602                          53.250                                                                                                                                    20556230.664    84174352.654                          50.000  
G 2  20796890.342   109288459.596                          48.250                                                                    20796897.102    85159925.215                          39.750                                                                  
G20  24471555.258   128598895.416                          36.000                                                                    24471575.898   100206934.765                          17.250                                                                  
G25  21610100.496   113561955.648                          48.500                                                                                                                                    21610112.536    88489862.612                          49.250  
G 5  23669544.884   124384371.298                          44.500                                                                                                                                    23669558.784    96922906.186                          41.000  
G24  21950568.914   115351023.330                          43.250                                                                                                                                    21950584.354    89883915.084                          47.000  
G 6  24076447.660   126522659.766                          40.500                                                                                                                                    24076461.780    98589104.695                          39.250  
R22  20451249.144   109170261.474                          53.000                                                                                                                                    20451257.944    84910228.203                          48.000  
R12  21560867.540   115174324.046                          46.750                                                                                                1                                                                                                 
R11  19163135.716   102402071.358                          53.750                                                                                                                                    19163142.536    79646076.562                          49.500  
R21  20157298.448   107865902.553                          53.750                                                                                                                                    20157304.088    83895734.776                          48.000  
R10  21214818.480   113086911.745                          49.500                                                                                                                                    21214828.440    87956493.397                          38.750  
> 2017 11 15 18 42 47.0000000  0 13                     
G29  21480237.298   112879503.189                          50.750                                                                                                                                    21480248.638    87958081.019                          46.750  
G12  20556183.504   108023531.677                          53.000                                                                                                                                    20556192.304    84174196.866                          50.000  
G 2  20797278.022   109290500.163                          48.000                                                                    20797285.522    85161515.263                          39.500                                                                  
G20  24471013.218   128596043.069                          35.500                                                                    24471032.758   100204712.149                          17.250                                                                  
G25  21609701.976   113559858.380                          48.250                                                                                                                                    21609714.356    88488228.373                          49.000  
G 5  23669145.424   124382270.482                          44.750                                                                                                                                    23669159.924    96921269.193                          41.250  
G24  21951140.294   115354021.803                          43.500                                                                                                                                    21951154.314    89886251.552                          46.750  
G 6  24077085.160   126526006.766                          40.500                                                                                                                                    24077098.780    98591712.739                          39.500  
R22  20451019.444   109169032.486                          53.250                                                                                                                                    20451027.184    84909272.325                          48.500  
R12  21560191.380   115170712.540                          46.750                                                                                                1                                                                                                 
R11  19163079.616   102401772.450                          53.750                                                                                                                                    19163086.316    79645844.076                          49.500  
R21  20157709.368   107868100.784                          53.750                                                                                                                                    20157715.008    83897444.518                          48.500  
R10  21215448.120   113090272.851                          49.500                                                                                                                                    21215459.040    87959107.593                          38.750  
> 2017 11 15 18 42 48.0000000  0 13                     
G29  21480030.498   112878417.186                          50.500                                                                                                                                    21480041.998    87957234.789                          46.750  
G12  20556145.824   108023332.067                          52.750                                                                                                                                    20556155.024    84174041.324                          50.000  
G 2  20797666.622   109292541.271                          48.000                                                                    20797673.482    85163105.737                          40.000                                                                  
G20  24470469.118   128593190.497                          35.750                                                                    24470489.698   100202489.349                          17.750                                                                  
G25  21609302.856   113557761.284                          48.000                                                                                                                                    21609315.476    88486594.277                          49.000  
G 5  23668746.004   124380169.824                          44.750                                                                                                                                    23668759.784    96919632.325                          41.500  
G24  21951710.494   115357020.576                          44.000                                                                                                                                    21951725.334    89888588.258                          46.250  
G 6  24077721.600   126529353.898                          40.250                                                                                                                                    24077735.560    98594320.890                          39.250  
R22  20450789.564   109167804.015                          53.500                                                                                                                                    20450797.544    84908316.852                          48.500  
R12  21559515.800   115167101.376                          46.750                                                                                                1                                                                                                 
R11  19163024.056   102401474.346                          54.000                                                                                                                                    19163030.396    79645612.218                          49.500  
R21  20158120.068   107870299.269                          53.500                                                                                                                                    20158125.468    83899154.449                          48.750  
R10  21216078.700   113093634.453                          49.000                                                                                                                                    21216089.620    87961722.166                          38.750  
> 2017 11 15 18 42 49.0000000  0 13                     
G29  21479823.778   112877331.448                          50.750                                                                                                                                    21479835.038    87956388.764                          46.500  
G12  20556107.904   108023132.799                          53.000                                                                                                                                    20556117.404    84173886.048                          49.750  
G 2  20798055.242   109294582.960                          48.750                                                                    20798062.162    85164696.662                          40.000                                                                  
G20  24469926.698   128590337.803                          35.750                                                                    24469946.978   100200266.487                          17.250                                                                  
G25  21608903.356   113555664.349                          48.000                                                                                                                                    21608915.956    88484960.301                          49.000  
G 5  23668345.644   124378069.370                          45.000                                                                                                                                    23668359.604    96917995.608                          41.000  
G24  21952281.394   115360019.675                          44.250                                                                                                                                    21952295.694    89890925.208                          46.000  
G 6  24078358.620   126532701.242                          40.500                                                                                                                                    24078372.940    98596929.210                          38.750  
R22  20450559.584   109166576.086                          53.250                                                                                                                                    20450566.984    84907361.800                          48.500  
R12  21558839.800   115163490.556                          46.750                                                                                                1                                                                                                 
R11  19162967.836   102401177.055                          53.750                                                                                                                                    19162974.876    79645380.995                          49.250  
R21  20158530.548   107872498.089                          53.750                                                                                                                                    20158536.768    83900864.642                          49.000  
R10  21216709.760   113096996.586                          49.000                                                                                                                                    21216719.620    87964337.158                          39.000  
> 2017 11 15 18 42 50.0000000  0 13                     
G29  21479617.178   112876245.997                          50.250                                                                                                                                    21479628.218    87955542.959                          46.500  
G12  20556069.904   108022933.959                          53.000                                                                                                                                    20556078.644    84173731.112                          50.000  
G 2  20798443.822   109296625.291                          48.000                                                                    20798450.642    85166288.092                          40.000                                                                  
G20  24469384.378   128587485.063                          36.500                                                                    24469403.898   100198043.576                          17.250                                                                  
G25  21608504.616   113553567.692                          48.500                                                                                                                                    21608516.816    88483326.547                          48.500  
G 5  23667946.084   124375969.169                          43.500                                                                                                                                    23667960.284    96916359.095                          41.250  
G24  21952852.194   115363019.189                          44.000                                                                                                                                    21952866.794    89893262.494                          46.000  
G 6  24078995.400   126536048.850                          40.000                                                                                                                                    24079009.540    98599537.736                          39.250  
R22  20450329.844   109165348.752                          53.500                                                                                                                                    20450337.364    84906407.209                          48.250  
R12  21558162.920   115159880.174                          46.500                                                                                                1                                                                                                 
R11  19162913.076   102400880.656                          53.750                                                                                                                                    19162919.056    79645150.461                          49.250  
R21  20158941.608   107874697.315                          53.500                                                                                                                                    20158947.948    83902575.149                          48.500  
R10  21217341.180   113100359.302                          49.750                                                                                                                                    21217351.740    87966952.596                          39.000  
> 2017 11 15 18 42 51.0000000  0 13                     
G29  21479411.098   112875160.717                          50.250                                                                                                                                    21479422.538    87954697.290                          47.250  
G12  20556032.144   108022735.361                          53.250                                                                                                                                    20556041.184    84173576.358                          50.250  
G 2  20798832.202   109298668.091                          48.000                                                                    20798839.482    85167879.882                          39.750                                                                  
G20  24468840.998   128584632.067                          36.500                                                                    24468861.278   100195820.461                          16.750                                                                  
G25  21608105.716   113551471.091                          48.750                                                                                                                                    21608118.276    88481692.835                          48.500  
G 5  23667546.424   124373869.123                          43.000                                                                                                                                    23667560.264    96914722.702                          41.000  
G24  21953422.454   115366018.944                          43.000                                                                                                                                    21953437.894    89895599.959                          46.500  
G 6  24079632.260   126539396.544                          40.250                                                                                                                                    24079646.340    98602146.326                          38.500  
R22  20450099.564   109164121.866                          53.250                                                                                                                                    20450107.564    84905452.971                          48.250  
R12  21557488.160   115156270.047                          47.000                                                                                                1                                                                                                 
R11  19162857.536   102400584.990                          53.750                                                                                                                                    19162864.336    79644920.496                          49.250  
R21  20159352.688   107876896.753                          54.000                                                                                                                                    20159358.788    83904285.829                          49.000  
R10  21217970.360   113103722.439                          48.750                                                                                                                                    21217981.520    87969568.363                          38.750  
> 2017 11 15 18 42 52.0000000  0 13                     
G29  21479204.658   112874075.662                          50.750                                                                                                                                    21479215.638    87953851.791                          47.000  
G12  20555994.124   108022537.093                          53.250                                                                                                                                    20556003.344    84173421.868                          50.250  
G 2  20799221.302   109300711.464                          48.250                                                                    20799227.982    85169472.123                          39.500                                                                  
G20  24468298.458   128581778.943                          36.500                                                                    24468318.158   100193597.235                          17.750                                                                  
G25  21607707.016   113549374.665                          49.000                                                                                                                                    21607719.096    88480059.253                          49.000  
G 5  23667146.864   124371769.218                          43.000                                                                                                                                    23667160.884    96913086.415                          41.250  
G24  21953994.034   115369019.020                          43.250                                                                                                                                    21954008.474    89897937.681                          47.000  
G 6  24080269.740   126542744.414                          40.750                                                                                                                                    24080283.460    98604755.063                          38.500  
R22  20449869.844   109162895.485                          53.250                                                                                                                                    20449878.184    84904499.121                          48.250  
R12  21556812.580   115152660.295                          46.750                                                                                                1                                                                                                 
R11  19162802.596   102400290.146                          53.750                                                                                                                                    19162808.936    79644691.173                          49.500  
R21  20159763.948   107879096.506                          53.750                                                                                                                                    20159769.348    83905996.744                          48.500  
R10  21218602.120   113107086.062                          48.750                                                                                                                                    21218613.020    87972184.514                          39.250  
> 2017 11 15 18 42 53.0000000  0 13                     
G29  21478997.778   112872990.892                          50.250                                                                                                                                    21479009.458    87953006.522                          47.000  
G12  20555956.644   108022339.210                          53.000                                                                                                                                    20555965.444    84173267.673                          50.250  
G 2  20799610.362   109302755.431                          49.000                                                                    20799617.342    85171064.825                          39.000                                                                  
G20  24467755.578   128578925.658                          35.500                                                                    24467776.158   100191373.898                          17.750                                                                  
G25  21607308.116   113547278.439                          49.250                                                                                                                                    21607320.556    88478425.832                          49.000  
G 5  23666747.804   124369669.530                          43.750                                                                                                                                    23666761.364    96911450.298                          41.000  
G24  21954564.834   115372019.490                          43.500                                                                                                                                    21954579.274    89900275.706                          46.750  
G 6  24080906.920   126546092.502                          40.000                                                                                                                                    24080920.940    98607363.962                          38.500  
R22  20449639.844   109161669.646                          53.000                                                                                                                                    20449648.064    84903545.693                          48.000  
R12  21556136.620   115149050.939                          46.500                                                                                                1                                                                                                 
R11  19162746.896   102399996.165                          54.000                                                                                                                                    19162753.476    79644462.515                          49.250  
R21  20160174.748   107881296.581                          53.500                                                                                                                                    20160180.968    83907707.919                          48.500  
R10  21219233.340   113110450.222                          49.000                                                                                                                                    21219244.260    87974801.077                          38.750  
> 2017 11 15 18 42 54.0000000  0 13                     
G29  21478791.758   112871906.328                          50.000                                                                                                                                    21478802.318    87952161.410                          47.000  
G12  20555919.124   108022141.649                          53.500                                                                                                                                    20555927.804    84173113.730                          50.500  
G 2  20799999.582   109304799.961                          48.750                                                                    20800006.042    85172657.961                          39.250                                                                  
G20  24467212.138   128576072.245                          35.500                                                                    24467232.718   100189150.496                          17.750                                                                  
G25  21606909.056   113545182.387                          48.500                                                                                                                                    21606921.376    88476792.549                          49.000  
G 5  23666348.024   124367570.038                          43.250                                                                                                                                    23666361.684    96909814.336                          41.500  
G24  21955135.794   115375020.276                          43.000                                                                                                                                    21955150.334    89902613.974                          46.750  
G 6  24081543.280   126549440.793                          39.500                                                                                                                                    24081558.060    98609973.020                          38.250  
R22  20449410.484   109160444.284                          52.750                                                                                                                                    20449418.364    84902592.634                          48.000  
R12  21555461.400   115145441.920                          46.500                                                                                                1                                                                                                 
R11  19162692.496   102399702.994                          53.750                                                                                                                                    19162698.476    79644234.493                          49.500  
R21  20160586.428   107883496.906                          53.500                                                                                                                                    20160592.188    83909419.280                          48.250  
R10  21219864.500   113113814.874                          49.000                                                                                                                                    21219874.700    87977418.024                          39.500  
> 2017 11 15 18 42 55.0000000  0 13                     
G29  21478585.678   112870821.928                          49.750                                                                                                                                    21478596.458    87951316.425                          47.250  
G12  20555881.544   108021944.341                          53.250                                                                                                                                    20555890.484    84172959.985                          50.500  
G 2  20800388.522   109306844.950                          48.500                                                                    20800395.742    85174251.461                          39.500                                                                  
G20  24466669.258   128573218.606                          35.500                                                                    24466690.078   100186926.881                          18.500                                                                  
G25  21606510.376   113543086.429                          48.250                                                                                                                                    21606522.476    88475159.339                          49.000  
G 5  23665948.164   124365470.651                          42.250                                                                                                                                    23665962.364    96908178.451                          41.500  
G24  21955706.974   115378021.298                          43.500                                                                                                                                    21955721.534    89904952.424                          46.500  
G 6  24082181.360   126552789.130                          39.250                                                                                                                                    24082194.680    98612582.110                          38.000  
R22  20449180.944   109159219.385                          53.000                                                                                                                                    20449189.044    84901639.940                          48.500  
R12  21554785.380   115141833.197                          46.500                                                                                                1                                                                                                 
R11  19162638.036   102399410.544                          54.000                                                                                                                                    19162644.276    79644007.036                          49.750  
R21  20160997.988   107885697.457                          53.500                                                                                                                                    20161003.608    83911130.821                          48.250  
R10  21220495.520   113117179.956                          48.500                                                                                                                                    21220506.200    87980035.306                          39.500  
> 2017 11 15 18 42 56.0000000  0 13                     
G29  21478378.878   112869737.969                          50.000                                                                                                                                    21478389.838    87950471.783                          47.750  
G12  20555844.584   108021747.566                          53.500                                                                                                                                    20555853.624    84172806.650                          50.000  
G 2  20800777.882   109308890.725                          49.000                                                                    20800784.922    85175845.567                          39.500                                                                  
G20  24466126.718   128570364.980                          35.250                                                                    24466146.718   100184703.254                          17.250                                                                  
G25  21606111.716   113540990.839                          48.500                                                                                                                                    21606123.856    88473526.412                          49.000  
G 5  23665548.464   124363371.674                          42.000                                                                                                                                    23665562.904    96906542.892                          41.500  
G24  21956277.934   115381022.822                          44.500                                                                                                                                    21956292.234    89907291.270                          46.500  
G 6  24082817.900   126556137.847                          39.250                                                                                                                                    24082831.980    98615191.502                          38.500  
R22  20448951.804   109157995.189                          53.250                                                                                                                                    20448959.904    84900687.793                          48.500  
R12  21554110.400   115138225.038                          46.500                                                                                                1                                                                                                 
R11  19162583.196   102399119.109                          54.000                                                                                                                                    19162589.876    79643780.363                          49.500  
R21  20161409.068   107887898.559                          53.250                                                                                                                                    20161414.348    83912842.789                          48.500  
R10  21221127.320   113120545.746                          48.500                                                                                                                                    21221137.180    87982653.134                          39.250  
> 2017 11 15 18 42 57.0000000  0 13                     
G29  21478173.098   112868654.252                          50.000                                                                                                                                    21478183.998    87949627.337                          47.750  
G12  20555806.684   108021551.125                          53.000                                                                                                                                    20555815.364    84172653.581                          50.000  
G 2  20801167.162   109310937.051                          49.000                                                                    20801174.142    85177440.115                          39.250                                                                  
G20  24465582.958   128567511.212                          35.000                                                                    24465603.838   100182479.549                          17.750                                                                  
G25  21605712.976   113538895.402                          48.750                                                                                                                                    21605725.536    88471893.610                          49.000  
G 5  23665148.724   124361272.850                          42.000                                                                                                                                    23665163.664    96904907.451                          41.500  
G24  21956849.274   115384024.695                          44.500                                                                                                                                    21956864.294    89909630.388                          47.000  
G 6  24083455.160   126559486.776                          40.000                                                                                                                                    24083469.640    98617801.055                          38.500  
R22  20448723.024   109156771.536                          53.000                                                                                                                                    20448730.184    84899736.062                          48.500  
R12  21553434.300   115134617.212                          46.500                                                                                                1                                                                                                 
R11  19162529.076   102398828.479                          53.500                                                                                                                                    19162535.776    79643554.315                          49.250  
R21  20161820.128   107890100.001                          53.000                                                                                                                                    20161825.768    83914555.020                          48.000  
R10  21221758.800   113123912.052                          48.500                                                                                                                                    21221769.580    87985271.366                          39.500  
> 2017 11 15 18 42 58.0000000  0 13                     
G29  21477966.558   112867570.640                          49.500                                                                                                                                    21477977.818    87948782.962                          47.000  
G12  20555769.404   108021354.926                          53.500                                                                                                                                    20555778.724    84172500.706                          50.000  
G 2  20801556.542   109312983.877                          48.500                                                                    20801563.882    85179035.042                          39.000                                                                  
G20  24465039.958   128564657.210                          34.500                                                                    24465060.418   100180255.670                          17.250                                                                  
G25  21605313.736   113536800.048                          48.250                                                                                                                                    21605326.416    88470260.861                          49.500  
G 5  23664749.844   124359174.146                          42.750                                                                                                                                    23664764.264    96903272.106                          41.500  
G24  21957420.754   115387026.839                          44.250                                                                                                                                    21957435.294    89911969.715                          46.500  
G 6  24084092.040   126562835.736                          39.750                                                                                                                                    24084106.640    98620410.634                          37.750  
R22  20448493.744   109155548.305                          53.000                                                                                                                                    20448501.024    84898784.660                          48.750  
R12  21552758.560   115131009.648                          46.500                                                                                                1                                                                                                 
R11  19162474.696   102398538.570                          54.000                                                                                                                                    19162481.036    79643328.834                          49.500  
R21  20162231.108   107892301.632                          53.250                                                                                                                                    20162237.568    83916267.402                          48.000  
R10  21222390.540   113127278.769                          48.750                                                                                                                                    21222401.100    87987889.917                          39.500  
> 2017 11 15 18 42 59.0000000  0 13                     
G29  21477760.318   112866487.339                          49.000                                                                                                                                    21477771.118    87947938.838                          47.250  
G12  20555732.204   108021159.131                          53.500                                                                                                                                    20555741.184    84172348.137                          50.250  
G 2  20801946.642   109315031.310                          49.000                                                                    20801953.142    85180630.442                          39.500                                                                  
G20  24464496.998   128561803.132                          35.000                                                                    24464517.098   100178031.723                          17.250                                                                  
G25  21604915.516   113534704.924                          48.250                                                                                                                                    21604927.436    88468628.304                          49.250  
G 5  23664350.664   124357075.674                          43.000                                                                                                                                    23664365.044    96901636.943                          41.500  
G24  21957992.014   115390029.319                          44.250                                                                                                                                    21958006.974    89914309.304                          46.500  
G 6  24084729.800   126566184.983                          39.000                                                                                                                                    24084744.580    98623020.441                          37.750  
R22  20448264.664   109154325.644                          53.250                                                                                                                                    20448272.304    84897833.706                          49.000  
R12  21552083.680   115127402.485                          46.500                                                                                                1                                                                                                 
R11  19162420.456   102398249.551                          53.750                                                                                                                                    19162426.436    79643104.041                          49.750  
R21  20162643.148   107894503.588                          53.500                                                                                                                                    20162649.148    83917980.034                          48.000  
R10  21223021.900   113130646.059                          48.750                                                                                                                                    21223033.160    87990508.916                          39.500  
> 2017 11 15 18 43  0.0000000  0 13                     
G29  21477554.258   112865404.294                          48.500                                                                                                                                    21477565.418    87947094.906                          47.500  
G12  20555694.944   108020963.678                          53.250                                                                                                                                    20555703.984    84172195.832                          50.500  
G 2  20802335.882   109317079.323                          49.500                                                                    20802342.742    85182226.299                          39.750                                                                  
G20  24463954.258   128558948.901                          34.750                                                                    24463973.958   100175807.664                          17.250                                                                  
G25  21604516.296   113532609.972                          48.500                                                                                                                                    21604528.736    88466995.872                          49.250  
G 5  23663950.504   124354977.386                          43.000                                                                                                                                    23663966.164    96900001.921                          41.750  
G24  21958563.854   115393032.144                          44.250                                                                                                                                    21958578.054    89916649.167                          46.500  
G 6  24085366.640   126569534.377                          39.000                                                                                                                                    24085381.020    98625630.357                          37.500  
R22  20448035.664   109153103.512                          53.500                                                                                                                                    20448043.664    84896883.165                          48.500  
R12  21551408.940   115123795.667                          46.500                                                                                                1                                                                                                 
R11  19162366.576   102397961.373                          54.000                                                                                                                                    19162372.676    79642879.899                          49.750  
R21  20163054.048   107896705.827                          53.250                                                                                                                                    20163060.848    83919692.884                          48.000  
R10  21223653.240   113134013.852                          49.000                                                                                                                                    21223664.620    87993128.301                          39.000  
> 2017 11 15 18 43  1.0000000  0 13                     
G29  21477348.298   112864321.460                          48.500                                                                                                                                    21477358.978    87946251.143                          47.250  
G12  20555657.804   108020768.540                          53.500                                                                                                                                    20555666.904    84172043.780                          50.500  
G 2  20802725.762   109319127.891                          49.000                                                                    20802732.862    85183822.586                          39.500                                                                  
G20  24463409.918   128556094.484                          35.000                                                                    24463430.798   100173583.463                          16.750                                                                  
G25  21604117.776   113530515.181                          49.000                                                                                                                                    21604130.676    88465363.570                          49.250  
G 5  23663551.184   124352879.302                          43.250                                                                                                                                    23663566.024    96898367.055                          41.000  
G24  21959135.454   115396035.328                          44.250                                                                                                                                    21959149.834    89918989.311                          46.750  
G 6  24086003.820   126572883.958                          39.000                                                                                                                                    24086018.760    98628240.419                          37.750  
R22  20447806.644   109151881.879                          53.500                                                                                                                                    20447814.864    84895933.010                          48.250  
R12  21550733.260   115120189.230                          46.250                                                                                                1                                                                                                 
R11  19162312.736   102397674.029                          54.000                                                                                                                                    19162319.076    79642656.410                          49.750  
R21  20163465.608   107898908.363                          53.500                                                                                                                                    20163472.068    83921405.972                          48.250  
R10  21224285.400   113137382.152                          49.000                                                                                                                                    21224295.480    87995748.084                          39.750  
> 2017 11 15 18 43  2.0000000  0 13                     
G29  21477142.498   112863238.825                          48.500                                                                                                                                    21477153.298    87945407.532                          47.250  
G12  20555620.964   108020573.699                          53.500                                                                                                                                    20555630.004    84171891.954                          50.000  
G 2  20803115.602   109321176.955                          49.500                                                                    20803122.942    85185419.257                          38.750                                                                  
G20  24462867.338   128553239.875                          35.000                                                                    24462887.818   100171359.088                          16.750                                                                  
G25  21603719.236   113528420.534                          49.000                                                                                                                                    21603731.956    88463731.379                          49.500  
G 5  23663152.964   124350781.356                          43.000                                                                                                                                    23663167.224    96896732.304                          41.250  
G24  21959706.734   115399038.755                          44.500                                                                                                                                    21959721.394    89921329.635                          46.250  
G 6  24086640.820   126576233.643                          39.250                                                                                                                                    24086656.020    98630850.556                          37.750  
R22  20447578.484   109150660.724                          54.000                                                                                                                                    20447585.764    84894983.223                          48.250  
R12  21550058.320   115116583.098                          46.250                                                                                                1                                                                                                 
R11  19162259.176   102397387.420                          54.000                                                                                                                                    19162265.636    79642433.493                          49.500  
R21  20163878.148   107901111.177                          53.500                                                                                                                                    20163883.888    83923119.272                          48.500  
R10  21224918.020   113140750.884                          49.000                                                                                                                                    21224928.120    87998368.206                          39.500  
> 2017 11 15 18 43  3.0000000  0 13                     
G29  21476936.498   112862156.546                          48.500                                                                                                                                    21476947.238    87944564.201                          47.000  
G12  20555583.824   108020379.334                          53.500                                                                                                                                    20555592.744    84171740.505                          50.250  
G 2  20803505.762   109323226.745                          48.750                                                                    20803512.462    85187016.498                          39.250                                                                  
G20  24462323.238   128550385.280                          35.000                                                                    24462344.338   100169134.747                          16.750                                                                  
G25  21603320.796   113526326.169                          49.000                                                                                                                                    21603333.816    88462099.406                          49.000  
G 5  23662752.924   124348683.740                          42.000                                                                                                                                    23662767.764    96895097.802                          41.000  
G24  21960278.214   115402042.617                          43.500                                                                                                                                    21960292.694    89923670.305                          46.500  
G 6  24087278.680   126579583.705                          38.500                                                                                                                                    24087293.580    98633460.997                          38.000  
R22  20447349.624   109149440.204                          53.500                                                                                                                                    20447357.144    84894033.932                          48.250  
R12  21549383.300   115112977.471                          46.500                                                                                                1                                                                                                 
R11  19162205.516   102397101.768                          54.250                                                                                                                                    19162212.076    79642211.321                          49.500  
R21  20164290.168   107903314.484                          53.000                                                                                                                                    20164295.908    83924832.957                          48.500  
R10  21225549.800   113144120.274                          48.750                                                                                                                                    21225560.480    88000988.833                          39.750  
> 2017 11 15 18 43  4.0000000  0 13                     
G29  21476730.618   112861074.416                          49.000                                                                                                                                    21476741.458    87943720.981                          47.000  
G12  20555546.684   108020185.200                          53.500                                                                                                                                    20555555.724    84171589.234                          50.250  
G 2  20803895.982   109325276.979                          48.750                                                                    20803902.802    85188614.081                          39.500                                                                  
G20  24461780.678   128547530.371                          35.000                                                                    24461801.558   100166910.132                          16.250                                                                  
G25  21602922.456   113524231.888                          49.000                                                                                                                                    21602934.596    88460467.501                          49.250  
G 5  23662354.424   124346586.192                          41.500                                                                                                                                    23662368.624    96893463.356                          41.250  
G24  21960849.734   115405046.724                          43.250                                                                                                                                    21960864.114    89926011.157                          46.500  
G 6  24087915.580   126582933.793                          39.000                                                                                                                                    24087931.360    98636071.453                          37.500  
R22  20447121.044   109148220.119                          53.500                                                                                                                                    20447128.664    84893084.983                          48.500  
R12  21548709.000   115109372.089                          46.750                                                                                                1                                                                                                 
R11  19162152.476   102396816.844                          54.000                                                                                                                                    19162158.596    79641989.716                          49.250  
R21  20164700.608   107905517.980                          53.000                                                                                                                                    20164707.528    83926546.782                          48.500  
R10  21226181.920   113147490.061                          49.250                                                                                                                                    21226192.260    88003609.778                          39.250  
> 2017 11 15 18 43  5.0000000  0 13                     
G29  21476525.118   112859992.556                          49.250                                                                                                                                    21476535.438    87942877.977                          47.000  
G12  20555509.944   108019991.439                          52.750                                                                                                                                    20555518.804    84171438.253                          50.000  
G 2  20804286.122   109327327.817                          48.500                                                                    20804293.162    85190212.140                          39.250                                                                  
G20  24461236.818   128544675.410                          35.000                                                                    24461258.398   100164685.477                          15.500                                                                  
G25  21602523.236   113522137.787                          47.000                                                                                                                                    21602536.396    88458835.737                          49.000  
G 5  23661954.944   124344488.847                          41.750                                                                                                                                    23661969.444    96891829.059                          41.000  
G24  21961421.154   115408051.196                          43.250                                                                                                                                    21961436.514    89928352.306                          46.500  
G 6  24088553.740   126586284.109                          39.500                                                                                                                                    24088568.520    98638682.085                          37.750  
R22  20446892.784   109147000.592                          53.750                                                                                                                                    20446900.064    84892136.460                          49.000  
R12  21548033.780   115105767.121                          46.500                                                                                                1                                                                                                 
R11  19162099.296   102396532.779                          54.000                                                                                                                                    19162105.516    79641768.774                          49.750  
R21  20165112.648   107907721.785                          53.000                                                                                                                                    20165118.768    83928260.854                          49.000  
R10  21226813.620   113150860.387                          49.000                                                                                                                                    21226825.360    88006231.136                          39.250  
> 2017 11 15 18 43  6.0000000  0 13                     
G29  21476319.338   112858910.988                          49.250                                                                                                                                    21476329.678    87942035.201                          47.000  
G12  20555473.264   108019798.093                          53.000                                                                                                                                    20555482.244    84171287.592                          50.250  
G 2  20804676.822   109329379.288                          49.000                                                                    20804683.862    85191810.683                          39.500                                                                  
G20  24460693.798   128541820.300                          34.750                                                                    24460714.498   100162460.742                          15.500                                                                  
G25  21602124.856   113520043.950                          47.500                                                                                                                                    21602137.836    88457204.175                          49.000  
G 5  23661555.284   124342391.789                          41.750                                                                                                                                    23661571.124    96890194.995                          41.250  
G24  21961993.354   115411056.051                          43.750                                                                                                                                    21962007.794    89930693.741                          47.000  
G 6  24089192.180   126589634.667                          39.250                                                                                                                                    24089205.800    98641292.906                          37.500  
R22  20446664.384   109145781.674                          54.000                                                                                                                                    20446672.144    84891188.417                          48.750  
R12  21547357.880   115102162.568                          46.750                                                                                                1                                                                                                 
R11  19162045.836   102396249.611                          54.000                                                                                                                                    19162051.936    79641548.533                          49.500  
R21  20165524.568   107909925.937                          53.250                                                                                                                                    20165531.028    83929975.198                          48.750  
R10  21227446.320   113154231.296                          49.000                                                                                                                                    21227458.060    88008852.948                          39.250  
> 2017 11 15 18 43  7.0000000  0 13                     
G29  21476113.458   112857829.626                          49.500                                                                                                                                    21476123.778    87941192.585                          46.500  
G12  20555436.704   108019605.028                          52.500                                                                                                                                    20555445.384    84171137.154                          50.250  
G 2  20805067.542   109331431.261                          49.250                                                                    20805074.002    85193409.630                          40.000                                                                  
G20  24460150.298   128538965.021                          35.750                                                                    24460171.458   100160235.829                          16.750                                                                  
G25  21601726.376   113517950.239                          47.500                                                                                                                                    21601739.576    88455572.710                          49.000  
G 5  23661156.084   124340294.880                          41.000                                                                                                                                    23661171.224    96888561.042                          41.250  
G24  21962565.714   115414061.204                          44.250                                                                                                                                    21962580.034    89933035.410                          47.000  
G 6  24089829.480   126592985.378                          39.000                                                                                                                                    24089843.860    98643903.843                          37.500  
R22  20446436.144   109144563.231                          53.750                                                                                                                                    20446443.904    84890240.738                          48.750  
R12  21546683.960   115098558.327                          46.500                                                                                                1                                                                                                 
R11  19161993.416   102395967.199                          54.000                                                                                                                                    19161999.856    79641328.881                          49.500  
R21  20165936.788   107912130.335                          53.250                                                                                                                                    20165942.428    83931689.726                          48.500  
R10  21228078.720   113157602.666                          49.000                                                                                                                                    21228089.880    88011475.113                          39.250  
> 2017 11 15 18 43  8.0000000  0 13                     
G29  21475907.538   112856748.502                          50.000                                                                                                                                    21475917.858    87940350.155                          46.500  
G12  20555399.824   108019412.310                          52.750                                                                                                                                    20555409.104    84170986.986                          50.250  
G 2  20805457.682   109333483.799                          49.000                                                                    20805464.562    85195009.010                          40.000                                                                  
G20  24459607.418   128536109.611                          35.000                                                                    24459627.778   100158010.801                          16.250                                                                  
G25  21601328.316   113515856.714                          47.500                                                                                                                                    21601340.756    88453941.396                          49.250  
G 5  23660757.324   124338198.181                          41.000                                                                                                                                    23660773.044    96886927.253                          41.500  
G24  21963137.154   115417066.698                          44.750                                                                                                                                    21963152.174    89935377.348                          47.500  
G 6  24090467.500   126596336.240                          39.500                                                                                                                                    24090481.460    98646514.909                          37.250  
R22  20446208.224   109143345.321                          53.500                                                                                                                                    20446215.384    84889293.482                          48.250  
R12  21546008.860   115094954.427                          46.500                                                                                                1                                                                                                 
R11  19161940.556   102395685.624                          54.000                                                                                                                                    19161947.016    79641109.880                          49.500  
R21  20166349.808   107914335.059                          53.500                                                                                                                                    20166355.448    83933404.518                          48.500  
R10  21228712.020   113160974.532                          49.000                                                                                                                                    21228722.940    88014097.669                          39.500  
> 2017 11 15 18 43  9.0000000  0 13                     
G29  21475701.838   112855667.588                          50.000                                                                                                                                    21475712.398    87939507.889                          46.500  
G12  20555363.244   108019219.936                          53.000                                                                                                                                    20555371.624    84170837.084                          50.500  
G 2  20805848.542   109335536.910                          49.000                                                                    20805855.642    85196608.834                          39.750                                                                  
G20  24459063.178   128533254.040                          35.500                                                                    24459084.458   100155785.690                          16.250                                                                  
G25  21600929.916   113513763.329                          48.000                                                                                                                                    21600942.476    88452310.186                          49.500  
G 5  23660358.704   124336101.619                          41.250                                                                                                                                    23660373.944    96885293.576                          41.500  
G24  21963709.394   115420072.515                          44.500                                                                                                                                    21963723.874    89937719.543                          47.250  
G 6  24091104.020   126599687.245                          39.000                                                                                                                                    24091118.860    98649126.084                          37.750  
R22  20445980.184   109142127.889                          53.500                                                                                                                                    20445987.584    84888346.594                          48.250  
R12  21545335.500   115091350.870                          47.000                                                                                                1                                                                                                 
R11  19161888.136   102395404.845                          54.000                                                                                                                                    19161894.356    79640891.490                          49.250  
R21  20166761.108   107916540.116                          53.250                                                                                                                                    20166766.628    83935119.554                          48.500  
R10  21229344.600   113164346.884                          49.250                                                                                                                                    21229354.940    88016720.601                          39.500  
> 2017 11 15 18 43 10.0000000  0 13                     
G29  21475496.278   112854586.940                          49.750                                                                                                                                    21475506.958    87938665.821                          47.250  
G12  20555326.604   108019027.904                          52.500                                                                                                                                    20555335.764    84170687.445                          50.250  
G 2  20806239.422   109337590.588                          48.750                                                                    20806246.222    85198209.105                          39.250                                                                  
G20  24458519.818   128530398.286                          35.250                                                                    24458541.458   100153560.425                          16.750                                                                  
G25  21600531.476   113511670.143                          47.250                                                                                                                                    21600544.496    88450679.135                          49.250  
G 5  23659959.564   124334005.301                          41.750                                                                                                                                    23659974.884    96883660.092                          41.500  
G24  21964281.174   115423078.679                          43.750                                                                                                                                    21964296.014    89940062.008                          47.250  
G 6  24091743.360   126603038.499                          39.500                                                                                                                                    24091756.740    98651737.448                          37.500  
R22  20445751.524   109140910.997                          53.750                                                                                                                                    20445758.924    84887400.124                          48.000  
R12  21544660.260   115087747.702                          47.000                                                                                                1                                                                                                 
R11  19161835.656   102395124.862                          54.000                                                                                                                                    19161842.216    79640673.728                          49.000  
R21  20167172.388   107918745.507                          53.250                                                                                                                                    20167179.088    83936834.860                          48.000  
R10  21229976.980   113167719.771                          48.750                                                                                                                                    21229988.260    88019343.951                          39.000  
> 2017 11 15 18 43 11.0000000  0 13                     
G29  21475290.878   112853506.618                          49.000                                                                                                                                    21475301.318    87937824.016                          47.000  
G12  20555290.264   108018836.316                          51.750                                                                                                                                    20555299.304    84170538.157                          50.250  
G 2  20806630.162   109339644.918                          48.250                                                                    20806637.202    85199809.880                          39.500                                                                  
G20  24457977.078   128527542.555                          35.250                                                                    24457997.598   100151335.225                          15.500                                                                  
G25  21600132.996   113509577.225                          47.500                                                                                                                                    21600146.136    88449048.296                          49.000  
G 5  23659561.064   124331909.280                          41.250                                                                                                                                    23659575.904    96882026.833                          41.250  
G24  21964853.774   115426085.269                          43.750                                                                                                                                    21964868.034    89942404.804                          47.000  
G 6  24092381.500   126606390.006                          39.000                                                                                                                                    24092394.280    98654349.010                          37.250  
R22  20445523.764   109139694.707                          54.000                                                                                                                                    20445531.164    84886454.117                          48.000  
R12  21543985.040   115084144.960                          47.000                                                                                                1                                                                                                 
R11  19161783.616   102394845.827                          54.000                                                                                                                                    19161789.716    79640456.699                          49.250  
R21  20167585.128   107920951.294                          53.500                                                                                                                                    20167591.008    83938550.472                          48.250  
R10  21230610.300   113171093.257                          49.000                                                                                                                                    21230621.080    88021967.772                          39.500  
