     3.01           OBSERVATION DATA    M: Mixed            RINEX VERSION / TYPE
CONVBIN 2.4.3 Emlid                     20171115 194504 UTC PGM / RUN BY / DATE 
log: /home/reach/logs/ref_201711151829.rtcm3                COMMENT             
format: RTCM 3, station ID: 0                               COMMENT             
                                                            MARKER NAME         
                                                            MARKER NUMBER       
                                                            MARKER TYPE         
                                                            OBSERVER / AGENCY   
                    TRIMBLE NETR8       4.85,12/FEB/2014    REC # / TYPE / VERS 
4951353663          TRM59800.00     NONE                    ANT # / TYPE        
  3467519.4064 -4300378.5382 -3177517.7346                  APPROX POSITION XYZ 
        0.0069        0.0000        0.0000                  ANTENNA: DELTA H/E/N
G   16 C1C L1C D1C S1C C1W L1W D1W S1W C2W L2W D2W S2W C2X  SYS / # / OBS TYPES 
       L2X D2X S2X                                          SYS / # / OBS TYPES 
R   16 C1C L1C D1C S1C C1P L1P D1P S1P C2C L2C D2C S2C C2P  SYS / # / OBS TYPES 
       L2P D2P S2P                                          SYS / # / OBS TYPES 
E    4 C1X L1X D1X S1X                                      SYS / # / OBS TYPES 
J    8 C1C L1C D1C S1C C2X L2X D2X S2X                      SYS / # / OBS TYPES 
S    4 C1C L1C D1C S1C                                      SYS / # / OBS TYPES 
C    4 C1I L1I D1I S1I                                      SYS / # / OBS TYPES 
  2017    11    15    18    29   27.0000000     GPS         TIME OF FIRST OBS   
  2017    11    15    18    32    7.0000000     GPS         TIME OF LAST OBS    
                                                            END OF HEADER       
> 2017 11 15 18 29 27.0000000  0  6                     
R20  23473563.924   125523777.488                          33.500                                                                                                                                    23473577.204    97629602.614                          36.750  
R22  20667116.944   110322566.256                          52.500                                                                                                                                    20667125.644    85806463.034                          48.000  
R12  22120243.396   118162399.283                          45.000                                                                                                1                                                                                                 
R11  19256128.892   102898997.747                          54.250                                                                                                                                    19256135.592    80032574.898                          49.250  
R21  19849611.448   106219409.651                          54.250                                                                                                                                    19849616.728    82615129.100                          48.750  
R10  20743427.184   110574149.251                          51.500                                                                                                                                    20743437.044    86002126.045                          40.500  
> 2017 11 15 18 29 28.0000000  0 14                     
G29  21660555.196   113827069.329                          50.250                                                                                                                                    21660566.236    88696442.103                          46.500  
G12  20606475.664   108287817.508                          55.000                                                                                                                                    20606484.764    84380133.707                          50.000  
G 2  20523149.144   107849940.595                          51.000                                                                    20523156.184    84039001.114                          41.000                                                                  
G32  25632485.630   134699612.208                          31.500                                                                                                                                    25632501.190   104960736.967                          30.500  
G25  21938156.054   115285893.600                          48.000                                                                                                                                    21938169.034    89833189.595                          47.500  
G 5  23998649.060   126113809.435                          40.750                                                                                                                                    23998664.780    98270515.522                          40.000  
G24  21517288.398   113074132.939                          46.250                                                                                                                                    21517302.598    88109718.065                          49.000  
G 6  23581041.264   123919287.553                          42.500                                                                                                                                    23581056.344    96560503.352                          42.000  
R20  23474249.224   125527432.266                          34.000                                                                                                                                    23474260.724    97632445.222                          36.750  
R22  20666806.544   110320909.421                          52.250                                                                                                                                    20666815.104    85805174.385                          47.750  
R12  22119522.756   118158547.590                          45.000                                                                                                1                                                                                                 
R11  19255953.052   102898061.416                          54.000                                                                                                                                    19255959.752    80031846.638                          49.500  
R21  19849968.448   106221320.415                          54.500                                                                                                                                    19849974.188    82616615.257                          48.750  
R10  20743974.644   110577068.472                          51.000                                                                                                                                    20743984.384    86004396.540                          40.250  
> 2017 11 15 18 29 29.0000000  0 14                     
G29  21660310.116   113825780.779                          50.000                                                                                                                                    21660321.496    88695438.036                          46.500  
G12  20606388.984   108287361.928                          54.750                                                                                                                                    20606398.364    84379778.704                          50.000  
G 2  20523445.024   107851496.672                          51.250                                                                    20523452.584    84040213.641                          40.750                                                                  
G32  25632711.230   134700804.762                          31.250                                                                                                                                    25632729.010   104961666.218                          30.500  
G25  21937734.694   115283677.531                          47.500                                                                                                                                    21937746.914    89831462.785                          47.750  
G 5  23998226.460   126111587.102                          40.750                                                                                                                                    23998242.460    98268783.842                          40.500  
G24  21517801.858   113076830.091                          46.000                                                                                                                                    21517816.418    88111819.736                          48.750  
G 6  23581644.684   123922454.962                          42.750                                                                                                                                    23581659.344    96562971.465                          42.000  
R20  23474932.504   125531086.857                          34.250                                                                                                                                    23474944.944    97635287.678                          36.500  
R22  20666496.584   110319252.946                          52.000                                                                                                                                    20666505.144    85803886.016                          47.750  
R12  22118800.596   118154695.934                          45.000                                                                                                1                                                                                                 
R11  19255778.432   102897125.668                          54.000                                                                                                                                    19255785.012    80031118.836                          49.000  
R21  19850325.708   106223231.412                          54.250                                                                                                                                    19850331.108    82618101.579                          49.000  
R10  20744522.424   110579988.133                          51.000                                                                                                                                    20744532.524    86006667.391                          40.000  
> 2017 11 15 18 29 30.0000000  0 14                     
G29  21660065.076   113824492.635                          50.000                                                                                                                                    21660076.336    88694434.292                          46.500  
G12  20606302.344   108286906.790                          55.000                                                                                                                                    20606311.504    84379424.055                          49.250  
G 2  20523741.384   107853053.529                          51.250                                                                    20523748.644    84041426.776                          41.000                                                                  
G32  25632938.290   134701997.810                          31.000                                                                                                                                    25632955.410   104962595.862                          30.250  
G25  21937312.694   115281461.734                          47.250                                                                                                                                    21937325.414    89829736.195                          47.750  
G 5  23997803.380   126109365.062                          40.500                                                                                                                                    23997819.400    98267052.389                          40.250  
G24  21518315.698   113079527.827                          46.500                                                                                                                                    21518329.558    88113921.868                          48.500  
G 6  23582247.084   123925622.811                          42.500                                                                                                                                    23582261.864    96565439.919                          42.000  
R20  23475616.144   125534741.398                          33.500                                                                                                                                    23475627.284    97638130.096                          36.000  
R22  20666186.284   110317597.195                          52.250                                                                                                                                    20666195.104    85802598.213                          48.000  
R12  22118080.596   118150844.698                          45.250                                                                                                1                                                                                                 
R11  19255603.072   102896190.828                          54.250                                                                                                                                    19255609.992    80030391.737                          49.000  
R21  19850683.048   106225142.982                          54.000                                                                                                                                    19850689.268    82619588.360                          49.250  
R10  20745070.104   110582908.530                          51.000                                                                                                                                    20745080.564    86008938.809                          40.000  
> 2017 11 15 18 29 31.0000000  0 14                     
G29  21659819.516   113823204.723                          50.000                                                                                                                                    21659831.536    88693430.734                          47.000  
G12  20606215.684   108286451.919                          55.000                                                                                                                                    20606224.544    84379069.612                          49.250  
G 2  20524037.724   107854611.011                          50.500                                                                    20524044.664    84042640.401                          40.750                                                                  
G32  25633164.890   134703191.155                          31.000                                                                                                                                    25633182.490   104963525.743                          29.500  
G25  21936891.194   115279246.046                          47.500                                                                                                                                    21936904.294    89828009.688                          47.750  
G 5  23997380.240   126107143.073                          41.000                                                                                                                                    23997396.200    98265320.973                          40.250  
G24  21518828.938   113082225.886                          46.500                                                                                                                                    21518843.138    88116024.241                          48.750  
G 6  23582849.864   123928790.906                          42.250                                                                                                                                    23582864.764    96567908.560                          42.000  
R20  23476299.024   125538395.933                          33.500                                                                                                                                    23476310.884    97640972.518                          36.000  
R22  20665876.224   110315941.946                          52.250                                                                                                                                    20665884.204    85801310.797                          47.750  
R12  22117359.676   118146993.670                          45.250                                                                                                1                                                                                                 
R11  19255428.532   102895256.758                          54.500                                                                                                                                    19255435.212    80029665.240                          49.500  
R21  19851040.288   106227054.950                          54.000                                                                                                                                    19851046.628    82621075.443                          49.250  
R10  20745618.404   110585829.470                          51.500                                                                                                                                    20745627.784    86011210.652                          40.000  
> 2017 11 15 18 29 32.0000000  0 14                     
G29  21659574.836   113821917.043                          50.500                                                                                                                                    21659586.696    88692427.349                          46.500  
G12  20606129.084   108285997.314                          55.000                                                                                                                                    20606137.824    84378715.378                          49.750  
G 2  20524334.144   107856169.084                          50.500                                                                    20524341.484    84043854.480                          40.750                                                                  
G32  25633393.270   134704384.762                          31.750                                                                                                                                    25633409.410   104964455.835                          29.500  
G25  21936469.514   115277030.439                          48.000                                                                                                                                    21936482.354    89826283.241                          48.000  
G 5  23996957.600   126104921.168                          41.500                                                                                                                                    23996974.040    98263589.622                          40.000  
G24  21519342.538   113084924.346                          46.750                                                                                                                                    21519356.378    88118126.938                          48.750  
G 6  23583452.764   123931959.191                          42.500                                                                                                                                    23583467.204    96570377.349                          42.250  
R20  23476982.064   125542050.324                          33.500                                                                                                                                    23476994.164    97643814.820                          36.000  
R22  20665565.864   110314287.225                          52.500                                                                                                                                    20665573.724    85800023.796                          47.500  
R12  22116639.416   118143142.861                          45.000                                                                                                1                                                                                                 
R11  19255254.072   102894323.412                          54.500                                                                                                                                    19255260.992    80028939.304                          49.500  
R21  19851397.008   106228967.301                          54.000                                                                                                                                    19851403.928    82622562.829                          49.250  
R10  20746166.304   110588750.963                          51.500                                                                                                                                    20746176.384    86013482.915                          40.000  
> 2017 11 15 18 29 33.0000000  0 14                     
G29  21659329.516   113820629.648                          51.000                                                                                                                                    21659341.376    88691424.188                          47.000  
G12  20606042.984   108285543.021                          54.750                                                                                                                                    20606052.184    84378361.384                          50.000  
G 2  20524630.784   107857727.833                          50.500                                                                    20524637.524    84045069.089                          40.750                                                                  
G32  25633620.710   134705578.686                          31.500                                                                                                                                    25633636.710   104965386.159                          31.000  
G25  21936048.254   115274814.950                          47.750                                                                                                                                    21936060.574    89824556.886                          48.250  
G 5  23996534.980   126102699.384                          41.750                                                                                                                                    23996550.640    98261858.370                          39.500  
G24  21519855.738   113087623.267                          46.250                                                                                                                                    21519869.978    88120229.988                          48.750  
G 6  23584055.684   123935127.777                          42.500                                                                                                                                    23584070.644    96572846.378                          42.000  
R20  23477666.704   125545704.610                          34.250                                                                                                                                    23477677.604    97646657.037                          35.250  
R22  20665256.144   110312633.088                          52.000                                                                                                                                    20665264.364    85798737.252                          47.750  
R12  22115918.356   118139292.317                          45.000                                                                                                1                                                                                                 
R11  19255079.412   102893390.835                          54.750                                                                                                                                    19255086.232    80028213.963                          49.500  
R21  19851754.888   106230880.073                          54.250                                                                                                                                    19851761.348    82624050.542                          48.750  
R10  20746714.544   110591673.068                          51.500                                                                                                                                    20746724.184    86015755.666                          40.250  
> 2017 11 15 18 29 34.0000000  0 14                     
G29  21659084.316   113819342.472                          51.000                                                                                                                                    21659095.996    88690421.194                          46.500  
G12  20605956.424   108285088.971                          54.500                                                                                                                                    20605965.344    84378007.574                          50.000  
G 2  20524927.824   107859287.165                          50.500                                                                    20524934.464    84046284.159                          41.250                                                                  
G32  25633848.470   134706772.887                          30.500                                                                                                                                    25633863.610   104966316.722                          30.500  
G25  21935626.494   115272599.553                          48.000                                                                                                                                    21935639.274    89822830.605                          48.000  
G 5  23996111.780   126100477.691                          41.750                                                                                                                                    23996127.560    98260127.187                          39.000  
G24  21520370.158   113090322.542                          45.750                                                                                                                                    21520384.118    88122333.314                          48.500  
G 6  23584658.424   123938296.593                          42.500                                                                                                                                    23584673.384    96575315.583                          42.000  
R20  23478351.484   125549358.809                          33.500                                                                                                                                    23478361.584    97649499.183                          35.000  
R22  20664946.924   110310979.389                          52.250                                                                                                                                    20664954.664    85797451.044                          47.250  
R12  22115197.896   118135441.962                          44.750                                                                                                1                                                                                                 
R11  19254904.792   102892458.980                          54.500                                                                                                                                    19254910.912    80027489.190                          49.750  
R21  19852112.708   106232793.178                          54.500                                                                                                                                    19852117.508    82625538.511                          49.250  
R10  20747263.164   110594595.703                          51.000                                                                                                                                    20747272.204    86018028.827                          40.000  
> 2017 11 15 18 29 35.0000000  0 14                     
G29  21658839.896   113818055.598                          51.000                                                                                                                                    21658851.456    88689418.433                          46.250  
G12  20605870.104   108284635.274                          54.500                                                                                                                                    20605879.264    84377654.047                          50.000  
G 2  20525224.724   107860847.172                          51.000                                                                    20525231.584    84047499.749                          40.750                                                                  
G32  25634076.110   134707967.464                          31.000                                                                                                                                    25634091.250   104967247.569                          29.500  
G25  21935204.834   115270384.319                          47.500                                                                                                                                    21935218.154    89821104.451                          47.750  
G 5  23995689.720   126098256.109                          41.750                                                                                                                                    23995704.440    98258396.088                          39.250  
G24  21520883.818   113093022.298                          46.000                                                                                                                                    21520897.838    88124437.016                          48.500  
G 6  23585261.384   123941465.702                          42.500                                                                                                                                    23585276.584    96577785.013                          42.000  
R20  23479034.844   125553012.956                          33.000                                                                                                                                    23479044.244    97652341.304                          34.250  
R22  20664636.804   110309326.297                          52.250                                                                                                                                    20664644.684    85796165.305                          47.500  
R12  22114476.856   118131591.885                          44.750                                                                                                1                                                                                                 
R11  19254730.732   102891527.950                          54.500                                                                                                                                    19254737.292    80026765.054                          49.500  
R21  19852470.248   106234706.747                          54.500                                                                                                                                    19852475.988    82627026.839                          49.500  
R10  20747810.944   110597518.984                          51.250                                                                                                                                    20747820.804    86020302.479                          40.000  
> 2017 11 15 18 29 36.0000000  0 14                     
G29  21658594.436   113816769.042                          50.500                                                                                                                                    21658605.936    88688415.932                          46.250  
G12  20605783.944   108284181.930                          54.500                                                                                                                                    20605792.744    84377300.796                          50.500  
G 2  20525522.064   107862407.878                          51.500                                                                    20525528.704    84048715.884                          40.750                                                                  
G32  25634302.130   134709162.457                          30.500                                                                                                                                    25634319.030   104968178.738                          29.500  
G25  21934782.934   115268169.254                          47.000                                                                                                                                    21934795.674    89819378.432                          48.000  
G 5  23995266.260   126096034.758                          41.250                                                                                                                                    23995281.620    98256665.168                          39.250  
G24  21521397.538   113095722.504                          46.250                                                                                                                                    21521411.398    88126541.070                          48.750  
G 6  23585864.724   123944635.130                          42.500                                                                                                                                    23585880.024    96580254.694                          42.000  
R20  23479718.784   125556667.058                          33.750                                                                                                                                    23479727.584    97655183.387                          34.500  
R22  20664327.164   110307673.764                          52.500                                                                                                                                    20664335.144    85794880.004                          47.500  
R12  22113756.136   118127742.070                          45.250                                                                                                1                                                                                                 
R11  19254556.372   102890597.722                          54.250                                                                                                                                    19254563.432    80026041.546                          49.500  
R21  19852827.888   106236620.770                          54.000                                                                                                                                    19852833.748    82628515.528                          49.250  
R10  20748359.904   110600442.918                          51.500                                                                                                                                    20748369.644    86022576.645                          40.000  
> 2017 11 15 18 29 37.0000000  0 14                     
G29  21658349.796   113815482.698                          50.000                                                                                                                                    21658361.476    88687413.586                          46.500  
G12  20605697.644   108283728.836                          55.000                                                                                                                                    20605706.804    84376947.729                          50.000  
G 2  20525818.864   107863969.186                          51.500                                                                    20525825.564    84049932.485                          40.750                                                                  
G32  25634529.810   134710357.704                          31.000                                                                                                                                    25634546.070   104969110.094                          30.000  
G25  21934361.914   115265954.269                          46.500                                                                                                                                    21934374.514    89817652.470                          48.000  
G 5  23994843.020   126093813.416                          41.250                                                                                                                                    23994859.220    98254934.257                          39.750  
G24  21521911.738   113098423.087                          46.000                                                                                                                                    21521925.478    88128645.419                          48.750  
G 6  23586467.864   123947804.786                          42.500                                                                                                                                    23586483.824    96582724.560                          42.000  
R20  23480402.204   125560321.064                          33.750                                                                                                                                    23480410.544    97658025.390                          35.000  
R22  20664018.344   110306021.755                          52.500                                                                                                                                    20664025.984    85793595.112                          47.500  
R12  22113035.356   118123892.500                          45.000                                                                                                1                                                                                                 
R11  19254382.312   102889668.218                          54.500                                                                                                                                    19254389.692    80025318.596                          49.750  
R21  19853185.708   106238535.173                          54.000                                                                                                                                    19853192.048    82630004.511                          49.000  
R10  20748908.924   110603367.400                          51.500                                                                                                                                    20748917.364    86024851.243                          40.000  
> 2017 11 15 18 29 38.0000000  0 14                     
G29  21658105.156   113814196.586                          49.750                                                                                                                                    21658116.716    88686411.429                          46.750  
G12  20605611.444   108283275.970                          55.250                                                                                                                                    20605620.244    84376594.853                          50.250  
G 2  20526116.084   107865531.093                          50.750                                                                    20526123.124    84051149.559                          40.750                                                                  
G32  25634756.850   134711553.188                          30.500                                                                                                                                    25634773.390   104970041.631                          30.250  
G25  21933940.314   115263739.377                          46.750                                                                                                                                    21933952.694    89815926.582                          48.000  
G 5  23994420.800   126091592.146                          42.250                                                                                                                                    23994436.680    98253203.398                          40.250  
G24  21522425.798   113101124.052                          46.250                                                                                                                                    21522439.478    88130750.062                          48.500  
G 6  23587071.244   123950974.636                          42.750                                                                                                                                    23587086.204    96585194.572                          42.250  
R20  23481085.604   125563974.904                          33.500                                                                                                                                    23481093.464    97660867.265                          34.500  
R22  20663708.424   110304370.242                          52.250                                                                                                                                    20663716.764    85792310.602                          47.500  
R12  22112315.056   118120043.080                          45.250                                                                                                1                                                                                                 
R11  19254208.372   102888739.449                          54.000                                                                                                                                    19254216.012    80024596.224                          49.500  
R21  19853543.768   106240449.940                          54.250                                                                                                                                    19853549.168    82631493.770                          49.750  
R10  20749457.464   110606292.419                          51.500                                                                                                                                    20749466.144    86027126.257                          40.250  
> 2017 11 15 18 29 39.0000000  0 14                     
G29  21657860.196   113812910.813                          50.250                                                                                                                                    21657872.456    88685409.532                          47.000  
G12  20605525.424   108282823.514                          55.500                                                                                                                                    20605534.464    84376242.288                          50.250  
G 2  20526413.624   107867093.714                          51.000                                                                    20526420.324    84052367.185                          40.500                                                                  
G32  25634983.890   134712749.158                          30.500                                                                                                                                    25635001.010   104970973.558                          30.500  
G25  21933518.974   115261524.671                          47.250                                                                                                                                    21933531.114    89814200.835                          47.750  
G 5  23993998.180   126089371.079                          42.250                                                                                                                                    23994013.660    98251472.699                          39.750  
G24  21522939.398   113103825.529                          46.250                                                                                                                                    21522953.658    88132855.101                          48.750  
G 6  23587674.504   123954144.842                          42.500                                                                                                                                    23587689.504    96587664.868                          42.000  
R20  23481767.744   125567628.741                          33.250                                                                                                                                    23481776.904    97663709.145                          35.000  
R22  20663399.424   110302719.351                          52.500                                                                                                                                    20663407.284    85791026.586                          47.500  
R12  22111594.356   118116194.013                          45.500                                                                                                1                                                                                                 
R11  19254035.292   102887811.559                          54.250                                                                                                                                    19254042.212    80023874.530                          49.250  
R21  19853901.568   106242365.200                          54.000                                                                                                                                    19853906.968    82632983.418                          49.500  
R10  20750006.604   110609218.111                          51.500                                                                                                                                    20750015.644    86029401.790                          40.000  
> 2017 11 15 18 29 40.0000000  0 14                     
G29  21657615.636   113811625.339                          50.500                                                                                                                                    21657627.196    88684407.862                          46.750  
G12  20605439.164   108282371.371                          55.500                                                                                                                                    20605447.964    84375889.962                          50.000  
G 2  20526710.864   107868657.001                          51.500                                                                    20526717.264    84053585.328                          41.250                                                                  
G32  25635211.450   134713945.422                          29.750                                                                                                                                    25635229.110   104971905.704                          30.000  
G25  21933097.594   115259310.120                          47.250                                                                                                                                    21933110.034    89812475.215                          47.750  
G 5  23993575.720   126087150.196                          41.750                                                                                                                                    23993591.220    98249742.140                          39.750  
G24  21523453.538   113106527.442                          46.250                                                                                                                                    21523467.798    88134960.484                          48.750  
G 6  23588277.664   123957315.352                          42.250                                                                                                                                    23588292.804    96590135.397                          42.250  
R20  23482450.644   125571282.568                          32.500                                                                                                                                    23482459.684    97666551.016                          34.500  
R22  20663091.124   110301069.042                          52.750                                                                                                                                    20663099.004    85789743.019                          47.500  
R12  22110873.716   118112345.196                          45.750                                                                                                1                                                                                                 
R11  19253861.792   102886884.441                          54.250                                                                                                                                    19253868.252    80023153.438                          49.250  
R21  19854258.948   106244280.871                          54.000                                                                                                                                    19854265.048    82634473.383                          49.250  
R10  20750555.524   110612144.422                          51.500                                                                                                                                    20750565.384    86031677.807                          39.750  
> 2017 11 15 18 29 41.0000000  0 14                     
G29  21657371.176   113810340.073                          50.500                                                                                                                                    21657383.556    88683406.367                          46.250  
G12  20605353.424   108281919.475                          55.250                                                                                                                                    20605362.224    84375537.839                          50.000  
G 2  20527008.584   107870220.876                          51.500                                                                    20527015.384    84054803.930                          41.000                                                                  
G32  25635438.510   134715141.988                          30.000                                                                                                                                    25635456.170   104972838.083                          29.750  
G25  21932676.214   115257095.638                          47.750                                                                                                                                    21932688.714    89810749.647                          48.000  
G 5  23993152.940   126084929.313                          42.000                                                                                                                                    23993169.000    98248011.592                          39.500  
G24  21523967.638   113109229.737                          46.000                                                                                                                                    21523981.718    88137066.162                          49.000  
G 6  23588881.124   123960486.080                          42.500                                                                                                                                    23588896.784    96592606.094                          41.750  
R20  23483130.904   125574936.207                          33.000                                                                                                                                    23483142.764    97669392.734                          35.250  
R22  20662781.744   110299419.235                          52.750                                                                                                                                    20662788.904    85788459.841                          47.250  
R12  22110153.856   118108496.561                          45.750                                                                                                1                                                                                                 
R11  19253687.812   102885958.001                          54.000                                                                                                                                    19253694.632    80022432.876                          49.750  
R21  19854617.288   106246196.888                          54.250                                                                                                                                    19854623.628    82635963.618                          49.250  
R10  20751104.284   110615071.258                          52.000                                                                                                                                    20751113.444    86033954.231                          40.500  
> 2017 11 15 18 29 42.0000000  0 14                     
G29  21657126.716   113809055.031                          50.500                                                                                                                                    21657138.396    88682405.037                          46.250  
G12  20605267.684   108281467.836                          55.500                                                                                                                                    20605276.844    84375185.913                          49.750  
G 2  20527306.004   107871785.365                          51.250                                                                    20527313.104    84056023.015                          40.750                                                                  
G32  25635666.930   134716338.846                          30.250                                                                                                                                    25635684.630   104973770.702                          28.750  
G25  21932254.634   115254881.255                          47.500                                                                                                                                    21932266.614    89809024.152                          48.000  
G 5  23992730.700   126082708.522                          42.000                                                                                                                                    23992746.580    98246281.120                          39.500  
G24  21524482.478   113111932.359                          46.000                                                                                                                                    21524496.378    88139172.102                          49.000  
G 6  23589484.084   123963657.016                          42.250                                                                                                                                    23589499.284    96595076.955                          42.000  
R20  23483815.884   125578589.713                          32.250                                                                                                                                    23483826.344    97672234.341                          35.500  
R22  20662472.424   110297769.895                          52.750                                                                                                                                    20662479.704    85787177.027                          47.500  
R12  22109434.256   118104648.127                          45.750                                                                                                1                                                                                                 
R11  19253515.352   102885032.281                          54.000                                                                                                                                    19253522.152    80021712.873                          50.000  
R21  19854975.568   106248113.260                          54.250                                                                                                                                    19854981.548    82637454.134                          49.500  
R10  20751653.464   110617998.636                          52.000                                                                                                                                    20751662.504    86036231.084                          40.750  
> 2017 11 15 18 29 43.0000000  0 14                     
G29  21656882.076   113807770.224                          50.250                                                                                                                                    21656893.876    88681403.891                          46.750  
G12  20605181.624   108281016.465                          55.000                                                                                                                                    20605190.484    84374834.195                          49.750  
G 2  20527603.704   107873350.433                          51.000                                                                    20527610.504    84057242.552                          40.750                                                                  
G32  25635895.470   134717535.925                          31.000                                                                                                                                    25635912.670   104974703.509                          29.000  
G25  21931833.234   115252666.949                          47.000                                                                                                                                    21931846.194    89807298.722                          47.500  
G 5  23992308.340   126080487.807                          41.750                                                                                                                                    23992323.820    98244550.699                          39.500  
G24  21524996.678   113114635.405                          46.250                                                                                                                                    21525010.458    88141278.367                          49.000  
G 6  23590088.284   123966828.164                          42.750                                                                                                                                    23590103.404    96597547.970                          42.000  
R20  23484498.584   125582243.173                          33.000                                                                                                                                    23484510.324    97675075.907                          35.250  
R22  20662162.744   110296121.075                          52.000                                                                                                                                    20662171.444    85785894.610                          47.500  
R12  22108712.296   118100799.933                          45.750                                                                                                1                                                                                                 
R11  19253341.832   102884107.354                          54.000                                                                                                                                    19253348.872    80020993.483                          50.000  
R21  19855333.828   106250030.037                          54.500                                                                                                                                    19855340.168    82638944.958                          49.250  
R10  20752202.884   110620926.564                          52.000                                                                                                                                    20752211.344    86038508.356                          40.750  
> 2017 11 15 18 29 44.0000000  0 14                     
G29  21656637.416   113806485.776                          49.500                                                                                                                                    21656649.856    88680403.024                          47.000  
G12  20605095.924   108280565.489                          54.750                                                                                                                                    20605104.904    84374482.781                          50.000  
G 2  20527901.824   107874916.266                          50.750                                                                    20527909.104    84058462.685                          40.500                                                                  
G32  25636122.630   134718733.450                          31.000                                                                                                                                    25636139.990   104975636.666                          30.500  
G25  21931411.814   115250452.863                          46.000                                                                                                                                    21931425.294    89805573.460                          48.000  
G 5  23991885.000   126078267.313                          41.500                                                                                                                                    23991900.480    98242820.458                          39.750  
G24  21525511.158   113117338.984                          46.000                                                                                                                                    21525524.778    88143385.048                          49.000  
G 6  23590691.284   123969999.699                          42.250                                                                                                                                    23590706.524    96600019.300                          41.500  
R20  23485180.144   125585896.564                          32.500                                                                                                                                    23485193.184    97677917.433                          34.500  
R22  20661853.904   110294472.922                          52.250                                                                                                                                    20661862.244    85784612.720                          47.750  
R12  22107992.196   118096952.059                          45.750                                                                                                1                                                                                                 
R11  19253169.252   102883183.330                          54.250                                                                                                                                    19253175.592    80020274.798                          49.750  
R21  19855692.188   106251947.337                          54.000                                                                                                                                    19855697.948    82640436.190                          49.500  
R10  20752753.084   110623855.197                          51.750                                                                                                                                    20752761.764    86040786.177                          41.000  
> 2017 11 15 18 29 45.0000000  0 14                     
G29  21656393.096   113805201.621                          49.250                                                                                                                                    21656405.236    88679402.392                          46.500  
G12  20605009.904   108280114.843                          55.250                                                                                                                                    20605019.124    84374131.631                          50.250  
G 2  20528200.024   107876482.765                          50.500                                                                    20528207.064    84059683.326                          40.750                                                                  
G32  25636351.030   134719931.307                          29.500                                                                                                                                    25636368.690   104976570.071                          30.500  
G25  21930990.474   115248238.951                          46.250                                                                                                                                    21931003.494    89803848.336                          47.750  
G 5  23991463.640   126076046.950                          42.250                                                                                                                                    23991478.720    98241090.305                          39.500  
G24  21526025.918   113120043.002                          46.500                                                                                                                                    21526039.818    88145492.071                          49.000  
G 6  23591294.604   123973171.549                          42.250                                                                                                                                    23591310.144    96602490.871                          41.750  
R20  23485863.164   125589549.944                          32.000                                                                                                                                    23485876.784    97680758.949                          35.000  
R22  20661545.884   110292825.338                          52.250                                                                                                                                    20661554.104    85783331.268                          47.750  
R12  22107271.436   118093104.490                          45.250                                                                                                1                                                                                                 
R11  19252996.192   102882260.067                          54.250                                                                                                                                    19253003.232    80019556.703                          49.750  
R21  19856050.648   106253865.053                          54.000                                                                                                                                    19856056.048    82641927.742                          49.000  
R10  20753301.924   110626784.448                          51.750                                                                                                                                    20753311.084    86043064.483                          41.000  
> 2017 11 15 18 29 46.0000000  0 14                     
G29  21656148.636   113803917.695                          49.750                                                                                                                                    21656160.836    88678401.934                          47.000  
G12  20604924.104   108279664.444                          55.000                                                                                                                                    20604932.784    84373780.675                          50.000  
G 2  20528498.284   107878049.828                          50.500                                                                    20528504.684    84060904.418                          40.750                                                                  
G32  25636577.690   134721129.499                          29.500                                                                                                                                    25636596.590   104977503.733                          30.250  
G25  21930569.454   115246025.088                          47.000                                                                                                                                    21930582.014    89802123.251                          48.000  
G 5  23991040.580   126073826.671                          41.750                                                                                                                                    23991055.480    98239360.218                          39.250  
G24  21526540.158   113122747.375                          46.500                                                                                                                                    21526554.238    88147599.368                          48.750  
G 6  23591898.264   123976343.572                          42.500                                                                                                                                    23591914.044    96604962.576                          42.000  
R20  23486547.564   125593203.177                          32.500                                                                                                                                    23486559.304    97683600.350                          34.500  
R22  20661237.364   110291178.232                          52.250                                                                                                                                    20661245.944    85782050.183                          47.750  
R12  22106551.016   118089257.111                          45.500                                                                                                1                                                                                                 
R11  19252823.932   102881337.475                          54.500                                                                                                                                    19252830.392    80018839.135                          49.750  
R21  19856408.948   106255783.111                          54.000                                                                                                                                    19856414.348    82643419.563                          49.000  
R10  20753851.364   110629714.245                          51.500                                                                                                                                    20753860.764    86045343.215                          41.250  
> 2017 11 15 18 29 47.0000000  0 14                     
G29  21655904.616   113802633.942                          49.750                                                                                                                                    21655916.516    88677401.605                          47.000  
G12  20604838.584   108279214.267                          54.500                                                                                                                                    20604847.384    84373429.887                          50.250  
G 2  20528796.584   107879617.476                          50.750                                                                    20528803.804    84062125.966                          41.000                                                                  
G32  25636806.910   134722327.842                          28.000                                                                                                                                    25636824.630   104978437.521                          30.500  
G25  21930147.754   115243811.276                          47.750                                                                                                                                    21930160.014    89800398.202                          47.500  
G 5  23990619.380   126071606.403                          42.000                                                                                                                                    23990634.640    98237630.139                          40.000  
G24  21527054.998   113125452.055                          46.500                                                                                                                                    21527069.138    88149706.907                          49.000  
G 6  23592501.844   123979515.780                          42.500                                                                                                                                    23592517.224    96607434.424                          42.000  
R20  23487232.584   125596856.274                          33.250                                                                                                                                    23487241.984    97686441.654                          34.500  
R22  20660928.744   110289531.580                          52.500                                                                                                                                    20660936.144    85780769.459                          48.000  
R12  22105832.296   118085409.881                          45.750                                                                                                1                                                                                                 
R11  19252650.952   102880415.557                          54.250                                                                                                                                    19252657.872    80018122.081                          50.000  
R21  19856767.448   106257701.514                          54.000                                                                                                                                    19856772.848    82644911.653                          48.500  
R10  20754401.084   110632644.556                          51.500                                                                                                                                    20754410.704    86047622.346                          41.000  
> 2017 11 15 18 29 48.0000000  0 14                     
G29  21655660.256   113801350.539                          50.000                                                                                                                                    21655672.356    88676401.555                          46.750  
G12  20604752.984   108278764.480                          54.500                                                                                                                                    20604761.664    84373079.402                          50.500  
G 2  20529094.924   107881185.836                          51.000                                                                    20529101.844    84063348.062                          40.750                                                                  
G32  25637033.830   134723526.660                          28.500                                                                                                                                    25637052.430   104979371.659                          30.250  
G25  21929726.554   115241597.684                          47.250                                                                                                                                    21929738.774    89798673.327                          48.000  
G 5  23990196.420   126069386.345                          41.500                                                                                                                                    23990211.380    98235900.232                          39.500  
G24  21527569.618   113128157.284                          46.000                                                                                                                                    21527583.938    88151814.880                          49.000  
G 6  23593105.884   123982688.381                          42.250                                                                                                                                    23593120.844    96609906.579                          41.500  
R20  23487916.484   125600509.379                          32.750                                                                                                                                    23487925.164    97689282.962                          34.250  
R22  20660619.824   110287885.538                          52.000                                                                                                                                    20660628.144    85779489.209                          47.750  
R12  22105111.616   118081563.001                          45.750                                                                                                1                                                                                                 
R11  19252478.912   102879494.538                          54.500                                                                                                                                    19252485.612    80017405.736                          50.000  
R21  19857126.388   106259620.397                          53.750                                                                                                                                    19857131.688    82646404.121                          49.000  
R10  20754951.484   110635575.556                          51.500                                                                                                                                    20754960.524    86049902.008                          40.750  
> 2017 11 15 18 29 49.0000000  0 14                     
G29  21655416.116   113800067.325                          50.000                                                                                                                                    21655428.616    88675401.646                          47.000  
G12  20604667.264   108278314.915                          54.750                                                                                                                                    20604676.484    84372729.091                          50.250  
G 2  20529393.304   107882754.800                          50.750                                                                    20529400.584    84064570.632                          40.750                                                                  
G32  25637262.950   134724725.757                          29.000                                                                                                                                    25637280.250   104980306.012                          31.500  
G25  21929305.674   115239384.143                          47.750                                                                                                                                    21929318.234    89796948.485                          47.750  
G 5  23989773.080   126067166.358                          41.000                                                                                                                                    23989788.100    98234170.376                          39.000  
G24  21528084.538   113130862.810                          45.750                                                                                                                                    21528098.798    88153923.074                          49.250  
G 6  23593709.424   123985861.146                          42.500                                                                                                                                    23593724.384    96612378.865                          41.500  
R20  23488599.884   125604162.336                          33.500                                                                                                                                    23488608.204    97692124.155                          34.000  
R22  20660312.264   110286239.986                          51.750                                                                                                                                    20660320.584    85778209.335                          48.000  
R12  22104390.776   118077716.327                          45.750                                                                                                1                                                                                                 
R11  19252306.492   102878574.258                          54.500                                                                                                                                    19252313.192    80016689.960                          50.000  
R21  19857484.708   106261539.653                          53.750                                                                                                                                    19857490.228    82647896.870                          49.000  
R10  20755501.144   110638507.061                          51.500                                                                                                                                    20755510.404    86052182.064                          40.750  
> 2017 11 15 18 29 50.0000000  0 14                     
G29  21655172.176   113798784.334                          50.250                                                                                                                                    21655184.496    88674401.917                          47.000  
G12  20604581.964   108277865.606                          55.000                                                                                                                                    20604590.784    84372378.985                          50.250  
G 2  20529692.464   107884324.332                          50.750                                                                    20529699.164    84065793.644                          40.750                                                                  
G32  25637491.090   134725925.074                          29.500                                                                                                                                    25637509.270   104981240.547                          31.750  
G25  21928884.334   115237170.693                          47.500                                                                                                                                    21928897.254    89795223.721                          47.500  
G 5  23989350.940   126064946.368                          42.000                                                                                                                                    23989366.320    98232440.518                          38.750  
G24  21528599.818   113133568.730                          46.250                                                                                                                                    21528613.998    88156031.577                          49.250  
G 6  23594312.984   123989034.128                          42.000                                                                                                                                    23594328.704    96614851.319                          42.000  
R20  23489282.344   125607815.211                          33.000                                                                                                                                    23489291.484    97694965.278                          34.000  
R22  20660003.604   110284594.956                          51.750                                                                                                                                    20660010.884    85776929.873                          47.750  
R12  22103671.216   118073869.829                          45.750                                                                                                1                                                                                                 
R11  19252134.392   102877654.653                          54.500                                                                                                                                    19252141.432    80015974.712                          49.500  
R21  19857842.968   106263459.239                          53.750                                                                                                                                    19857848.488    82649389.889                          49.250  
R10  20756050.624   110641439.100                          51.500                                                                                                                                    20756059.904    86054462.530                          40.500  
> 2017 11 15 18 29 51.0000000  0 14                     
G29  21654927.976   113797501.657                          50.500                                                                                                                                    21654939.936    88673402.428                          47.000  
G12  20604496.344   108277416.653                          54.500                                                                                                                                    20604505.324    84372029.153                          50.500  
G 2  20529990.984   107885894.560                          50.500                                                                    20529997.864    84067017.198                          41.000                                                                  
G32  25637718.930   134727124.772                          29.750                                                                                                                                    25637737.170   104982175.370                          30.000  
G25  21928463.594   115234957.390                          47.500                                                                                                                                    21928476.214    89793499.074                          47.750  
G 5  23988928.160   126062726.612                          42.000                                                                                                                                    23988943.700    98230710.844                          39.000  
G24  21529114.598   113136275.132                          46.250                                                                                                                                    21529129.078    88158140.459                          49.000  
G 6  23594917.844   123992207.431                          42.000                                                                                                                                    23594932.524    96617324.022                          41.500  
R20  23489966.464   125611467.939                          33.000                                                                                                                                    23489974.684    97697806.288                          34.000  
R22  20659695.664   110282950.457                          51.500                                                                                                                                    20659703.864    85775650.825                          47.250  
R12  22102952.136   118070023.622                          45.250                                                                                                1                                                                                                 
R11  19251962.412   102876735.884                          54.500                                                                                                                                    19251969.352    80015260.114                          49.750  
R21  19858201.648   106265379.307                          54.000                                                                                                                                    19858207.888    82650883.269                          49.250  
R10  20756601.184   110644371.778                          51.000                                                                                                                                    20756610.684    86056743.500                          41.000  
> 2017 11 15 18 29 52.0000000  0 14                     
G29  21654683.776   113796219.312                          49.500                                                                                                                                    21654695.696    88672403.203                          47.250  
G12  20604411.304   108276968.080                          54.500                                                                                                                                    20604420.284    84371679.618                          50.000  
G 2  20530290.204   107887465.501                          50.250                                                                    20530297.124    84068241.310                          41.000                                                                  
G32  25637947.710   134728324.933                          30.500                                                                                                                                    25637966.010   104983110.557                          30.250  
G25  21928041.974   115232744.326                          46.250                                                                                                                                    21928054.774    89791774.607                          47.750  
G 5  23988506.200   126060507.009                          42.000                                                                                                                                    23988521.560    98228981.289                          39.250  
G24  21529629.558   113138982.037                          46.500                                                                                                                                    21529644.098    88160249.732                          49.500  
G 6  23595520.704   123995381.092                          42.000                                                                                                                                    23595536.304    96619797.011                          41.750  
R20  23490649.344   125615120.677                          33.500                                                                                                                                    23490656.744    97700647.303                          34.000  
R22  20659388.144   110281306.634                          52.000                                                                                                                                    20659396.484    85774372.298                          47.250  
R12  22102230.776   118066177.735                          45.500                                                                                                1                                                                                                 
R11  19251790.812   102875817.976                          54.500                                                                                                                                    19251797.152    80014546.185                          50.000  
R21  19858561.328   106267299.864                          54.000                                                                                                                                    19858567.188    82652377.040                          49.250  
R10  20757152.324   110647305.137                          51.500                                                                                                                                    20757161.484    86059024.999                          40.750  
> 2017 11 15 18 29 53.0000000  0 14                     
G29  21654439.956   113794937.181                          49.250                                                                                                                                    21654451.936    88671404.141                          47.000  
G12  20604325.744   108276519.750                          54.250                                                                                                                                    20604335.244    84371330.269                          50.000  
G 2  20530589.304   107889037.040                          50.000                                                                    20530596.224    84069465.886                          41.500                                                                  
G32  25638175.530   134729525.320                          30.750                                                                                                                                    25638194.650   104984045.929                          30.500  
G25  21927621.134   115230531.292                          46.250                                                                                                                                    21927634.334    89790050.166                          48.000  
G 5  23988083.480   126058287.494                          41.750                                                                                                                                    23988099.440    98227251.799                          39.500  
G24  21530144.698   113141689.308                          46.750                                                                                                                                    21530159.178    88162359.291                          49.500  
G 6  23596125.544   123998554.926                          42.000                                                                                                                                    23596140.144    96622270.126                          41.500  
R20  23491331.164   125618773.263                          33.250                                                                                                                                    23491340.564    97703488.211                          33.500  
R22  20659079.584   110279663.312                          52.250                                                                                                                                    20659088.264    85773094.159                          47.250  
R12  22101511.376   118062332.044                          45.750                                                                                                1                                                                                                 
R11  19251619.192   102874900.773                          54.250                                                                                                                                    19251625.752    80013832.809                          50.000  
R21  19858920.188   106269220.750                          53.750                                                                                                                                    19858925.588    82653871.068                          49.250  
R10  20757702.284   110650239.006                          51.500                                                                                                                                    20757711.204    86061306.897                          41.750  
> 2017 11 15 18 29 54.0000000  0 14                     
G29  21654195.996   113793655.299                          49.500                                                                                                                                    21654208.096    88670405.276                          47.000  
G12  20604240.684   108276071.703                          55.000                                                                                                                                    20604250.024    84370981.136                          49.500  
G 2  20530888.124   107890609.197                          50.500                                                                    20530895.044    84070690.943                          41.500                                                                  
G32  25638404.750   134730726.051                          30.500                                                                                                                                    25638423.090   104984981.576                          30.250  
G25  21927199.854   115228318.425                          46.500                                                                                                                                    21927212.894    89788325.855                          47.750  
G 5  23987660.820   126056068.051                          41.750                                                                                                                                    23987676.900    98225522.369                          39.500  
G24  21530659.718   113144396.983                          46.750                                                                                                                                    21530673.558    88164469.162                          49.750  
G 6  23596729.464   124001729.017                          42.500                                                                                                                                    23596744.424    96624743.444                          41.250  
R20  23492014.384   125622425.774                          33.250                                                                                                                                    23492022.604    97706329.045                          34.000  
R22  20658771.664   110278020.490                          51.750                                                                                                                                    20658780.944    85771816.415                          47.250  
R12  22100791.016   118058486.614                          45.500                                                                                                1                                                                                                 
R11  19251447.212   102873984.321                          54.000                                                                                                                                    19251454.492    80013120.013                          49.750  
R21  19859279.028   106271142.043                          53.750                                                                                                                                    19859285.008    82655365.409                          49.250  
R10  20758252.604   110653173.489                          51.500                                                                                                                                    20758262.104    86063589.266                          41.250  
> 2017 11 15 18 29 55.0000000  0 14                     
G29  21653952.176   113792373.667                          49.750                                                                                                                                    21653964.076    88669406.604                          46.750  
G12  20604155.484   108275623.961                          55.000                                                                                                                                    20604164.244    84370632.250                          49.750  
G 2  20531187.424   107892181.984                          50.250                                                                    20531194.824    84071916.488                          41.500                                                                  
G32  25638633.210   134731927.042                          30.500                                                                                                                                    25638652.030   104985917.419                          30.500  
G25  21926778.774   115226105.619                          47.000                                                                                                                                    21926791.334    89786601.594                          47.500  
G 5  23987238.020   126053848.692                          41.500                                                                                                                                    23987254.280    98223793.009                          39.250  
G24  21531174.998   113147105.079                          46.250                                                                                                                                    21531189.418    88166579.360                          49.250  
G 6  23597333.644   124004903.403                          42.750                                                                                                                                    23597348.484    96627216.995                          41.750  
R20  23492697.524   125626078.187                          33.000                                                                                                                                    23492706.104    97709169.812                          33.750  
R22  20658464.564   110276378.212                          51.750                                                                                                                                    20658473.144    85770539.087                          47.250  
R12  22100071.396   118054641.382                          45.500                                                                                                1                                                                                                 
R11  19251276.072   102873068.609                          54.500                                                                                                                                    19251282.872    80012407.793                          49.500  
R21  19859638.088   106273063.678                          54.500                                                                                                                                    19859644.068    82656860.013                          49.000  
R10  20758803.124   110656108.500                          50.750                                                                                                                                    20758813.224    86065872.052                          41.000  
> 2017 11 15 18 29 56.0000000  0 14                     
G29  21653707.916   113791092.353                          49.500                                                                                                                                    21653720.596    88668408.179                          46.500  
G12  20604070.344   108275176.529                          55.250                                                                                                                                    20604078.964    84370283.606                          49.250  
G 2  20531486.924   107893755.465                          50.750                                                                    20531493.744    84073142.585                          41.250                                                                  
G32  25638861.130   134733128.411                          31.500                                                                                                                                    25638880.610   104986853.547                          31.250  
G25  21926357.574   115223893.010                          47.000                                                                                                                                    21926370.014    89784877.487                          47.000  
G 5  23986816.680   126051629.535                          41.500                                                                                                                                    23986832.460    98222063.804                          39.750  
G24  21531690.438   113149813.650                          46.500                                                                                                                                    21531704.578    88168689.933                          49.250  
G 6  23597937.884   124008078.054                          42.750                                                                                                                                    23597952.324    96629690.745                          42.000  
R20  23493381.024   125629730.564                          32.250                                                                                                                                    23493389.364    97712010.542                          34.500  
R22  20658156.244   110274736.532                          52.000                                                                                                                                    20658165.524    85769262.225                          47.500  
R12  22099351.396   118050796.449                          45.500                                                                                                1                                                                                                 
R11  19251104.952   102872153.744                          54.000                                                                                                                                    19251111.292    80011696.234                          49.500  
R21  19859997.648   106274985.819                          54.500                                                                                                                                    19860003.168    82658355.011                          49.500  
R10  20759353.324   110659044.166                          50.500                                                                                                                                    20759363.304    86068155.342                          41.500  
> 2017 11 15 18 29 57.0000000  0 14                     
G29  21653464.536   113789811.233                          50.000                                                                                                                                    21653476.796    88667409.908                          46.500  
G12  20603985.404   108274729.346                          55.000                                                                                                                                    20603993.924    84369935.150                          49.500  
G 2  20531786.444   107895329.498                          50.500                                                                    20531793.324    84074369.102                          41.500                                                                  
G32  25639091.970   134734330.030                          31.000                                                                                                                                    25639108.870   104987789.867                          31.750  
G25  21925936.694   115221680.443                          47.500                                                                                                                                    21925949.354    89783153.409                          47.000  
G 5  23986394.000   126049410.402                          40.750                                                                                                                                    23986409.720    98220334.611                          39.750  
G24  21532206.138   113152522.550                          46.750                                                                                                                                    21532219.978    88170800.766                          49.250  
G 6  23598541.324   124011252.918                          42.500                                                                                                                                    23598557.044    96632164.665                          41.500  
R20  23494064.764   125633382.794                          33.250                                                                                                                                    23494072.644    97714851.159                          34.000  
R22  20657849.024   110273095.324                          52.000                                                                                                                                    20657857.604    85767985.730                          47.250  
R12  22098632.876   118046951.709                          45.750                                                                                                1                                                                                                 
R11  19250934.152   102871239.571                          54.500                                                                                                                                    19250941.092    80010985.206                          49.500  
R21  19860356.368   106276908.295                          54.750                                                                                                                                    19860363.068    82659850.270                          49.500  
R10  20759904.744   110661980.360                          50.750                                                                                                                                    20759914.124    86070439.042                          41.500  
> 2017 11 15 18 29 58.0000000  0 14                     
G29  21653220.756   113788530.502                          50.500                                                                                                                                    21653232.376    88666411.940                          46.500  
G12  20603900.484   108274282.608                          55.000                                                                                                                                    20603909.224    84369587.042                          49.750  
G 2  20532086.404   107896904.306                          51.000                                                                    20532093.084    84075596.223                          41.000                                                                  
G32  25639318.410   134735532.143                          31.000                                                                                                                                    25639338.070   104988726.579                          32.250  
G25  21925515.914   115219468.134                          47.750                                                                                                                                    21925528.134    89781429.536                          47.000  
G 5  23985972.720   126047191.550                          41.000                                                                                                                                    23985987.500    98218605.648                          39.500  
G24  21532721.678   113155231.981                          46.500                                                                                                                                    21532736.118    88172912.005                          49.000  
G 6  23599145.564   124014428.157                          42.000                                                                                                                                    23599160.464    96634638.878                          41.500  
R20  23494746.504   125637035.105                          33.000                                                                                                                                    23494755.184    97717691.837                          33.250  
R22  20657541.484   110271454.763                          52.000                                                                                                                                    20657550.644    85766709.740                          47.250  
R12  22097912.716   118043107.321                          45.750                                                                                                1                                                                                                 
R11  19250762.952   102870326.320                          54.500                                                                                                                                    19250769.292    80010274.904                          49.250  
R21  19860715.988   106278831.295                          54.500                                                                                                                                    19860721.868    82661345.935                          49.500  
R10  20760455.144   110664917.252                          50.750                                                                                                                                    20760465.724    86072723.288                          41.500  
> 2017 11 15 18 29 59.0000000  0 14                     
G29  21652976.936   113787249.931                          50.500                                                                                                                                    21652989.156    88665414.099                          46.250  
G12  20603815.044   108273836.053                          55.250                                                                                                                                    20603824.384    84369239.077                          49.750  
G 2  20532385.864   107898479.648                          51.000                                                                    20532392.724    84076823.766                          40.500                                                                  
G32  25639546.330   134736734.446                          32.000                                                                                                                                    25639566.670   104989663.434                          32.250  
G25  21925094.694   115217255.871                          47.250                                                                                                                                    21925107.314    89779705.695                          47.250  
G 5  23985549.820   126044972.646                          41.250                                                                                                                                    23985565.360    98216876.635                          39.500  
G24  21533237.098   113157941.729                          46.500                                                                                                                                    21533251.758    88175023.489                          48.750  
G 6  23599749.904   124017603.557                          42.000                                                                                                                                    23599764.564    96637113.217                          41.250  
R20  23495430.724   125640687.140                          33.000                                                                                                                                    23495437.984    97720532.300                          33.750  
R22  20657235.244   110269814.684                          52.000                                                                                                                                    20657242.524    85765434.129                          47.250  
R12  22097192.496   118039263.074                          45.500                                                                                                1                                                                                                 
R11  19250592.072   102869413.708                          54.500                                                                                                                                    19250599.232    80009565.092                          49.500  
R21  19861075.248   106280754.576                          54.000                                                                                                                                    19861081.348    82662841.822                          49.250  
R10  20761006.424   110667854.642                          50.750                                                                                                                                    20761015.944    86075007.916                          41.250  
> 2017 11 15 18 30  0.0000000  0 14                     
G29  21652733.636   113785969.560                          50.250                                                                                                                                    21652746.136    88664416.411                          46.000  
G12  20603730.364   108273389.743                          55.000                                                                                                                                    20603739.344    84368891.301                          49.500  
G 2  20532685.624   107900055.567                          51.000                                                                    20532692.664    84078051.753                          41.250                                                                  
G32  25639776.210   134737936.995                          32.000                                                                                                                                    25639795.210   104990600.475                          32.500  
G25  21924673.374   115215043.620                          47.500                                                                                                                                    21924686.214    89777981.861                          47.250  
G 5  23985127.320   126042753.878                          41.000                                                                                                                                    23985142.680    98215147.721                          39.000  
G24  21533752.758   113160651.859                          46.750                                                                                                                                    21533767.298    88177135.276                          48.750  
G 6  23600354.924   124020779.172                          42.500                                                                                                                                    23600369.124    96639587.721                          41.250  
R20  23496112.004   125644339.093                          33.750                                                                                                                                    23496120.464    97723372.706                          33.250  
R22  20656928.344   110268175.043                          52.000                                                                                                                                    20656935.384    85764158.853                          47.250  
R12  22096472.836   118035419.012                          45.250                                                                                                1                                                                                                 
R11  19250421.672   102868501.801                          55.000                                                                                                                                    19250428.372    80008855.827                          49.250  
R21  19861434.408   106282678.210                          54.000                                                                                                                                    19861440.028    82664337.982                          49.000  
R10  20761558.124   110670792.547                          50.750                                                                                                                                    20761567.284    86077292.947                          41.750  
> 2017 11 15 18 30  1.0000000  0 14                     
G29  21652490.016   113784689.567                          50.000                                                                                                                                    21652501.636    88663419.013                          46.000  
G12  20603645.424   108272943.832                          55.250                                                                                                                                    20603654.344    84368543.838                          49.500  
G 2  20532985.924   107901632.238                          51.500                                                                    20532993.044    84079280.326                          41.250                                                                  
G32  25640005.210   134739140.001                          31.500                                                                                                                                    25640024.030   104991537.882                          32.250  
G25  21924252.574   115212831.639                          47.500                                                                                                                                    21924265.314    89776258.247                          47.000  
G 5  23984705.620   126040535.238                          41.750                                                                                                                                    23984720.700    98213418.918                          38.500  
G24  21534269.118   113163362.503                          47.250                                                                                                                                    21534283.138    88179247.467                          48.750  
G 6  23600958.844   124023955.153                          42.250                                                                                                                                    23600973.864    96642062.506                          41.500  
R20  23496795.524   125647991.074                          33.250                                                                                                                                    23496803.624    97726213.144                          34.000  
R22  20656621.204   110266536.064                          52.000                                                                                                                                    20656628.844    85762884.098                          47.250  
R12  22095753.836   118031575.316                          45.750                                                                                                1                                                                                                 
R11  19250251.012   102867590.743                          54.500                                                                                                                                    19250258.052    80008147.228                          49.500  
R21  19861794.188   106284602.360                          54.000                                                                                                                                    19861800.528    82665834.539                          49.000  
R10  20762109.564   110673731.127                          51.000                                                                                                                                    20762119.304    86079578.509                          41.500  
> 2017 11 15 18 30  2.0000000  0 14                     
G29  21652246.736   113783409.746                          50.000                                                                                                                                    21652258.536    88662421.751                          46.000  
G12  20603560.884   108272498.134                          55.500                                                                                                                                    20603569.224    84368196.541                          50.000  
G 2  20533286.064   107903209.463                          50.750                                                                    20533292.704    84080509.333                          41.250                                                                  
G32  25640233.570   134740343.244                          31.500                                                                                                                                    25640252.810   104992475.468                          31.500  
G25  21923831.674   115210619.686                          48.000                                                                                                                                    21923844.414    89774534.644                          47.000  
G 5  23984283.300   126038316.660                          40.250                                                                                                                                    23984298.260    98211690.155                          38.750  
G24  21534784.878   113166073.487                          47.000                                                                                                                                    21534799.438    88181359.911                          49.000  
G 6  23601563.224   124027131.309                          42.250                                                                                                                                    23601578.404    96644537.436                          41.500  
R20  23497476.284   125651642.906                          33.500                                                                                                                                    23497486.724    97729053.466                          34.000  
R22  20656313.804   110264897.552                          51.750                                                                                                                                    20656322.624    85761609.702                          47.000  
R12  22095033.096   118027731.761                          45.750                                                                                                1                                                                                                 
R11  19250080.752   102866680.388                          54.250                                                                                                                                    19250086.972    80007439.177                          49.750  
R21  19862153.688   106286526.842                          54.000                                                                                                                                    19862159.908    82667331.360                          49.000  
R10  20762660.604   110676670.226                          50.750                                                                                                                                    20762669.764    86081864.473                          42.000  
> 2017 11 15 18 30  3.0000000  0 14                     
G29  21652003.296   113782130.292                          49.500                                                                                                                                    21652014.916    88661424.778                          46.000  
G12  20603476.024   108272052.812                          55.250                                                                                                                                    20603484.544    84367849.541                          49.750  
G 2  20533586.284   107904787.393                          50.750                                                                    20533593.104    84081738.886                          41.250                                                                  
G32  25640462.730   134741546.818                          31.500                                                                                                                                    25640481.910   104993413.326                          32.250  
G25  21923410.554   115208407.929                          48.000                                                                                                                                    21923424.274    89772811.198                          47.250  
G 5  23983860.680   126036098.275                          40.250                                                                                                                                    23983876.160    98209961.550                          39.000  
G24  21535300.778   113168784.941                          46.500                                                                                                                                    21535315.798    88183472.732                          48.750  
G 6  23602167.304   124030307.800                          42.500                                                                                                                                    23602182.104    96647012.621                          41.250  
R20  23498158.984   125655294.677                          32.750                                                                                                                                    23498169.544    97731893.730                          33.500  
R22  20656006.604   110263259.641                          52.000                                                                                                                                    20656014.924    85760335.775                          47.500  
R12  22094314.216   118023888.564                          45.500                                                                                                1                                                                                                 
R11  19249910.452   102865770.918                          54.000                                                                                                                                    19249917.492    80006731.806                          49.750  
R21  19862513.888   106288451.798                          53.750                                                                                                                                    19862520.348    82668828.550                          48.750  
R10  20763211.984   110679609.975                          51.000                                                                                                                                    20763221.364    86084150.943                          41.750  
> 2017 11 15 18 30  4.0000000  0 14                     
G29  21651759.696   113780851.087                          49.750                                                                                                                                    21651771.716    88660427.999                          46.000  
G12  20603391.404   108271607.834                          55.000                                                                                                                                    20603400.024    84367502.803                          49.500  
G 2  20533886.844   107906365.995                          51.000                                                                    20533893.644    84082968.970                          41.000                                                                  
G32  25640691.590   134742750.825                          33.000                                                                                                                                    25640710.350   104994351.512                          31.250  
G25  21922989.834   115206196.339                          48.000                                                                                                                                    21923003.094    89771087.884                          47.500  
G 5  23983439.140   126033880.041                          40.750                                                                                                                                    23983453.980    98208233.057                          39.000  
G24  21535816.358   113171496.860                          46.500                                                                                                                                    21535831.078    88185585.914                          48.500  
G 6  23602772.324   124033484.561                          42.500                                                                                                                                    23602786.584    96649488.017                          41.250  
R20  23498843.064   125658946.426                          33.500                                                                                                                                    23498852.924    97734733.973                          33.500  
R22  20655700.324   110261622.295                          52.000                                                                                                                                    20655708.524    85759062.288                          47.500  
R12  22093594.616   118020045.624                          45.250                                                                                                1                                                                                                 
R11  19249740.132   102864862.235                          54.000                                                                                                                                    19249746.832    80006025.054                          49.750  
R21  19862873.828   106290377.177                          54.000                                                                                                                                    19862879.948    82670326.069                          48.500  
R10  20763763.724   110682550.329                          51.000                                                                                                                                    20763773.124    86086437.883                          41.250  
> 2017 11 15 18 30  5.0000000  0 14                     
G29  21651516.716   113779572.059                          50.250                                                                                                                                    21651527.696    88659431.352                          46.000  
G12  20603306.804   108271163.061                          55.000                                                                                                                                    20603315.204    84367156.230                          49.750  
G 2  20534187.284   107907945.128                          50.750                                                                    20534194.144    84084199.465                          41.250                                                                  
G32  25640922.390   134743954.967                          33.500                                                                                                                                    25640939.290   104995289.797                          31.750  
G25  21922569.254   115203984.752                          48.500                                                                                                                                    21922581.754    89769364.574                          47.750  
G 5  23983017.282   126031661.814                          41.000                                                                                                                                    23983032.062    98206504.577                          39.250  
G24  21536332.638   113174209.081                          46.500                                                                                                                                    21536347.478    88187699.329                          48.250  
G 6  23603376.744   124036661.497                          43.000                                                                                                                                    23603391.124    96651963.558                          41.250  
R20  23499525.964   125662597.945                          33.500                                                                                                                                    23499535.344    97737574.046                          34.000  
R22  20655394.164   110259985.414                          52.250                                                                                                                                    20655401.784    85757789.168                          47.750  
R12  22092875.276   118016202.812                          45.000                                                                                                1                                                                                                 
R11  19249570.972   102863954.194                          54.000                                                                                                                                    19249577.312    80005318.802                          49.750  
R21  19863232.888   106292302.860                          54.000                                                                                                                                    19863239.228    82671823.823                          48.750  
R10  20764314.684   110685491.196                          50.750                                                                                                                                    20764324.664    86088725.221                          41.750  
> 2017 11 15 18 30  6.0000000  0 14                     
G29  21651273.536   113778293.380                          50.000                                                                                                                                    21651284.856    88658434.981                          46.000  
G12  20603222.284   108270718.682                          55.000                                                                                                                                    20603230.804    84366809.959                          49.750  
G 2  20534487.704   107909524.991                          50.750                                                                    20534494.824    84085430.529                          40.750                                                                  
G32  25641152.030   134745159.531                          33.250                                                                                                                                    25641168.810   104996228.413                          31.250  
G25  21922148.494   115201773.394                          48.500                                                                                                                                    21922161.114    89767641.433                          48.000  
G 5  23982595.222   126029443.790                          41.000                                                                                                                                    23982610.302    98204776.249                          39.500  
G24  21536848.538   113176921.798                          46.500                                                                                                                                    21536863.558    88189813.135                          48.500  
G 6  23603981.904   124039838.794                          42.750                                                                                                                                    23603996.324    96654439.370                          41.250  
R20  23500210.144   125666249.502                          32.250                                                                                                                                    23500218.484    97740414.146                          33.500  
R22  20655086.244   110258349.139                          52.250                                                                                                                                    20655094.104    85756516.508                          48.000  
R12  22092156.596   118012360.333                          45.000                                                                                                1                                                                                                 
R11  19249401.132   102863047.014                          54.250                                                                                                                                    19249407.592    80004613.217                          49.750  
R21  19863593.048   106294229.020                          54.250                                                                                                                                    19863599.508    82673321.947                          49.000  
R10  20764866.524   110688432.731                          51.000                                                                                                                                    20764876.264    86091013.075                          41.500  
> 2017 11 15 18 30  7.0000000  0 14                     
G29  21651029.536   113777014.906                          49.000                                                                                                                                    21651041.036    88657438.773                          45.750  
G12  20603137.624   108270274.529                          55.250                                                                                                                                    20603146.084    84366463.864                          49.500  
G 2  20534788.484   107911105.401                          50.500                                                                    20534795.584    84086662.016                          41.000                                                                  
G32  25641380.550   134746364.406                          33.250                                                                                                                                    25641398.090   104997167.272                          30.250  
G25  21921727.554   115199562.091                          46.000                                                                                                                                    21921740.574    89765918.344                          48.000  
G 5  23982173.322   126027225.781                          42.000                                                                                                                                    23982187.702    98203047.947                          39.500  
G24  21537364.778   113179634.865                          47.000                                                                                                                                    21537379.798    88191927.207                          48.500  
G 6  23604586.104   124043016.257                          42.750                                                                                                                                    23604601.004    96656915.319                          41.250  
R20  23500893.284   125669900.823                          33.000                                                                                                                                    23500901.264    97743254.054                          33.000  
R22  20654780.964   110256713.362                          52.250                                                                                                                                    20654788.824    85755244.246                          47.500  
R12  22091436.916   118008518.061                          45.500                                                                                                1                                                                                                 
R11  19249231.392   102862140.557                          55.000                                                                                                                                    19249237.732    80003908.197                          49.250  
R21  19863953.328   106296155.522                          54.250                                                                                                                                    19863959.668    82674820.340                          49.000  
R10  20765418.624   110691374.791                          51.000                                                                                                                                    20765428.844    86093301.336                          41.500  
> 2017 11 15 18 30  8.0000000  0 14                     
G29  21650787.056   113775736.763                          49.500                                                                                                                                    21650798.036    88656442.822                          45.750  
G12  20603053.144   108269830.739                          55.250                                                                                                                                    20603062.184    84366118.061                          49.750  
G 2  20535089.444   107912686.570                          50.500                                                                    20535096.644    84087894.091                          41.000                                                                  
G32  25641609.070   134747569.646                          33.500                                                                                                                                    25641627.370   104998106.420                          31.000  
G25  21921306.814   115197350.974                          45.750                                                                                                                                    21921319.534    89764195.396                          48.000  
G 5  23981750.642   126025008.025                          41.500                                                                                                                                    23981765.962    98201319.833                          39.250  
G24  21537881.478   113182348.418                          46.750                                                                                                                                    21537896.258    88194041.658                          49.250  
G 6  23605191.084   124046194.082                          42.500                                                                                                                                    23605205.684    96659391.536                          41.250  
R20  23501575.004   125673552.198                          32.750                                                                                                                                    23501583.104    97746094.010                          34.500  
R22  20654474.824   110255078.173                          52.000                                                                                                                                    20654482.704    85753972.430                          47.750  
R12  22090718.376   118004676.106                          45.500                                                                                                1                                                                                                 
R11  19249061.732   102861234.961                          55.000                                                                                                                                    19249068.192    80003203.844                          49.250  
R21  19864313.328   106298082.525                          54.000                                                                                                                                    19864320.028    82676319.122                          48.750  
R10  20765971.404   110694317.525                          51.000                                                                                                                                    20765981.144    86095590.128                          41.500  
> 2017 11 15 18 30  9.0000000  0 14                     
G29  21650543.516   113774458.844                          49.500                                                                                                                                    21650554.836    88655447.045                          46.250  
G12  20602968.624   108269387.216                          55.000                                                                                                                                    20602977.304    84365772.455                          49.750  
G 2  20535390.764   107914268.294                          50.500                                                                    20535397.324    84089126.603                          41.250                                                                  
G32  25641840.350   134748775.130                          33.750                                                                                                                                    25641856.650   104999045.773                          31.750  
G25  21920885.794   115195139.944                          46.500                                                                                                                                    21920899.054    89762472.517                          47.250  
G 5  23981328.802   126022790.253                          42.000                                                                                                                                    23981344.182    98199591.703                          39.750  
G24  21538397.978   113185062.345                          47.000                                                                                                                                    21538412.658    88196156.395                          49.000  
G 6  23605795.484   124049372.128                          42.500                                                                                                                                    23605809.964    96661867.937                          41.500  
R20  23502260.084   125677203.485                          33.250                                                                                                                                    23502266.304    97748933.897                          34.000  
R22  20654168.324   110253443.518                          51.500                                                                                                                                    20654176.424    85752701.036                          48.000  
R12  22089998.916   118000834.359                          45.000                                                                                                1                                                                                                 
R11  19248892.312   102860330.072                          54.750                                                                                                                                    19248899.012    80002500.042                          49.500  
R21  19864673.748   106300009.899                          54.250                                                                                                                                    19864680.088    82677818.189                          49.000  
R10  20766523.404   110697260.801                          50.750                                                                                                                                    20766533.144    86097879.340                          41.500  
> 2017 11 15 18 30 10.0000000  0 14                     
G29  21650300.276   113773181.216                          49.000                                                                                                                                    21650311.656    88654451.488                          46.000  
G12  20602884.504   108268944.014                          55.000                                                                                                                                    20602893.024    84365427.105                          50.000  
G 2  20535691.804   107915850.714                          49.750                                                                    20535698.604    84090359.662                          41.250                                                                  
G32  25642069.290   134749981.011                          33.250                                                                                                                                    25642086.530   104999985.418                          32.250  
G25  21920465.214   115192929.088                          45.750                                                                                                                                    21920478.294    89760749.774                          47.500  
G 5  23980907.122   126020572.707                          41.750                                                                                                                                    23980921.722    98197863.743                          39.500  
G24  21538914.738   113187776.726                          46.500                                                                                                                                    21538929.418    88198271.495                          49.000  
G 6  23606400.044   124052550.428                          43.000                                                                                                                                    23606414.644    96664344.535                          41.500  
R20  23502940.364   125680854.680                          33.000                                                                                                                                    23502949.744    97751773.714                          34.000  
R22  20653861.904   110251809.402                          51.750                                                                                                                                    20653869.904    85751430.059                          47.750  
R12  22089280.096   117996992.893                          45.750                                                                                                1                                                                                                 
R11  19248723.072   102859425.972                          55.000                                                                                                                                    19248730.352    80001796.855                          49.000  
R21  19865033.528   106301937.707                          54.000                                                                                                                                    19865040.448    82679317.593                          49.000  
R10  20767075.224   110700204.708                          51.000                                                                                                                                    20767085.324    86100169.035                          41.500  
> 2017 11 15 18 30 11.0000000  0 14                     
G29  21650057.056   113771903.816                          49.500                                                                                                                                    21650069.136    88653456.116                          46.250  
G12  20602800.144   108268501.102                          55.000                                                                                                                                    20602809.004    84365081.980                          49.750  
G 2  20535993.104   107917433.728                          49.750                                                                    20536000.384    84091593.177                          41.000                                                                  
G32  25642298.410   134751187.152                          33.000                                                                                                                                    25642315.530   105000925.260                          32.250  
G25  21920044.674   115190718.321                          46.500                                                                                                                                    21920057.474    89759027.098                          47.750  
G 5  23980485.082   126018355.205                          42.000                                                                                                                                    23980499.982    98196135.826                          39.000  
G24  21539431.318   113190491.529                          46.750                                                                                                                                    21539446.218    88200386.925                          49.000  
G 6  23607005.544   124055728.992                          43.000                                                                                                                                    23607020.044    96666821.344                          42.000  
R20  23503625.584   125684505.715                          33.000                                                                                                                                    23503631.464    97754613.408                          33.500  
R22  20653556.884   110250175.820                          51.750                                                                                                                                    20653563.824    85750159.499                          47.750  
R12  22088560.096   117993151.670                          45.500                                                                                                1                                                                                                 
R11  19248554.152   102858522.620                          54.750                                                                                                                                    19248560.852    80001094.248                          49.500  
R21  19865393.828   106303865.879                          54.500                                                                                                                                    19865399.708    82680817.286                          49.500  
R10  20767627.704   110703149.154                          51.250                                                                                                                                    20767637.804    86102459.164                          41.250  
> 2017 11 15 18 30 12.0000000  0 14                     
G29  21649814.236   113770626.596                          49.750                                                                                                                                    21649825.316    88652460.886                          46.000  
G12  20602716.264   108268058.381                          55.250                                                                                                                                    20602724.904    84364736.999                          49.500  
G 2  20536294.724   107919017.283                          50.000                                                                    20536301.004    84092827.118                          41.000                                                                  
G32  25642530.590   134752393.500                          33.500                                                                                                                                    25642545.250   105001865.268                          32.250  
G25  21919624.174   115188507.577                          46.500                                                                                                                                    21919636.974    89757304.443                          47.750  
G 5  23980063.462   126016137.735                          42.000                                                                                                                                    23980078.302    98194407.929                          39.250  
G24  21539947.678   113193206.615                          46.250                                                                                                                                    21539962.518    88202502.569                          49.000  
G 6  23607610.144   124058907.734                          43.000                                                                                                                                    23607624.984    96669298.290                          42.000  
R20  23504307.584   125688156.604                          33.750                                                                                                                                    23504314.984    97757452.982                          32.750  
R22  20653250.164   110248542.670                          51.750                                                                                                                                    20653257.784    85748889.273                          47.250  
R12  22087840.616   117989310.597                          45.750                                                                                                1                                                                                                 
R11  19248385.672   102857619.923                          54.750                                                                                                                                    19248392.012    80000392.146                          49.500  
R21  19865754.588   106305794.364                          54.500                                                                                                                                    19865760.448    82682317.217                          49.500  
R10  20768180.304   110706094.074                          51.250                                                                                                                                    20768191.204    86104749.649                          41.500  
> 2017 11 15 18 30 13.0000000  0 14                     
G29  21649571.336   113769349.754                          50.250                                                                                                                                    21649582.356    88651465.940                          46.250  
G12  20602631.664   108267616.070                          55.000                                                                                                                                    20602640.464    84364392.345                          49.750  
G 2  20536595.764   107920601.605                          50.000                                                                    20536602.524    84094061.647                          40.750                                                                  
G32  25642758.090   134753600.361                          33.250                                                                                                                                    25642774.750   105002805.662                          32.500  
G25  21919203.494   115186297.073                          47.000                                                                                                                                    21919216.294    89755581.972                          48.000  
G 5  23979640.782   126013920.528                          42.000                                                                                                                                    23979656.142    98192680.244                          39.250  
G24  21540464.438   113195922.270                          46.500                                                                                                                                    21540479.218    88204618.668                          49.250  
G 6  23608214.684   124062086.830                          42.500                                                                                                                                    23608229.764    96671775.506                          42.000  
R20  23504989.944   125691807.489                          34.500                                                                                                                                    23504997.104    97760292.568                          32.500  
R22  20652944.524   110246910.196                          51.500                                                                                                                                    20652951.924    85747619.575                          47.500  
R12  22087122.156   117985469.879                          45.750                                                                                                1                                                                                                 
R11  19248216.872   102856718.158                          55.000                                                                                                                                    19248223.332    79999690.773                          49.750  
R21  19866114.908   106307723.357                          54.000                                                                                                                                    19866121.468    82683817.547                          49.500  
R10  20768732.924   110709039.705                          51.500                                                                                                                                    20768743.604    86107040.689                          41.500  
> 2017 11 15 18 30 14.0000000  0 14                     
G29  21649328.376   113768073.172                          50.500                                                                                                                                    21649339.696    88650471.208                          46.000  
G12  20602547.684   108267174.071                          55.000                                                                                                                                    20602556.484    84364047.931                          49.750  
G 2  20536897.524   107922186.531                          50.500                                                                    20536904.564    84095296.661                          40.750                                                                  
G32  25642987.470   134754807.469                          33.250                                                                                                                                    25643004.590   105003746.266                          32.000  
G25  21918782.794   115184086.692                          46.500                                                                                                                                    21918795.294    89753859.604                          48.000  
G 5  23979219.102   126011703.389                          42.500                                                                                                                                    23979233.782    98190952.607                          39.250  
G24  21540981.098   113198638.280                          46.500                                                                                                                                    21540996.058    88206735.038                          49.000  
G 6  23608820.064   124065266.169                          43.000                                                                                                                                    23608834.784    96674252.907                          41.500  
R20  23505671.904   125695458.361                          33.750                                                                                                                                    23505680.004    97763132.139                          32.750  
R22  20652638.804   110245278.271                          51.250                                                                                                                                    20652646.324    85746350.304                          47.500  
R12  22086403.756   117981629.411                          45.750                                                                                                1                                                                                                 
R11  19248048.052   102855817.168                          54.750                                                                                                                                    19248054.512    79998990.003                          49.750  
R21  19866475.748   106309652.717                          54.250                                                                                                                                    19866481.608    82685318.158                          49.500  
R10  20769286.124   110711985.891                          51.250                                                                                                                                    20769296.104    86109332.159                          41.750  
> 2017 11 15 18 30 15.0000000  0 14                     
G29  21649085.276   113766796.776                          51.000                                                                                                                                    21649096.596    88649476.621                          46.500  
G12  20602463.784   108266732.280                          55.000                                                                                                                                    20602472.244    84363703.680                          49.500  
G 2  20537199.064   107923772.044                          50.500                                                                    20537205.944    84096532.131                          41.000                                                                  
G32  25643217.170   134756014.845                          33.500                                                                                                                                    25643234.530   105004687.091                          32.250  
G25  21918362.414   115181876.363                          47.000                                                                                                                                    21918375.154    89752137.272                          48.000  
G 5  23978796.822   126009486.258                          42.250                                                                                                                                    23978812.202    98189224.985                          38.750  
G24  21541497.918   113201354.699                          46.500                                                                                                                                    21541513.118    88208851.722                          49.000  
G 6  23609425.264   124068445.699                          43.000                                                                                                                                    23609439.464    96676730.467                          41.750  
R20  23506354.024   125699109.030                          34.000                                                                                                                                    23506362.724    97765971.546                          33.250  
R22  20652333.044   110243646.792                          51.000                                                                                                                                    20652341.244    85745081.378                          47.500  
R12  22085684.456   117977789.123                          45.500                                                                                                1                                                                                                 
R11  19247879.912   102854916.859                          54.500                                                                                                                                    19247886.132    79998289.767                          49.750  
R21  19866836.088   106311582.436                          54.500                                                                                                                                    19866842.308    82686819.050                          49.250  
R10  20769838.564   110714932.613                          51.000                                                                                                                                    20769848.784    86111624.056                          42.000  
> 2017 11 15 18 30 16.0000000  0 14                     
G29  21648842.796   113765520.646                          51.000                                                                                                                                    21648853.936    88648482.236                          46.750  
G12  20602379.604   108266290.813                          55.000                                                                                                                                    20602388.164    84363359.677                          49.750  
G 2  20537500.804   107925358.227                          50.000                                                                    20537507.744    84097768.115                          40.750                                                                  
G32  25643447.890   134757222.533                          33.500                                                                                                                                    25643464.550   105005628.157                          32.000  
G25  21917941.134   115179666.193                          47.250                                                                                                                                    21917954.694    89750415.065                          47.750  
G 5  23978375.482   126007269.290                          42.250                                                                                                                                    23978389.982    98187497.485                          38.500  
G24  21542015.118   113204071.529                          46.250                                                                                                                                    21542029.258    88210968.734                          48.750  
G 6  23610029.864   124071625.534                          43.000                                                                                                                                    23610044.584    96679208.254                          42.000  
R20  23507036.564   125702759.584                          34.500                                                                                                                                    23507046.064    97768810.862                          33.500  
R22  20652027.304   110242015.871                          51.000                                                                                                                                    20652035.744    85743812.894                          47.500  
R12  22084965.276   117973949.108                          45.500                                                                                                1                                                                                                 
R11  19247711.392   102854017.307                          54.500                                                                                                                                    19247718.312    79997590.113                          50.000  
R21  19867197.068   106313512.555                          54.500                                                                                                                                    19867202.348    82688320.261                          49.000  
R10  20770391.244   110717879.951                          51.000                                                                                                                                    20770401.464    86113916.423                          41.750  
> 2017 11 15 18 30 17.0000000  0 14                     
G29  21648600.136   113764244.831                          51.250                                                                                                                                    21648611.536    88647488.094                          45.750  
G12  20602295.444   108265849.710                          55.250                                                                                                                                    20602304.004    84363015.961                          50.000  
G 2  20537802.784   107926945.037                          50.000                                                                    20537809.464    84099004.587                          41.000                                                                  
G32  25643677.750   134758430.608                          32.750                                                                                                                                    25643693.890   105006569.518                          32.250  
G25  21917520.994   115177456.161                          47.500                                                                                                                                    21917534.034    89748692.963                          47.750  
G 5  23977953.302   126005052.459                          42.500                                                                                                                                    23977969.242    98185770.090                          38.500  
G24  21542532.478   113206788.803                          46.000                                                                                                                                    21542546.558    88213086.084                          48.750  
G 6  23610635.424   124074805.651                          43.250                                                                                                                                    23610650.104    96681686.269                          42.000  
R20  23507720.484   125706410.106                          34.500                                                                                                                                    23507728.584    97771650.165                          33.250  
R22  20651722.024   110240385.536                          51.000                                                                                                                                    20651730.124    85742544.861                          47.750  
R12  22084247.196   117970109.351                          45.250                                                                                                1                                                                                                 
R11  19247543.092   102853118.577                          54.500                                                                                                                                    19247550.252    79996891.106                          49.500  
R21  19867557.508   106315443.151                          54.250                                                                                                                                    19867562.908    82689821.833                          48.750  
R10  20770943.604   110720827.906                          50.500                                                                                                                                    20770955.564    86116209.271                          42.000  
> 2017 11 15 18 30 18.0000000  0 14                     
G29  21648357.396   113762969.271                          51.000                                                                                                                                    21648368.136    88646494.155                          46.250  
G12  20602211.704   108265408.852                          55.000                                                                                                                                    20602220.164    84362672.433                          49.750  
G 2  20538104.684   107928532.497                          50.250                                                                    20538111.844    84100241.571                          41.000                                                                  
G32  25643908.550   134759638.967                          32.250                                                                                                                                    25643923.750   105007511.100                          31.500  
G25  21917100.734   115175246.240                          48.000                                                                                                                                    21917113.354    89746970.948                          48.000  
G 5  23977531.542   126002835.753                          41.750                                                                                                                                    23977546.842    98184042.802                          38.500  
G24  21543049.558   113209506.460                          46.500                                                                                                                                    21543063.818    88215203.737                          48.750  
G 6  23611240.844   124077986.003                          43.000                                                                                                                                    23611255.224    96684164.460                          41.500  
R20  23508402.144   125710060.540                          33.500                                                                                                                                    23508411.524    97774489.397                          33.250  
R22  20651416.544   110238755.688                          50.750                                                                                                                                    20651424.644    85741277.197                          48.000  
R12  22083528.216   117966269.821                          45.750                                                                                                1                                                                                                 
R11  19247375.692   102852220.617                          55.000                                                                                                                                    19247382.512    79996192.690                          49.500  
R21  19867918.688   106317374.130                          54.500                                                                                                                                    19867924.208    82691323.708                          49.000  
R10  20771497.684   110723776.451                          51.000                                                                                                                                    20771508.004    86118502.580                          41.750  
> 2017 11 15 18 30 19.0000000  0 14                     
G29  21648114.776   113761693.890                          50.750                                                                                                                                    21648125.576    88645500.356                          46.250  
G12  20602127.964   108264968.236                          54.750                                                                                                                                    20602136.644    84362329.100                          50.000  
G 2  20538407.344   107930120.513                          50.000                                                                    20538414.204    84101478.986                          41.000                                                                  
G32  25644138.790   134760847.617                          31.000                                                                                                                                    25644154.390   105008452.906                          31.750  
G25  21916679.914   115173036.382                          47.500                                                                                                                                    21916693.574    89745248.981                          47.750  
G 5  23977110.002   126000619.093                          41.500                                                                                                                                    23977124.502    98182315.538                          38.500  
G24  21543566.978   113212224.456                          46.500                                                                                                                                    21543581.818    88217321.650                          48.500  
G 6  23611845.824   124081166.564                          43.000                                                                                                                                    23611860.264    96686642.814                          41.500  
R20  23509084.704   125713710.883                          33.500                                                                                                                                    23509093.144    97777328.553                          34.000  
R22  20651111.824   110237126.358                          50.750                                                                                                                                    20651119.804    85740009.942                          47.500  
R12  22082809.436   117962430.471                          45.750                                                                                                1                                                                                                 
R11  19247207.232   102851323.373                          54.500                                                                                                                                    19247213.812    79995494.831                          49.000  
R21  19868279.328   106319305.451                          54.500                                                                                                                                    19868284.968    82692825.840                          48.750  
R10  20772050.464   110726725.508                          51.000                                                                                                                                    20772060.904    86120796.288                          42.000  
> 2017 11 15 18 30 20.0000000  0 14                     
G29  21647871.736   113760418.871                          50.250                                                                                                                                    21647883.296    88644506.843                          46.250  
G12  20602044.324   108264528.008                          55.000                                                                                                                                    20602053.144    84361986.064                          49.750  
G 2  20538709.584   107931709.265                          50.250                                                                    20538715.984    84102716.981                          41.000                                                                  
G32  25644367.610   134762056.599                          31.500                                                                                                                                    25644384.450   105009394.963                          31.000  
G25  21916259.494   115170826.742                          47.000                                                                                                                                    21916272.454    89743527.188                          47.500  
G 5  23976687.742   125998402.653                          41.500                                                                                                                                    23976702.882    98180588.444                          38.750  
G24  21544084.198   113214942.944                          46.500                                                                                                                                    21544098.978    88219439.950                          48.500  
G 6  23612451.784   124084347.468                          43.000                                                                                                                                    23612466.504    96689121.443                          41.250  
R20  23509769.284   125717361.201                          34.000                                                                                                                                    23509776.564    97780167.690                          33.500  
R22  20650805.504   110235497.636                          50.500                                                                                                                                    20650814.084    85738743.165                          47.500  
R12  22082090.416   117958591.454                          45.500                                                                                                1                                                                                                 
R11  19247039.732   102850426.973                          54.500                                                                                                                                    19247045.852    79994797.636                          49.000  
R21  19868641.048   106321237.232                          54.500                                                                                                                                    19868646.688    82694328.343                          49.000  
R10  20772604.024   110729675.252                          51.000                                                                                                                                    20772615.044    86123090.528                          42.250  
> 2017 11 15 18 30 21.0000000  0 14                     
G29  21647629.276   113759144.091                          49.000                                                                                                                                    21647639.956    88643513.510                          46.250  
G12  20601960.324   108264088.080                          55.000                                                                                                                                    20601968.824    84361643.263                          49.500  
G 2  20539011.904   107933298.646                          50.500                                                                    20539018.284    84103955.455                          40.750                                                                  
G32  25644597.850   134763265.929                          31.500                                                                                                                                    25644614.270   105010337.288                          31.250  
G25  21915839.014   115168617.223                          46.750                                                                                                                                    21915851.574    89741805.489                          47.500  
G 5  23976266.402   125996186.252                          42.000                                                                                                                                    23976281.542    98178861.382                          39.250  
G24  21544601.418   113217661.808                          46.250                                                                                                                                    21544615.498    88221558.537                          48.250  
G 6  23613057.104   124087528.609                          43.000                                                                                                                                    23613071.244    96691600.261                          41.250  
R20  23510449.904   125721011.429                          34.000                                                                                                                                    23510459.424    97783006.751                          33.500  
R22  20650501.624   110233869.469                          50.750                                                                                                                                    20650509.844    85737476.808                          47.500  
R12  22081371.516   117954752.691                          45.250                                                                                                1                                                                                                 
R11  19246872.052   102849531.330                          54.750                                                                                                                                    19246877.572    79994101.020                          49.250  
R21  19869001.548   106323169.407                          54.500                                                                                                                                    19869007.428    82695831.141                          49.250  
R10  20773157.344   110732625.577                          51.000                                                                                                                                    20773168.244    86125385.217                          42.000  
> 2017 11 15 18 30 22.0000000  0 14                     
G29  21647386.536   113757869.572                          49.000                                                                                                                                    21647397.936    88642520.378                          46.250  
G12  20601876.564   108263648.428                          54.000                                                                                                                                    20601885.424    84361300.677                          49.500  
G 2  20539314.344   107934888.635                          50.750                                                                    20539321.384    84105194.408                          41.000                                                                  
G32  25644828.450   134764475.581                          31.000                                                                                                                                    25644844.830   105011279.870                          30.500  
G25  21915418.714   115166407.772                          46.750                                                                                                                                    21915431.854    89740083.835                          47.750  
G 5  23975845.042   125993970.035                          42.500                                                                                                                                    23975859.882    98177134.465                          39.250  
G24  21545118.878   113220381.097                          46.500                                                                                                                                    21545133.138    88223677.466                          48.750  
G 6  23613662.404   124090709.994                          43.000                                                                                                                                    23613676.824    96694079.262                          41.000  
R20  23511132.864   125724661.504                          32.750                                                                                                                                    23511142.144    97785845.693                          33.750  
R22  20650196.984   110232241.809                          50.500                                                                                                                                    20650204.744    85736210.853                          47.500  
R12  22080652.496   117950914.133                          45.250                                                                                                1                                                                                                 
R11  19246704.492   102848636.434                          54.750                                                                                                                                    19246711.192    79993404.990                          49.500  
R21  19869363.248   106325101.988                          54.500                                                                                                                                    19869368.648    82697334.264                          49.500  
R10  20773711.204   110735576.443                          51.750                                                                                                                                    20773721.544    86127680.329                          42.250  
> 2017 11 15 18 30 23.0000000  0 14                     
G29  21647144.156   113756595.254                          49.500                                                                                                                                    21647155.196    88641527.406                          46.250  
G12  20601793.104   108263208.989                          54.000                                                                                                                                    20601801.724    84360958.256                          49.750  
G 2  20539617.264   107936479.177                          51.000                                                                    20539623.724    84106433.785                          41.000                                                                  
G32  25645058.230   134765685.492                          30.750                                                                                                                                    25645074.710   105012222.652                          29.500  
G25  21914998.214   115164198.416                          47.000                                                                                                                                    21915011.354    89738362.263                          47.750  
G 5  23975423.302   125991753.829                          41.500                                                                                                                                    23975437.442    98175407.549                          39.500  
G24  21545636.518   113223100.727                          46.000                                                                                                                                    21545651.078    88225796.650                          48.750  
G 6  23614268.244   124093891.569                          43.000                                                                                                                                    23614282.204    96696558.413                          41.000  
R20  23511816.264   125728311.411                          32.250                                                                                                                                    23511824.364    97788684.507                          33.500  
R22  20649890.624   110230614.641                          50.500                                                                                                                                    20649898.944    85734945.288                          47.500  
R12  22079933.916   117947075.768                          45.500                                                                                                1                                                                                                 
R11  19246537.352   102847742.217                          54.500                                                                                                                                    19246542.872    79992709.488                          49.500  
R21  19869723.948   106327034.882                          54.250                                                                                                                                    19869729.468    82698837.626                          49.500  
R10  20774265.184   110738527.821                          51.500                                                                                                                                    20774275.864    86129975.841                          42.000  
> 2017 11 15 18 30 24.0000000  0 14                     
G29  21646901.836   113755321.260                          50.000                                                                                                                                    21646913.236    88640534.689                          46.750  
G12  20601709.564   108262769.965                          54.250                                                                                                                                    20601718.264    84360616.162                          49.500  
G 2  20539920.084   107938070.483                          51.000                                                                    20539926.784    84107673.764                          41.250                                                                  
G32  25645289.430   134766895.769                          32.000                                                                                                                                    25645305.150   105013165.698                          29.750  
G25  21914578.114   115161989.265                          47.500                                                                                                                                    21914590.894    89736640.852                          47.750  
G 5  23975001.182   125989537.826                          41.500                                                                                                                                    23975016.362    98173680.799                          39.000  
G24  21546154.218   113225820.899                          46.500                                                                                                                                    21546168.518    88227916.261                          48.250  
G 6  23614873.364   124097073.503                          43.000                                                                                                                                    23614887.384    96699037.841                          41.000  
R20  23512496.924   125731961.337                          32.250                                                                                                                                    23512506.324    97791523.353                          33.250  
R22  20649586.844   110228988.084                          50.500                                                                                                                                    20649594.344    85733680.192                          47.750  
R12  22079215.276   117943237.755                          45.500                                                                                                1                                                                                                 
R11  19246370.072   102846848.890                          54.500                                                                                                                                    19246376.772    79992014.680                          49.250  
R21  19870085.808   106328968.261                          54.250                                                                                                                                    19870091.208    82700341.367                          49.750  
R10  20774818.464   110741479.892                          51.500                                                                                                                                    20774828.444    86132271.892                          42.000  
> 2017 11 15 18 30 25.0000000  0 14                     
G29  21646659.296   113754047.563                          50.250                                                                                                                                    21646670.916    88639542.198                          47.000  
G12  20601625.984   108262331.246                          54.500                                                                                                                                    20601634.504    84360274.307                          50.000  
G 2  20540223.084   107939662.415                          50.750                                                                    20540229.484    84108914.236                          41.250                                                                  
G32  25645519.870   134768106.371                          30.500                                                                                                                                    25645535.410   105014109.016                          28.500  
G25  21914157.174   115159780.264                          47.750                                                                                                                                    21914170.034    89734919.554                          47.750  
G 5  23974579.522   125987321.951                          42.000                                                                                                                                    23974593.882    98171954.149                          39.000  
G24  21546671.778   113228541.491                          46.750                                                                                                                                    21546686.318    88230036.203                          48.250  
G 6  23615478.904   124100255.706                          42.750                                                                                                                                    23615493.164    96701517.471                          40.500  
R20  23513177.664   125735611.188                          32.500                                                                                                                                    23513189.404    97794362.136                          33.000  
R22  20649281.964   110227362.071                          50.250                                                                                                                                    20649290.884    85732415.519                          47.250  
R12  22078497.276   117939400.010                          45.250                                                                                                1                                                                                                 
R11  19246202.812   102845956.372                          54.250                                                                                                                                    19246209.272    79991320.502                          49.000  
R21  19870446.748   106330902.062                          54.250                                                                                                                                    19870452.268    82701845.431                          49.250  
R10  20775372.244   110744432.555                          51.000                                                                                                                                    20775383.044    86134568.399                          41.500  
> 2017 11 15 18 30 26.0000000  0 14                     
G29  21646416.956   113752774.103                          50.500                                                                                                                                    21646428.296    88638549.897                          47.000  
G12  20601542.524   108261892.787                          55.000                                                                                                                                    20601551.564    84359932.652                          50.000  
G 2  20540525.964   107941254.969                          50.500                                                                    20540532.784    84110155.185                          41.500                                                                  
G32  25645750.350   134769317.263                          31.000                                                                                                                                    25645765.610   105015052.568                          29.250  
G25  21913737.374   115157571.370                          47.750                                                                                                                                    21913749.974    89733198.338                          47.500  
G 5  23974157.682   125985106.167                          42.500                                                                                                                                    23974172.822    98170227.569                          38.750  
G24  21547189.278   113231262.438                          46.500                                                                                                                                    21547204.118    88232156.411                          48.000  
G 6  23616083.524   124103438.140                          43.250                                                                                                                                    23616098.664    96703997.283                          40.500  
R20  23513861.084   125739260.894                          32.500                                                                                                                                    23513871.424    97797200.794                          33.000  
R22  20648976.584   110225736.576                          50.250                                                                                                                                    20648985.284    85731151.250                          47.500  
R12  22077778.936   117935562.457                          45.500                                                                                                1                                                                                                 
R11  19246036.172   102845064.579                          54.000                                                                                                                                    19246042.852    79990626.885                          49.000  
R21  19870808.068   106332836.259                          54.000                                                                                                                                    19870814.068    82703349.813                          49.500  
R10  20775926.644   110747385.775                          51.000                                                                                                                                    20775937.204    86136865.348                          41.500  
> 2017 11 15 18 30 27.0000000  0 14                     
G29  21646174.776   113751500.889                          50.250                                                                                                                                    21646185.736    88637557.783                          47.000  
G12  20601459.124   108261454.646                          55.000                                                                                                                                    20601467.984    84359591.244                          50.250  
G 2  20540829.644   107942848.143                          50.000                                                                    20540836.504    84111396.618                          41.750                                                                  
G32  25645979.250   134770528.549                          30.000                                                                                                                                    25645996.610   105015996.438                          29.250  
G25  21913316.774   115155362.568                          47.750                                                                                                                                    21913329.274    89731477.198                          47.750  
G 5  23973736.082   125982890.526                          42.250                                                                                                                                    23973751.382    98168501.103                          39.000  
G24  21547707.498   113233983.795                          46.500                                                                                                                                    21547721.918    88234276.943                          48.250  
G 6  23616689.784   124106620.836                          42.750                                                                                                                                    23616703.504    96706477.300                          40.750  
R20  23514542.624   125742910.552                          32.500                                                                                                                                    23514554.124    97800039.426                          33.500  
R22  20648673.464   110224111.628                          50.000                                                                                                                                    20648681.324    85729887.403                          47.500  
R12  22077061.056   117931725.176                          44.750                                                                                                1                                                                                                 
R11  19245869.492   102844173.544                          54.250                                                                                                                                    19245875.952    79989933.856                          49.250  
R21  19871169.868   106334770.834                          54.500                                                                                                                                    19871175.148    82704854.475                          49.750  
R10  20776480.624   110750339.586                          51.250                                                                                                                                    20776491.184    86139162.748                          41.500  
> 2017 11 15 18 30 28.0000000  0 14                     
G29  21645932.776   113750228.075                          50.000                                                                                                                                    21645943.696    88636565.983                          46.250  
G12  20601375.804   108261016.946                          54.750                                                                                                                                    20601384.724    84359250.171                          50.000  
G 2  20541132.644   107944442.098                          50.000                                                                    20541139.164    84112638.661                          41.750                                                                  
G32  25646209.490   134771740.192                          29.000                                                                                                                                    25646226.970   105016940.583                          31.000  
G25  21912896.434   115153154.053                          47.250                                                                                                                                    21912909.234    89729756.279                          47.500  
G 5  23973315.002   125980675.114                          42.250                                                                                                                                    23973329.322    98166774.814                          38.500  
G24  21548225.338   113236705.704                          46.500                                                                                                                                    21548239.478    88236397.906                          48.500  
G 6  23617295.684   124109803.900                          42.750                                                                                                                                    23617310.004    96708957.622                          40.750  
R20  23515227.044   125746560.291                          32.000                                                                                                                                    23515235.964    97802878.105                          33.250  
R22  20648368.284   110222487.358                          49.750                                                                                                                                    20648376.504    85728624.084                          47.500  
R12  22076342.396   117927888.293                          44.250                                                                                                1                                                                                                 
R11  19245702.512   102843283.428                          54.500                                                                                                                                    19245709.092    79989241.543                          49.500  
R21  19871531.848   106336705.957                          54.250                                                                                                                                    19871536.668    82706359.571                          49.750  
R10  20777034.984   110753294.096                          51.000                                                                                                                                    20777045.664    86141460.698                          41.500  
> 2017 11 15 18 30 29.0000000  0 13                     
G29  21645690.296   113748955.371                          50.000                                                                                                                                    21645701.736    88635574.272                          46.500  
G12  20601292.544   108260579.359                          54.500                                                                                                                                    20601301.224    84358909.200                          50.500  
G 2  20541435.964   107946036.510                          50.500                                                                    20541442.484    84113881.062                          41.500                                                                  
G25  21912476.214   115150945.466                          47.000                                                                                                                                    21912488.994    89728035.305                          48.000  
G 5  23972892.802   125978459.591                          42.250                                                                                                                                    23972907.602    98165048.443                          38.250  
G24  21548743.418   113239427.862                          46.500                                                                                                                                    21548757.218    88238519.060                          48.500  
G 6  23617900.884   124112987.078                          42.750                                                                                                                                    23617915.304    96711438.024                          41.000  
R20  23515910.404   125750209.741                          32.000                                                                                                                                    23515919.324    97805716.566                          33.500  
R22  20648064.584   110220863.459                          50.000                                                                                                                                    20648073.164    85727361.054                          47.500  
R12  22075624.676   117924051.488                          44.500                                                                                                1                                                                                                 
R11  19245535.872   102842393.917                          54.250                                                                                                                                    19245542.692    79988549.703                          49.250  
R21  19871893.268   106338641.283                          54.250                                                                                                                                    19871898.908    82707864.825                          49.500  
R10  20777588.784   110756249.010                          50.750                                                                                                                                    20777599.464    86143758.967                          41.500  
> 2017 11 15 18 30 30.0000000  0 14                     
G29  21645448.096   113747682.932                          50.500                                                                                                                                    21645459.356    88634582.770                          46.250  
G12  20601209.444   108260142.114                          54.500                                                                                                                                    20601218.364    84358568.489                          50.000  
G 2  20541739.944   107947631.589                          50.000                                                                    20541746.264    84115123.982                          41.250                                                                  
G32  25646670.570   134774163.2181                         28.750                                                                                                                                    25646687.470   105018828.4301                         29.500  
G25  21912056.134   115148737.069                          47.000                                                                                                                                    21912068.814    89726314.480                          47.750  
G 5  23972471.102   125976244.310                          42.500                                                                                                                                    23972486.242    98163322.270                          38.500  
G24  21549261.938   113242150.478                          46.000                                                                                                                                    21549276.358    88240640.579                          48.250  
G 6  23618506.764   124116170.528                          42.250                                                                                                                                    23618521.244    96713918.637                          41.000  
R20  23516592.404   125753859.148                          32.000                                                                                                                                    23516601.444    97808554.992                          34.250  
R22  20647760.964   110219240.139                          50.000                                                                                                                                    20647768.844    85726098.474                          47.500  
R12  22074906.376   117920214.968                          44.500                                                                                                1                                                                                                 
R11  19245369.812   102841505.201                          54.500                                                                                                                                    19245376.152    79987858.482                          49.500  
R21  19872254.968   106340577.057                          54.250                                                                                                                                    19872261.068    82709370.426                          49.000  
R10  20778143.384   110759204.522                          51.250                                                                                                                                    20778153.484    86146057.692                          41.500  
> 2017 11 15 18 30 31.0000000  0 14                     
G29  21645205.876   113746410.778                          50.750                                                                                                                                    21645217.376    88633591.480                          46.500  
G12  20601126.164   108259705.160                          54.500                                                                                                                                    20601134.444    84358228.008                          49.750  
G 2  20542043.344   107949227.289                          50.000                                                                    20542049.744    84116367.385                          41.250                                                                  
G32  25646901.790   134775375.651                          26.250                                                                                                                                    25646918.970   105019773.184                          29.750  
G25  21911635.634   115146528.756                          46.750                                                                                                                                    21911648.414    89724593.719                          48.000  
G 5  23972049.842   125974029.110                          42.750                                                                                                                                    23972064.382    98161596.144                          38.000  
G24  21549780.198   113244873.427                          45.750                                                                                                                                    21549793.698    88242762.353                          47.750  
G 6  23619112.644   124119354.255                          42.750                                                                                                                                    23619126.784    96716399.457                          40.750  
R20  23517274.024   125757508.429                          31.500                                                                                                                                    23517283.884    97811393.330                          33.500  
R22  20647457.304   110217617.353                          50.500                                                                                                                                    20647465.644    85724836.315                          47.500  
R12  22074187.576   117916378.676                          45.000                                                                                                1                                                                                                 
R11  19245203.732   102840617.234                          54.500                                                                                                                                    19245209.952    79987167.843                          49.750  
R21  19872616.488   106342513.245                          54.500                                                                                                                                    19872621.788    82710876.350                          49.000  
R10  20778698.564   110762160.615                          51.250                                                                                                                                    20778708.664    86148356.870                          41.500  
> 2017 11 15 18 30 32.0000000  0 14                     
G29  21644963.636   113745138.980                          50.750                                                                                                                                    21644974.776    88632600.471                          46.500  
G12  20601042.884   108259268.624                          54.500                                                                                                                                    20601052.104    84357887.850                          50.000  
G 2  20542347.044   107950823.766                          50.500                                                                    20542353.904    84117611.395                          41.500                                                                  
G32  25647133.570   134776588.579                          28.750                                                                                                                                    25647149.830   105020718.328                          30.000  
G25  21911215.014   115144320.719                          46.250                                                                                                                                    21911228.034    89722873.170                          48.000  
G 5  23971628.482   125971814.125                          42.750                                                                                                                                    23971642.622    98159870.183                          37.250  
G24  21550298.138   113247596.936                          45.750                                                                                                                                    21550312.698    88244884.564                          48.000  
G 6  23619718.524   124122538.339                          42.000                                                                                                                                    23619732.904    96718880.561                          40.750  
R20  23517956.984   125761157.748                          31.500                                                                                                                                    23517966.964    97814231.689                          33.500  
R22  20647153.044   110215995.242                          50.250                                                                                                                                    20647161.024    85723574.674                          47.750  
R12  22073469.076   117912542.773                          44.750                                                                                                1                                                                                                 
R11  19245037.472   102839730.169                          54.500                                                                                                                                    19245043.592    79986477.904                          49.750  
R21  19872978.668   106344449.954                          54.500                                                                                                                                    19872984.188    82712382.686                          48.750  
R10  20779253.364   110765117.417                          51.000                                                                                                                                    20779263.444    86150656.600                          41.500  
> 2017 11 15 18 30 33.0000000  0 14                     
G29  21644721.936   113743867.396                          51.000                                                                                                                                    21644732.956    88631609.632                          46.500  
G12  20600960.384   108258832.338                          54.500                                                                                                                                    20600968.824    84357547.885                          49.750  
G 2  20542650.804   107952420.818                          50.250                                                                    20542657.364    84118855.851                          41.500                                                                  
G32  25647363.830   134777801.780                          28.000                                                                                                                                    25647380.890   105021663.690                          28.250  
G25  21910795.014   115142112.758                          46.250                                                                                                                                    21910807.914    89721152.683                          48.250  
G 5  23971207.002   125969599.212                          43.000                                                                                                                                    23971220.842    98158144.282                          37.250  
G24  21550816.678   113250320.855                          46.000                                                                                                                                    21550830.818    88247007.096                          47.750  
G 6  23620325.184   124125722.661                          42.500                                                                                                                                    23620338.924    96721361.850                          41.000  
R20  23518638.184   125764806.925                          31.750                                                                                                                                    23518649.104    97817069.946                          33.750  
R22  20646849.184   110214373.609                          50.250                                                                                                                                    20646857.864    85722313.406                          47.750  
R12  22072751.596   117908707.031                          44.750                                                                                                1                                                                                                 
R11  19244871.832   102838843.829                          54.500                                                                                                                                    19244877.812    79985788.524                          49.750  
R21  19873340.408   106346386.998                          54.250                                                                                                                                    19873345.808    82713889.272                          49.000  
R10  20779807.964   110768074.784                          51.000                                                                                                                                    20779818.284    86152956.768                          41.750  
> 2017 11 15 18 30 34.0000000  0 14                     
G29  21644479.716   113742596.016                          51.000                                                                                                                                    21644491.736    88630618.947                          46.500  
G12  20600877.224   108258396.262                          53.250                                                                                                                                    20600886.324    84357208.086                          49.500  
G 2  20542954.804   107954018.412                          49.000                                                                    20542961.724    84120100.726                          41.000                                                                  
G32  25647595.790   134779015.173                          27.500                                                                                                                                    25647610.990   105022609.191                          28.750  
G25  21910375.294   115139904.829                          46.500                                                                                                                                    21910388.554    89719432.217                          48.250  
G 5  23970785.702   125967384.314                          42.750                                                                                                                                    23970798.902    98156418.388                          37.500  
G24  21551334.718   113253045.010                          45.750                                                                                                                                    21551349.258    88249129.812                          48.000  
G 6  23620930.604   124128907.121                          42.250                                                                                                                                    23620944.684    96723843.243                          41.250  
R20  23519321.164   125768455.896                          31.250                                                                                                                                    23519330.684    97819908.039                          33.750  
R22  20646545.264   110212752.417                          50.000                                                                                                                                    20646553.124    85721052.478                          48.000  
R12  22072033.736   117904871.470                          45.250                                                                                                1                                                                                                 
R11  19244706.312   102837958.173                          54.750                                                                                                                                    19244712.072    79985099.680                          49.750  
R21  19873702.568   106348324.329                          54.500                                                                                                                                    19873707.508    82715396.087                          49.000  
R10  20780363.024   110771032.639                          51.000                                                                                                                                    20780372.884    86155257.318                          41.500  
> 2017 11 15 18 30 35.0000000  0 14                     
G29  21644237.896   113741324.891                          50.750                                                                                                                                    21644249.156    88629628.460                          46.500  
G12  20600794.164   108257960.504                          53.750                                                                                                                                    20600802.964    84356868.536                          49.750  
G 2  20543258.944   107955616.655                          49.500                                                                    20543266.044    84121346.118                          41.250                                                                  
G32  25647824.650   134780228.858                          28.000                                                                                                                                    25647842.470   105023554.915                          28.750  
G25  21909955.174   115137697.052                          46.500                                                                                                                                    21909968.274    89717711.875                          48.000  
G 5  23970363.862   125965169.596                          42.500                                                                                                                                    23970377.702    98154692.633                          37.500  
G24  21551853.238   113255769.641                          45.750                                                                                                                                    21551867.498    88251252.895                          48.250  
G 6  23621536.804   124132091.885                          42.500                                                                                                                                    23621551.064    96726324.875                          41.000  
R20  23520005.564   125772104.878                          31.750                                                                                                                                    23520014.024    97822746.129                          34.000  
R22  20646242.544   110211131.801                          49.500                                                                                                                                    20646249.464    85719792.009                          47.750  
R12  22071315.856   117901036.180                          45.250                                                                                                1                                                                                                 
R11  19244540.412   102837073.323                          54.250                                                                                                                                    19244547.092    79984411.466                          50.000  
R21  19874064.528   106350262.069                          54.250                                                                                                                                    19874070.288    82716903.216                          49.000  
R10  20780917.244   110773991.117                          51.000                                                                                                                                    20780927.804    86157558.356                          41.500  
> 2017 11 15 18 30 36.0000000  0 14                     
G29  21643996.136   113740054.084                          50.750                                                                                                                                    21644007.796    88628638.227                          46.750  
G12  20600711.264   108257525.106                          54.000                                                                                                                                    20600719.944    84356529.265                          49.500  
G 2  20543563.484   107957215.586                          49.750                                                                    20543569.924    84122592.036                          41.500                                                                  
G32  25648057.010   134781442.997                          27.250                                                                                                                                    25648073.310   105024501.000                          28.250  
G25  21909534.914   115135489.432                          47.000                                                                                                                                    21909547.834    89715991.650                          48.250  
G 5  23969942.422   125962955.068                          41.250                                                                                                                                    23969956.262    98152967.036                          38.500  
G24  21552371.738   113258494.723                          46.000                                                                                                                                    21552386.338    88253376.336                          48.500  
G 6  23622141.844   124135276.926                          42.750                                                                                                                                    23622156.444    96728806.727                          41.000  
R20  23520684.344   125775753.731                          31.500                                                                                                                                    23520695.964    97825584.125                          33.500  
R22  20645938.304   110209511.764                          50.000                                                                                                                                    20645945.824    85718531.983                          47.750  
R12  22070597.756   117897201.193                          45.250                                                                                                1                                                                                                 
R11  19244375.192   102836189.305                          54.500                                                                                                                                    19244381.412    79983723.896                          50.000  
R21  19874426.328   106352200.303                          54.250                                                                                                                                    19874431.848    82718410.734                          49.000  
R10  20781473.164   110776950.227                          51.250                                                                                                                                    20781482.904    86159859.884                          41.750  
> 2017 11 15 18 30 37.0000000  0 14                     
G29  21643754.776   113738783.593                          50.500                                                                                                                                    21643766.436    88627648.232                          46.500  
G12  20600628.604   108257090.039                          54.250                                                                                                                                    20600637.404    84356190.256                          49.750  
G 2  20543867.684   107958815.195                          49.500                                                                    20543874.364    84123838.483                          41.250                                                                  
G32  25648288.090   134782657.509                          27.500                                                                                                                                    25648304.930   105025447.379                          27.000  
G25  21909114.934   115133281.989                          46.500                                                                                                                                    21909127.594    89714271.569                          48.000  
G 5  23969520.502   125960740.612                          41.000                                                                                                                                    23969535.102    98151241.483                          38.750  
G24  21552890.518   113261220.258                          45.500                                                                                                                                    21552904.598    88255500.123                          48.250  
G 6  23622749.264   124138462.305                          42.750                                                                                                                                    23622762.884    96731288.850                          40.500  
R20  23521366.004   125779402.526                          31.250                                                                                                                                    23521378.924    97828422.068                          34.000  
R22  20645635.064   110207892.301                          49.750                                                                                                                                    20645642.804    85717272.404                          47.500  
R12  22069879.956   117893366.490                          45.000                                                                                                1                                                                                                 
R11  19244209.452   102835306.080                          54.500                                                                                                                                    19244216.372    79983036.945                          49.750  
R21  19874788.988   106354138.969                          54.250                                                                                                                                    19874795.208    82719918.581                          49.000  
R10  20782028.144   110779909.955                          51.250                                                                                                                                    20782037.784    86162161.885                          41.500  
> 2017 11 15 18 30 38.0000000  0 14                     
G29  21643512.576   113737513.209                          50.500                                                                                                                                    21643524.616    88626658.331                          46.500  
G12  20600545.684   108256655.124                          54.250                                                                                                                                    20600554.184    84355851.355                          49.500  
G 2  20544172.564   107960415.288                          49.500                                                                    20544179.084    84125085.308                          41.500                                                                  
G32  25648518.270   134783872.174                          27.250                                                                                                                                    25648535.410   105026393.873                          28.000  
G25  21908695.014   115131074.519                          47.500                                                                                                                                    21908707.574    89712551.467                          48.000  
G 5  23969099.362   125958526.167                          40.750                                                                                                                                    23969113.442    98149515.951                          39.000  
G24  21553408.918   113263946.100                          46.000                                                                                                                                    21553423.638    88257624.152                          48.250  
G 6  23623354.764   124141647.747                          42.000                                                                                                                                    23623368.964    96733771.013                          40.750  
R20  23522051.184   125783051.195                          31.750                                                                                                                                    23522061.164    97831259.921                          33.500  
R22  20645331.204   110206273.230                          49.250                                                                                                                                    20645339.084    85716013.129                          47.500  
R12  22069161.376   117889531.907                          45.000                                                                                                1                                                                                                 
R11  19244044.452   102834423.483                          54.500                                                                                                                                    19244051.512    79982350.481                          50.000  
R21  19875150.948   106356077.905                          54.000                                                                                                                                    19875157.988    82721426.640                          49.000  
R10  20782583.504   110782870.129                          51.250                                                                                                                                    20782592.904    86164464.238                          41.500  
> 2017 11 15 18 30 39.0000000  0 14                     
G29  21643270.956   113736243.138                          50.500                                                                                                                                    21643282.416    88625668.667                          46.500  
G12  20600463.024   108256220.583                          54.000                                                                                                                                    20600472.184    84355512.751                          49.750  
G 2  20544476.784   107962016.066                          49.000                                                                    20544483.824    84126332.674                          41.250                                                                  
G32  25648748.230   134785087.257                          27.250                                                                                                                                    25648766.410   105027340.685                          28.500  
G25  21908274.514   115128867.241                          47.250                                                                                                                                    21908287.134    89710831.512                          48.500  
G 5  23968678.242   125956311.886                          41.250                                                                                                                                    23968692.782    98147790.538                          38.500  
G24  21553928.058   113266672.404                          45.750                                                                                                                                    21553942.438    88259748.537                          48.500  
G 6  23623961.264   124144833.528                          42.000                                                                                                                                    23623975.104    96736253.438                          41.000  
R20  23522734.704   125786699.778                          31.750                                                                                                                                    23522743.264    97834097.700                          34.250  
R22  20645027.684   110204654.773                          49.250                                                                                                                                    20645035.784    85714754.330                          47.750  
R12  22068443.696   117885697.644                          45.250                                                                                                1                                                                                                 
R11  19243879.792   102833541.706                          54.250                                                                                                                                    19243885.792    79981664.655                          49.750  
R21  19875513.708   106358017.279                          54.250                                                                                                                                    19875519.688    82722935.046                          48.750  
R10  20783139.164   110785830.907                          51.750                                                                                                                                    20783148.904    86166767.063                          41.250  
> 2017 11 15 18 30 40.0000000  0 13                     
G29  21643029.216   113734973.395                          50.250                                                                                                                                    21643040.936    88624679.259                          47.000  
G12  20600380.664   108255786.386                          54.250                                                                                                                                    20600389.304    84355174.420                          49.500  
G 2  20544781.684   107963617.549                          49.000                                                                    20544788.264    84127580.581                          41.250                                                                  
G25  21907854.934   115126660.124                          47.500                                                                                                                                    21907867.614    89709111.684                          48.500  
G 5  23968256.042   125954097.806                          41.250                                                                                                                                    23968271.122    98146065.289                          38.500  
G24  21554446.758   113269399.179                          45.500                                                                                                                                    21554461.478    88261873.299                          48.500  
G 6  23624567.924   124148019.619                          42.000                                                                                                                                    23624581.824    96738736.102                          41.500  
R20  23523417.684   125790348.306                          31.750                                                                                                                                    23523426.484    97836935.435                          34.500  
R22  20644725.224   110203036.882                          49.000                                                                                                                                    20644733.204    85713495.974                          47.500  
R12  22067726.736   117881863.670                          45.000                                                                                                1                                                                                                 
R11  19243714.832   102832660.782                          54.000                                                                                                                                    19243720.592    79980979.493                          49.750  
R21  19875876.728   106359957.114                          54.250                                                                                                                                    19875881.888    82724443.809                          49.000  
R10  20783694.304   110788792.333                          51.500                                                                                                                                    20783703.924    86169070.395                          41.500  
> 2017 11 15 18 30 41.0000000  0 14                     
G29  21642787.176   113733703.852                          50.000                                                                                                                                    21642799.096    88623690.007                          47.000  
G12  20600297.804   108255352.438                          54.000                                                                                                                                    20600306.324    84354836.270                          49.750  
G 2  20545086.544   107965219.607                          48.750                                                                    20545093.364    84128828.940                          41.000                                                                  
G32  25649211.270   134787515.2881                         27.500                                                                                                                                    25649228.990   105029231.9731                         27.750  
G25  21907434.774   115124453.109                          47.500                                                                                                                                    21907447.274    89707391.934                          48.500  
G 5  23967835.462   125951883.762                          41.500                                                                                                                                    23967849.782    98144340.068                          38.500  
G24  21554965.918   113272126.306                          45.750                                                                                                                                    21554979.938    88263998.326                          48.500  
G 6  23625173.924   124151205.921                          42.000                                                                                                                                    23625188.004    96741218.933                          41.000  
R20  23524098.024   125793996.718                          32.250                                                                                                                                    23524108.224    97839773.081                          34.000  
R22  20644422.224   110201419.509                          48.500                                                                                                                                    20644430.424    85712238.023                          47.500  
R12  22067007.596   117878029.885                          45.250                                                                                                1                                                                                                 
R11  19243550.352   102831780.592                          54.500                                                                                                                                    19243556.812    79980294.899                          49.750  
R21  19876238.468   106361897.297                          54.000                                                                                                                                    19876244.688    82725952.833                          49.000  
R10  20784250.304   110791754.271                          51.500                                                                                                                                    20784260.284    86171374.116                          41.500  
> 2017 11 15 18 30 42.0000000  0 14                     
G29  21642546.116   113732434.561                          49.500                                                                                                                                    21642557.856    88622700.953                          46.750  
G12  20600215.384   108254918.764                          54.000                                                                                                                                    20600224.544    84354498.344                          50.000  
G 2  20545391.604   107966822.296                          48.500                                                                    20545398.304    84130077.782                          41.250                                                                  
G32  25649442.890   134788731.277                          28.250                                                                                                                                    25649460.530   105030179.489                          29.250  
G25  21907015.034   115122246.186                          47.000                                                                                                                                    21907027.414    89705672.250                          48.250  
G 5  23967413.702   125949669.834                          41.750                                                                                                                                    23967428.502    98142614.942                          38.250  
G24  21555484.818   113274853.822                          46.250                                                                                                                                    21555499.358    88266123.653                          48.500  
G 6  23625781.104   124154392.456                          41.750                                                                                                                                    23625794.084    96743701.949                          40.500  
R20  23524780.544   125797645.063                          31.750                                                                                                                                    23524790.284    97842610.685                          33.750  
R22  20644119.604   110199802.643                          48.750                                                                                                                                    20644127.344    85710980.463                          47.500  
R12  22066291.396   117874196.320                          45.500                                                                                                1                                                                                                 
R11  19243385.352   102830901.118                          54.250                                                                                                                                    19243391.932    79979610.866                          50.000  
R21  19876601.268   106363837.833                          54.000                                                                                                                                    19876607.028    82727462.141                          49.250  
R10  20784806.324   110794716.771                          51.500                                                                                                                                    20784815.604    86173678.279                          41.500  
> 2017 11 15 18 30 43.0000000  0 14                     
G29  21642304.616   113731165.681                          49.250                                                                                                                                    21642316.416    88621712.217                          46.500  
G12  20600133.004   108254485.554                          53.500                                                                                                                                    20600141.824    84354160.781                          50.000  
G 2  20545696.584   107968425.744                          48.500                                                                    20545703.564    84131327.224                          41.500                                                                  
G32  25649675.870   134789947.657                          28.750                                                                                                                                    25649691.590   105031127.324                          29.500  
G25  21906595.034   115120039.539                          47.500                                                                                                                                    21906607.474    89703952.784                          48.250  
G 5  23966992.682   125947456.156                          41.500                                                                                                                                    23967008.062    98140890.002                          38.000  
G24  21556003.878   113277581.905                          46.750                                                                                                                                    21556018.258    88268249.434                          48.500  
G 6  23626386.684   124157579.414                          42.250                                                                                                                                    23626400.644    96746185.297                          40.500  
R20  23525460.864   125801293.428                          32.750                                                                                                                                    23525473.184    97845448.306                          34.000  
R22  20643816.524   110198186.511                          49.000                                                                                                                                    20643825.324    85709723.471                          47.500  
R12  22065573.116   117870363.195                          44.500                                                                                                1                                                                                                 
R11  19243221.252   102830022.572                          54.500                                                                                                                                    19243227.352    79978927.552                          50.000  
R21  19876963.808   106365778.944                          54.500                                                                                                                                    19876970.148    82728971.896                          49.000  
R10  20785362.064   110797680.015                          51.500                                                                                                                                    20785371.344    86175983.026                          41.500  
> 2017 11 15 18 30 44.0000000  0 14                     
G29  21642063.176   113729896.921                          49.750                                                                                                                                    21642074.556    88620723.575                          46.500  
G12  20600050.564   108254052.487                          53.000                                                                                                                                    20600059.484    84353823.326                          50.000  
G 2  20546001.944   107970029.712                          48.250                                                                    20546008.464    84132577.067                          41.250                                                                  
G32  25649907.070   134791164.243                          29.250                                                                                                                                    25649923.610   105032075.329                          29.000  
G25  21906175.514   115117832.881                          47.500                                                                                                                                    21906188.194    89702233.309                          48.500  
G 5  23966572.042   125945242.480                          41.250                                                                                                                                    23966586.702    98139165.068                          38.250  
G24  21556523.278   113280310.273                          46.250                                                                                                                                    21556538.058    88270375.431                          48.750  
G 6  23626993.444   124160766.436                          42.250                                                                                                                                    23627006.884    96748668.691                          40.500  
R20  23526144.024   125804941.506                          32.250                                                                                                                                    23526154.484    97848285.706                          33.500  
R22  20643514.144   110196570.744                          48.750                                                                                                                                    20643522.364    85708466.766                          47.500  
R12  22064855.456   117866530.161                          45.250                                                                                                1                                                                                                 
R11  19243056.692   102829144.637                          54.250                                                                                                                                    19243063.032    79978244.712                          49.250  
R21  19877326.828   106367720.301                          54.500                                                                                                                                    19877332.588    82730481.839                          49.000  
R10  20785917.784   110800643.704                          51.500                                                                                                                                    20785927.304    86178288.111                          41.250  
> 2017 11 15 18 30 45.0000000  0 14                     
G29  21641822.136   113728628.379                          50.000                                                                                                                                    21641834.056    88619735.096                          46.500  
G12  20599968.264   108253619.682                          53.500                                                                                                                                    20599977.064    84353486.073                          50.000  
G 2  20546307.004   107971634.237                          48.250                                                                    20546314.224    84133827.348                          41.000                                                                  
G32  25650138.430   134792381.104                          29.500                                                                                                                                    25650154.850   105033023.535                          29.000  
G25  21905755.474   115115626.305                          47.500                                                                                                                                    21905768.314    89700513.897                          48.250  
G 5  23966150.202   125943028.849                          40.750                                                                                                                                    23966165.102    98137440.164                          37.750  
G24  21557042.218   113283038.997                          46.000                                                                                                                                    21557057.118    88272501.712                          48.250  
G 6  23627599.984   124163953.699                          42.500                                                                                                                                    23627613.824    96751152.276                          40.750  
R20  23526826.264   125808589.474                          33.000                                                                                                                                    23526836.604    97851123.025                          34.000  
R22  20643211.024   110194955.472                          49.000                                                                                                                                    20643218.784    85707210.443                          47.500  
R12  22064136.696   117862697.341                          45.000                                                                                                1                                                                                                 
R11  19242892.652   102828267.448                          54.250                                                                                                                                    19242898.872    79977562.452                          49.500  
R21  19877689.728   106369662.017                          54.750                                                                                                                                    19877696.068    82731992.066                          49.250  
R10  20786473.924   110803607.913                          51.000                                                                                                                                    20786483.904    86180593.600                          41.500  
> 2017 11 15 18 30 46.0000000  0 14                     
G29  21641580.776   113727360.197                          50.250                                                                                                                                    21641592.216    88618746.907                          46.500  
G12  20599886.304   108253187.306                          53.500                                                                                                                                    20599895.064    84353149.158                          50.250  
G 2  20546612.564   107973239.516                          48.500                                                                    20546619.084    84135078.213                          41.250                                                                  
G32  25650369.550   134793598.388                          29.750                                                                                                                                    25650386.150   105033972.076                          28.000  
G25  21905335.554   115113419.952                          47.750                                                                                                                                    21905348.054    89698794.657                          48.250  
G 5  23965728.722   125940815.486                          41.000                                                                                                                                    23965744.262    98135715.462                          38.000  
G24  21557562.398   113285768.278                          46.000                                                                                                                                    21557576.118    88274628.420                          48.500  
G 6  23628206.524   124167141.330                          42.500                                                                                                                                    23628220.664    96753636.149                          41.250  
R20  23527509.124   125812237.488                          32.000                                                                                                                                    23527518.984    97853960.363                          34.000  
R22  20642908.964   110193340.874                          49.250                                                                                                                                    20642916.944    85705954.645                          47.500  
R12  22063420.976   117858864.902                          45.000                                                                                                1                                                                                                 
R11  19242728.692   102827391.154                          54.250                                                                                                                                    19242735.032    79976880.896                          49.250  
R21  19878052.828   106371604.249                          54.500                                                                                                                                    19878058.708    82733502.693                          49.500  
R10  20787030.424   110806572.838                          51.000                                                                                                                                    20787040.164    86182899.647                          41.750  
> 2017 11 15 18 30 47.0000000  0 13                     
G29  21641339.516   113726092.214                          49.500                                                                                                                                    21641350.736    88617758.867                          46.500  
G12  20599803.624   108252755.134                          53.500                                                                                                                                    20599812.724    84352812.401                          50.000  
G 2  20546918.044   107974845.371                          47.750                                                                    20546924.964    84136329.529                          41.000                                                                  
G25  21904915.174   115111213.678                          47.500                                                                                                                                    21904928.434    89697075.488                          48.500  
G 5  23965309.042   125938602.096                          41.500                                                                                                                                    23965323.582    98133990.741                          38.500  
G24  21558081.518   113288497.878                          46.500                                                                                                                                    21558095.598    88276755.375                          48.500  
G 6  23628812.204   124170329.134                          42.000                                                                                                                                    23628827.104    96756120.150                          41.250  
R20  23528192.224   125815885.261                          33.000                                                                                                                                    23528201.624    97856797.518                          34.000  
R22  20642607.084   110191726.741                          49.000                                                                                                                                    20642615.304    85704699.217                          47.750  
R12  22062703.536   117855032.627                          45.000                                                                                                1                                                                                                 
R11  19242564.772   102826515.544                          54.000                                                                                                                                    19242571.012    79976199.862                          49.750  
R21  19878415.668   106373546.791                          54.250                                                                                                                                    19878421.888    82735013.560                          49.500  
R10  20787586.704   110809538.262                          50.500                                                                                                                                    20787595.864    86185206.082                          41.000  
