     3.01           OBSERVATION DATA    M: Mixed            RINEX VERSION / TYPE
CONVBIN 2.4.3 Emlid                     20171125 153538 UTC PGM / RUN BY / DATE 
log: /home/reach/logs/rov_201711251248.ubx                  COMMENT             
format: u-blox                                              COMMENT             
                                                            MARKER NAME         
                                                            MARKER NUMBER       
                                                            MARKER TYPE         
                                                            OBSERVER / AGENCY   
                                                            REC # / TYPE / VERS 
                                                            ANT # / TYPE        
  3463708.8677 -4304276.7342 -3176329.5085                  APPROX POSITION XYZ 
        0.0000        0.0000        0.0000                  ANTENNA: DELTA H/E/N
G    4 C1C L1C D1C S1C                                      SYS / # / OBS TYPES 
R    4 C1C L1C D1C S1C                                      SYS / # / OBS TYPES 
E    4 C1C L1C D1C S1C                                      SYS / # / OBS TYPES 
J    4 C1C L1C D1C S1C                                      SYS / # / OBS TYPES 
S    4 C1C L1C D1C S1C                                      SYS / # / OBS TYPES 
C    4 C1I L1I D1I S1I                                      SYS / # / OBS TYPES 
  2017    11    25    12    48   52.9989999     GPS         TIME OF FIRST OBS   
  2017    11    25    12    51   26.7989999     GPS         TIME OF LAST OBS    
                                                            END OF HEADER       
> 2017 11 25 12 48 52.9989999  0 19                     
G 5  23685593.340   124468649.3832      -2605.514          40.000  
G 7  24219445.409   127274075.710       -2600.146          42.000  
G13  20696617.857   108761626.925        1181.066          45.000  
R12  23697794.648   126589343.226        1745.460          36.000  
G17  20791043.429   109257858.813        1745.768          50.000  
G19  21958058.918   115390484.034        2422.941          45.000  
G20  24412918.346   128290897.542       -1040.841          41.000  
G28  20478066.410   107613121.789       -2419.537          49.000  
G30  21906547.586   115119826.516       -1771.926          44.000  
R 2  23590987.055   125886028.534        2844.281          37.000  
S38  39307732.552   206563528.0892       -275.440          42.000  
R11  20759676.523   110933599.198         512.938          48.000  
R 1  20639881.629   110332167.647        -603.851          45.000  
G15  23031396.299   121030892.910        2600.939          50.000  
R 8  21146000.380   113235966.880       -3745.758          46.000  
R20  21368549.417   114267300.482        -152.682          39.000  
R21  21361899.932   114311884.144        3077.838          45.000  
R10  21128759.901   112628232.428       -1531.115          42.000  
S20  37795150.191   198614858.733        -204.716          41.000  
> 2017 11 25 12 48 53.1989999  0 19                     
G 5  23685692.772   124469170.5192      -2605.664          40.000  
G 7  24219544.282   127274595.800       -2600.436          42.000  
G13  20696572.976   108761390.725        1180.918          45.000  
R12  23697729.070   126588994.173        1745.786          36.000  
G17  20790976.943   109257509.679        1745.655          50.000  
G19  21957966.537   115389999.449        2422.755          45.000  
G20  24412957.923   128291105.750       -1040.968          41.000  
G28  20478158.512   107613605.689       -2419.568          48.000  
G30  21906614.909   115120180.895       -1771.904          44.000  
R 2  23590880.399   125885459.562        2844.952          36.000  
S38  39307743.022   206563583.2212       -275.842          42.000  
R11  20759657.467   110933496.588         513.057          48.000  
R 1  20639904.175   110332288.497        -604.218          45.000  
G15  23031297.322   121030372.723        2600.908          50.000  
R 8  21146140.296   113236716.053       -3745.781          46.000  
R20  21368554.931   114267331.113        -153.338          39.000  
R21  21361784.866   114311268.625        3077.603          45.000  
R10  21128817.242   112628538.706       -1531.398          42.000  
S20  37795158.044   198614899.666        -204.638          41.000  
> 2017 11 25 12 48 53.3989999  0 19                     
G 5  23685791.854   124469691.6412      -2605.613          40.000  
G 7  24219643.189   127275115.847       -2600.238          42.000  
G13  20696528.128   108761154.519        1180.973          45.000  
R12  23697663.527   126588645.144        1745.849          36.000  
G17  20790910.458   109257160.539        1745.745          50.000  
G19  21957873.911   115389514.836        2423.104          45.000  
G20  24412997.535   128291313.940       -1041.034          41.000  
G28  20478250.509   107614089.569       -2419.403          48.000  
G30  21906682.197   115120535.254       -1771.662          44.000  
R 2  23590773.743   125884890.638        2844.525          36.000  
S38  39307753.562   206563638.2972       -275.371          42.000  
R11  20759638.342   110933393.955         513.282          48.000  
R 1  20639926.720   110332409.342        -604.199          45.000  
G15  23031198.274   121029852.517        2601.143          50.000  
R 8  21146280.142   113237465.216       -3745.776          46.000  
R20  21368560.620   114267361.742        -153.021          39.000  
R21  21361669.659   114310653.067        3077.921          45.000  
R10  21128874.618   112628844.925       -1531.072          42.000  
S20  37795165.861   198614940.576        -204.236          41.000  
> 2017 11 25 12 48 53.5989999  0 19                     
G 5  23685890.762   124470212.7282      -2605.594          40.000  
G 7  24219742.132   127275635.868       -2600.087          42.000  
G13  20696483.212   108760918.288        1181.121          45.000  
R12  23697598.054   126588296.043        1745.551          36.000  
G17  20790843.973   109256811.393        1745.672          50.000  
G19  21957781.495   115389030.207        2423.056          45.000  
G20  24413037.182   128291522.109       -1040.936          41.000  
G28  20478342.612   107614573.431       -2419.397          48.000  
G30  21906749.659   115120889.607       -1771.812          44.000  
R 2  23590667.018   125884321.660        2844.470          36.000  
S38  39307763.997   206563693.3612       -275.212          42.000  
R11  20759619.112   110933291.297         513.196          48.000  
R 1  20639949.266   110332530.184        -604.376          45.000  
G15  23031099.262   121029332.291        2601.116          50.000  
R 8  21146420.093   113238214.354       -3745.825          46.000  
R20  21368566.344   114267392.371        -153.297          39.000  
R21  21361554.593   114310037.519        3077.575          46.000  
R10  21128931.995   112629151.129       -1530.975          42.000  
S20  37795173.574   198614981.462        -204.403          41.000  
> 2017 11 25 12 48 53.7989999  0 19                     
G 5  23685989.774   124470733.7532      -2604.978          40.000  
G 7  24219841.005   127276155.846       -2599.889          42.000  
G13  20696438.295   108760682.042        1181.469          45.000  
R12  23697532.476   126587946.884        1746.173          36.000  
G17  20790777.452   109256462.224        1745.817          50.000  
G19  21957689.323   115388545.543        2423.367          45.000  
G20  24413076.724   128291730.249       -1040.709          41.000  
G28  20478434.714   107615057.261       -2419.171          49.000  
G30  21906817.226   115121243.899       -1771.575          44.000  
R 2  23590560.362   125883752.653        2845.148          36.000  
S38  39307774.328   206563748.3592       -274.769          42.000  
R11  20759599.742   110933188.575         513.592          48.000  
R 1  20639971.777   110332651.003        -604.138          45.000  
G15  23031000.249   121028812.039        2601.319          50.000  
R 8  21146559.765   113238963.457       -3745.318          46.000  
R20  21368572.102   114267423.000        -153.323          39.000  
R21  21361439.526   114309421.901        3078.345          46.000  
R10  21128989.511   112629457.287       -1530.627          42.000  
S20  37795181.322   198615022.292        -203.890          41.000  
> 2017 11 25 12 48 53.9989999  0 19                     
G 5  23686089.066   124471254.7762      -2605.035          40.000  
G 7  24219940.227   127276675.814       -2599.971          42.000  
G13  20696393.483   108760445.808        1181.343          45.000  
R12  23697467.073   126587597.745        1745.908          36.000  
G17  20790711.037   109256113.060        1745.801          50.000  
G19  21957597.011   115388060.882        2423.372          45.000  
G20  24413116.301   128291938.388       -1040.759          41.000  
G28  20478526.886   107615541.091       -2419.183          49.000  
G30  21906884.584   115121598.172       -1771.303          44.000  
R 2  23590453.671   125883183.676        2844.763          36.000  
S38  39307784.728   206563803.3582       -275.034          42.000  
R11  20759580.686   110933085.870         513.548          48.000  
R 1  20639994.183   110332771.870        -604.413          45.000  
G15  23030901.237   121028291.784        2601.350          50.000  
R 8  21146699.576   113239712.583       -3745.715          46.000  
R20  21368577.686   114267453.634        -153.230          39.000  
R21  21361324.459   114308806.331        3078.005          46.000  
R10  21129047.027   112629763.422       -1530.587          42.000  
S20  37795189.105   198615063.118        -203.975          41.000  
> 2017 11 25 12 48 54.1989999  0 19                     
G 5  23686188.183   124471775.756       -2604.898          40.000  
G 7  24220039.240   127277195.740       -2599.407          42.000  
G13  20696348.496   108760209.563        1181.249          45.000  
R12  23697401.634   126587248.540        1746.116          36.000  
G17  20790644.691   109255763.888        1745.939          51.000  
G19  21957504.699   115387576.215        2423.295          45.000  
G20  24413155.809   128292146.506       -1040.587          41.000  
G28  20478619.023   107616024.889       -2418.945          49.000  
G30  21906952.082   115121952.425       -1771.060          44.000  
R 2  23590347.120   125882614.690        2844.550          36.000  
S38  39307795.058   206563858.2822       -274.530          42.000  
R11  20759561.561   110932983.116         513.837          48.000  
R 1  20640016.903   110332892.706        -604.047          45.000  
G15  23030802.259   121027771.509        2601.529          50.000  
R 8  21146839.317   113240461.666       -3745.265          46.000  
R20  21368583.549   114267484.275        -153.238          39.000  
R21  21361209.392   114308190.724        3078.086          45.000  
R10  21129104.577   112630069.506       -1529.963          42.000  
S20  37795196.853   198615103.896        -203.890          41.000  
> 2017 11 25 12 48 54.3989999  0 19                     
G 5  23686287.370   124472296.699       -2604.979          40.000  
G 7  24220138.217   127277715.617       -2599.397          42.000  
G13  20696303.579   108759973.274        1181.317          45.000  
R12  23697336.196   126586899.305        1746.107          36.000  
G17  20790578.241   109255414.663        1746.094          50.000  
G19  21957412.353   115387091.474        2423.658          45.000  
G20  24413195.386   128292354.569       -1040.483          40.000  
G28  20478711.090   107616508.628       -2418.616          49.000  
G30  21907019.509   115122306.618       -1770.907          44.000  
R 2  23590240.534   125882045.606        2845.148          36.000  
S38  39307805.354   206563913.1522       -274.137          42.000  
R11  20759542.435   110932880.295         514.198          48.000  
R 1  20640039.379   110333013.518        -604.102          45.000  
G15  23030703.281   121027251.165        2601.714          50.000  
R 8  21146979.163   113241210.711       -3745.251          46.000  
R20  21368589.203   114267514.853        -153.192          39.000  
R21  21361094.326   114307575.037        3078.398          45.000  
R10  21129161.919   112630375.552       -1530.127          42.000  
S20  37795204.566   198615144.610        -203.447          41.000  
> 2017 11 25 12 48 54.5989999  0 19                     
G 5  23686386.453   124472817.568       -2604.078          40.000  
G 7  24220237.230   127278235.414       -2598.939          42.000  
G13  20696258.523   108759736.914        1181.864          45.000  
R12  23697270.793   126586549.952        1747.310          36.000  
G17  20790511.755   109255065.406        1746.448          50.000  
G19  21957320.076   115386606.681        2424.213          45.000  
G20  24413234.963   128292562.589       -1039.986          40.000  
G28  20478803.088   107616992.324       -2418.207          48.000  
G30  21907086.902   115122660.754       -1770.574          45.000  
R 2  23590133.879   125881476.486        2845.868          36.000  
S38  39307815.685   206563967.9652       -273.901          42.000  
R11  20759523.345   110932777.415         514.530          48.000  
R 1  20640062.029   110333134.291        -603.674          45.000  
G15  23030604.408   121026730.785        2601.959          50.000  
R 8  21147118.870   113241959.698       -3744.763          46.000  
R20  21368594.648   114267545.409        -152.542          39.000  
R21  21360979.224   114306959.317        3078.700          45.000  
R10  21129219.260   112630681.526       -1529.735          42.000  
S20  37795212.418   198615185.244        -202.981          41.000  
> 2017 11 25 12 48 54.7989999  0 19                     
G 5  23686485.500   124473338.365       -2603.182          40.000  
G 7  24220336.103   127278755.147       -2598.209          43.000  
G13  20696213.606   108759500.503        1182.479          45.000  
R12  23697205.354   126586200.556        1747.862          36.000  
G17  20790445.235   109254716.084        1746.976          50.000  
G19  21957227.695   115386121.822        2424.526          45.000  
G20  24413274.505   128292770.526       -1039.438          40.000  
G28  20478895.120   107617475.934       -2417.548          48.000  
G30  21907154.365   115123014.813       -1769.766          45.000  
R 2  23590027.188   125880907.349        2845.972          36.000  
S38  39307826.155   206564022.6632       -273.016          42.000  
R11  20759504.080   110932674.456         515.230          48.000  
R 1  20640084.645   110333255.023        -603.314          45.000  
G15  23030505.500   121026210.326        2602.661          50.000  
R 8  21147258.716   113242708.625       -3744.125          46.000  
R20  21368600.302   114267575.937        -152.387          39.000  
R21  21360863.913   114306343.528        3079.466          45.000  
R10  21129276.497   112630987.415       -1529.127          42.000  
S20  37795219.922   198615225.830        -202.514          41.000  
> 2017 11 25 12 48 54.9989999  0 19                     
G 5  23686584.652   124473859.102       -2603.643          40.000  
G 7  24220435.080   127279274.805       -2598.324          43.000  
G13  20696168.794   108759264.047        1182.200          45.000  
R12  23697139.706   126585851.109        1747.027          35.000  
G17  20790378.750   109254366.721        1746.691          50.000  
G19  21957135.523   115385636.918        2424.233          45.000  
G20  24413314.012   128292978.422       -1039.595          40.000  
G28  20478987.258   107617959.510       -2417.963          48.000  
G30  21907221.722   115123368.821       -1770.073          45.000  
R 2  23589920.602   125880338.147        2845.795          37.000  
S38  39307836.555   206564077.3262       -273.269          42.000  
R11  20759484.919   110932571.448         514.980          48.000  
R 1  20640107.330   110333375.730        -603.650          45.000  
G15  23030406.558   121025689.814        2602.619          50.000  
R 8  21147398.631   113243457.506       -3744.492          46.000  
R20  21368605.956   114267606.418        -152.406          39.000  
R21  21360748.811   114305727.689        3079.184          45.000  
R10  21129333.804   112631293.220       -1529.247          42.000  
S20  37795227.670   198615266.326        -202.555          41.000  
> 2017 11 25 12 48 55.1989999  0 19                     
G 5  23686683.665   124474379.790       -2603.606          40.000  
G 7  24220534.058   127279794.422       -2598.181          43.000  
G13  20696123.877   108759027.576        1182.270          45.000  
R12  23697074.163   126585501.556        1747.656          35.000  
G17  20790312.299   109254017.347        1746.753          50.000  
G19  21957043.385   115385151.976        2424.637          45.000  
G20  24413353.450   128293186.302       -1039.317          40.000  
G28  20479079.255   107618443.049       -2417.780          48.000  
G30  21907289.080   115123722.784       -1769.892          45.000  
R 2  23589813.912   125879768.922        2846.155          37.000  
S38  39307846.990   206564131.936        -273.105          42.000  
R11  20759465.654   110932468.395         515.184          49.000  
R 1  20640129.981   110333496.417        -603.687          46.000  
G15  23030307.441   121025169.288        2602.566          50.000  
R 8  21147538.617   113244206.357       -3744.383          46.000  
R20  21368611.679   114267636.910        -153.129          39.000  
R21  21360633.605   114305111.831        3079.436          45.000  
R10  21129391.180   112631598.997       -1528.962          42.000  
S20  37795235.243   198615306.779        -202.205          41.000  
> 2017 11 25 12 48 55.3989999  0 19                     
G 5  23686782.782   124474900.440       -2603.302          40.000  
G 7  24220632.931   127280314.026       -2597.921          43.000  
G13  20696079.030   108758791.086        1182.487          45.000  
R12  23697008.586   126585152.026        1748.002          35.000  
G17  20790245.675   109253667.949        1747.048          50.000  
G19  21956951.178   115384667.031        2424.752          45.000  
G20  24413392.922   128293394.173       -1039.378          40.000  
G28  20479171.253   107618926.557       -2417.535          48.000  
G30  21907356.403   115124076.731       -1769.602          45.000  
R 2  23589707.046   125879199.680        2846.161          37.000  
S38  39307857.321   206564186.498        -272.695          42.000  
R11  20759446.389   110932365.305         515.457          49.000  
R 1  20640152.701   110333617.108        -603.455          46.000  
G15  23030208.393   121024648.724        2602.754          50.000  
R 8  21147678.463   113244955.196       -3744.181          46.000  
R20  21368617.333   114267667.366        -152.362          39.000  
R21  21360518.399   114304495.943        3079.454          45.000  
R10  21129448.591   112631904.733       -1528.785          42.000  
S20  37795242.921   198615347.209        -201.789          41.000  
> 2017 11 25 12 48 55.5989999  0 19                     
G 5  23686881.830   124475421.057       -2602.833          40.000  
G 7  24220731.769   127280833.578       -2597.672          43.000  
G13  20696034.043   108758554.572        1182.744          45.000  
R12  23696943.008   126584802.446        1747.881          35.000  
G17  20790179.085   109253318.537        1747.036          50.000  
G19  21956858.867   115384182.034        2425.189          45.000  
G20  24413432.499   128293601.980       -1038.997          40.000  
G28  20479263.215   107619410.049       -2417.389          48.000  
G30  21907423.552   115124430.649       -1769.571          45.000  
R 2  23589600.251   125878630.429        2846.228          37.000  
S38  39307867.582   206564241.019        -272.475          42.000  
R11  20759427.054   110932262.175         515.721          49.000  
R 1  20640175.316   110333737.778        -603.394          46.000  
G15  23030109.415   121024128.132        2602.977          50.000  
R 8  21147818.239   113245703.999       -3743.900          46.000  
R20  21368622.917   114267697.823        -152.325          39.000  
R21  21360403.192   114303880.033        3079.672          45.000  
R10  21129505.932   112632210.430       -1528.259          42.000  
S20  37795250.634   198615387.587        -201.856          41.000  
> 2017 11 25 12 48 55.7989999  0 19                     
G 5  23686980.807   124475941.620       -2603.124          40.000  
G 7  24220830.607   127281353.088       -2597.336          43.000  
G13  20695989.021   108758318.054        1182.565          46.000  
R12  23696877.430   126584452.814        1748.248          35.000  
G17  20790112.669   109252969.118        1747.311          50.000  
G19  21956766.590   115383697.006        2425.059          45.000  
G20  24413472.076   128293809.761       -1038.874          40.000  
G28  20479355.108   107619893.507       -2417.151          48.000  
G30  21907490.909   115124784.508       -1769.194          45.000  
R 2  23589493.351   125878061.165        2846.460          37.000  
S38  39307877.842   206564295.525        -272.491          42.000  
R11  20759407.720   110932159.009         516.066          49.000  
R 1  20640197.757   110333858.455        -603.326          46.000  
G15  23030010.368   121023607.504        2603.454          50.000  
R 8  21147958.051   113246452.800       -3743.979          47.000  
R20  21368628.571   114267728.273        -152.269          39.000  
R21  21360288.021   114303264.103        3079.740          44.000  
R10  21129563.239   112632516.093       -1528.026          42.000  
S20  37795258.312   198615427.918        -201.329          41.000  
> 2017 11 25 12 48 55.9989999  0 19                     
G 5  23687079.785   124476462.210       -2602.674          40.000  
G 7  24220929.480   127281872.596       -2597.365          43.000  
G13  20695944.000   108758081.502        1182.790          45.000  
R12  23696811.817   126584103.111        1748.430          35.000  
G17  20790046.219   109252619.662        1747.426          51.000  
G19  21956674.348   115383211.975        2425.222          45.000  
G20  24413511.619   128294017.540       -1038.772          40.000  
G28  20479447.106   107620376.926       -2416.882          48.000  
G30  21907558.163   115125138.366       -1769.318          45.000  
R 2  23589386.591   125877491.830        2846.570          37.000  
S38  39307888.103   206564349.953        -272.042          42.000  
R11  20759388.420   110932055.816         516.249          49.000  
R 1  20640220.373   110333979.107        -603.320          46.000  
G15  23029911.251   121023086.845        2603.426          50.000  
R 8  21148097.792   113247201.549       -3743.578          47.000  
R20  21368634.225   114267758.742        -152.378          39.000  
R21  21360172.849   114302648.148        3079.897          43.000  
R10  21129620.511   112632821.718       -1528.256          42.000  
S20  37795265.886   198615468.200        -201.179          41.000  
> 2017 11 25 12 48 56.1989999  0 19                     
G 5  23687178.797   124476982.739       -2602.633          40.000  
G 7  24221028.423   127282392.050       -2597.135          43.000  
G13  20695899.013   108757844.961        1182.618          45.000  
R12  23696746.239   126583753.392        1749.326          35.000  
G17  20789979.803   109252270.221        1747.232          51.000  
G19  21956582.037   115382726.946        2425.127          45.000  
G20  24413551.126   128294225.299       -1038.785          40.000  
G28  20479539.103   107620860.341       -2416.968          48.000  
G30  21907625.660   115125492.172       -1768.778          45.000  
R 2  23589279.795   125876922.510        2846.539          37.000  
S38  39307898.468   206564404.404        -272.278          41.000  
R11  20759369.155   110931952.596         516.220          49.000  
R 1  20640243.023   110334099.774        -603.497          46.000  
G15  23029812.273   121022566.219        2603.006          50.000  
R 8  21148237.498   113247950.301       -3743.753          47.000  
R20  21368639.844   114267789.184        -152.443          39.000  
R21  21360057.678   114302032.174        3079.853          43.000  
R10  21129677.712   112633127.321       -1527.927          42.000  
S20  37795273.459   198615508.428        -201.199          41.000  
> 2017 11 25 12 48 56.3989999  0 19                     
G 5  23687277.810   124477503.258       -2602.755          39.000  
G 7  24221127.330   127282911.494       -2597.357          42.000  
G13  20695853.992   108757608.389        1182.972          45.000  
R12  23696680.661   126583403.643        1748.746          35.000  
G17  20789913.353   109251920.755        1747.269          51.000  
G19  21956489.725   115382241.860        2425.413          44.000  
G20  24413590.668   128294433.063       -1039.186          39.000  
G28  20479631.171   107621343.727       -2417.047          48.000  
G30  21907693.053   115125845.969       -1769.042          45.000  
R 2  23589173.035   125876353.189        2846.295          37.000  
S38  39307908.694   206564458.732        -271.641          41.000  
R11  20759349.715   110931849.326         516.353          48.000  
R 1  20640265.639   110334220.438        -603.442          46.000  
G15  23029713.261   121022045.547        2603.293          49.000  
R 8  21148377.205   113248699.036       -3743.832          47.000  
R20  21368645.253   114267819.600        -152.240          39.000  
R21  21359942.437   114301416.180        3080.092          43.000  
R10  21129735.019   112633432.895       -1527.936          42.000  
S20  37795281.172   198615548.625        -200.992          41.000  
> 2017 11 25 12 48 56.5989999  0 19                     
G 5  23687376.683   124478023.731       -2601.794          39.000  
G 7  24221226.169   127283430.898       -2596.826          42.000  
G13  20695808.935   108757371.833        1182.876          45.000  
R12  23696615.153   126583053.875        1749.001          35.000  
G17  20789846.972   109251571.302        1747.420          51.000  
G19  21956397.413   115381756.788        2425.558          45.000  
G20  24413630.140   128294640.785       -1038.572          39.000  
G28  20479723.133   107621827.126       -2416.943          48.000  
G30  21907760.376   115126199.745       -1768.721          45.000  
R 2  23589066.484   125875783.867        2847.089          38.000  
S38  39307918.885   206564513.086        -271.489          41.000  
R11  20759330.450   110931746.067         516.558          48.000  
R 1  20640288.219   110334341.130        -603.308          46.000  
G15  23029614.283   121021524.868        2603.560          49.000  
R 8  21148516.807   113249447.773       -3743.399          47.000  
R20  21368650.768   114267850.097        -152.525          39.000  
R21  21359827.195   114300800.198        3079.851          43.000  
R10  21129792.325   112633738.439       -1527.701          42.000  
S20  37795288.955   198615588.791        -200.726          41.000  
> 2017 11 25 12 48 56.7989999  0 19                     
G 5  23687475.730   124478544.180       -2602.191          39.000  
G 7  24221324.972   127283950.329       -2597.229          42.000  
G13  20695763.844   108757135.234        1182.949          45.000  
R12  23696549.540   126582704.126        1748.170          35.000  
G17  20789780.556   109251221.841        1747.293          51.000  
G19  21956305.102   115381271.676        2425.488          45.000  
G20  24413669.648   128294848.506       -1038.462          39.000  
G28  20479815.061   107622310.490       -2416.809          48.000  
G30  21907827.768   115126553.492       -1768.648          45.000  
R 2  23588959.898   125875214.547        2846.283          38.000  
S38  39307929.216   206564567.416        -271.554          41.000  
R11  20759311.115   110931642.763         516.328          48.000  
R 1  20640310.695   110334461.807        -603.485          46.000  
G15  23029515.236   121021004.162        2603.571          49.000  
R 8  21148656.583   113250196.495       -3743.562          47.000  
R20  21368656.491   114267880.563        -152.455          39.000  
R21  21359711.989   114300184.204        3079.922          43.000  
R10  21129849.597   112634043.938       -1527.508          42.000  
S20  37795296.598   198615628.940        -200.682          41.000  
> 2017 11 25 12 48 56.9989999  0 19                     
G 5  23687574.778   124479064.610       -2601.948          39.000  
G 7  24221423.810   127284469.664       -2596.610          42.000  
G13  20695718.613   108756898.653        1183.231          45.000  
R12  23696484.032   126582354.345        1749.172          34.000  
G17  20789714.106   109250872.360        1747.533          51.000  
G19  21956212.755   115380786.562        2425.963          45.000  
G20  24413709.085   128295056.217       -1038.278          39.000  
G28  20479907.024   107622793.827       -2416.443          48.000  
G30  21907895.161   115126907.239       -1768.584          45.000  
R 2  23588853.242   125874645.186        2846.997          38.000  
S38  39307939.476   206564621.669        -270.824          41.000  
R11  20759291.815   110931539.422         516.988          48.000  
R 1  20640333.276   110334582.498        -603.296          46.000  
G15  23029415.944   121020483.438        2603.869          49.000  
R 8  21148796.219   113250945.192       -3743.296          47.000  
R20  21368662.285   114267911.029        -152.319          39.000  
R21  21359596.678   114299568.168        3080.349          43.000  
R10  21129906.834   112634349.414       -1527.106          42.000  
S20  37795304.241   198615669.041        -200.246          41.000  
> 2017 11 25 12 48 57.1989999  0 19                     
G 5  23687673.616   124479585.022       -2601.790          39.000  
G 7  24221522.718   127284989.030       -2596.598          42.000  
G13  20695673.522   108756662.073        1182.830          44.000  
R12  23696418.419   126582004.517        1749.240          35.000  
G17  20789647.725   109250522.895        1747.452          51.000  
G19  21956120.374   115380301.461        2425.394          45.000  
G20  24413748.697   128295263.923       -1038.735          39.000  
G28  20479998.951   107623277.164       -2416.638          48.000  
G30  21907962.554   115127260.961       -1768.462          45.000  
R 2  23588746.656   125874075.834        2846.924          38.000  
S38  39307949.632   206564675.936        -271.244          41.000  
R11  20759272.515   110931436.073         517.023          48.000  
R 1  20640355.996   110334703.197        -603.296          46.000  
G15  23029316.896   121019962.707        2603.631          49.000  
R 8  21148936.100   113251693.885       -3743.435          47.000  
R20  21368667.974   114267941.530        -152.730          39.000  
R21  21359481.402   114298952.145        3080.155          43.000  
R10  21129964.245   112634654.882       -1527.235          42.000  
S20  37795311.954   198615709.167        -200.527          41.000  
> 2017 11 25 12 48 57.3989999  0 19                     
G 5  23687772.628   124480105.461       -2602.033          39.000  
G 7  24221621.660   127285508.395       -2596.808          43.000  
G13  20695628.500   108756425.518        1182.733          44.000  
R12  23696352.876   126581654.677        1749.389          34.000  
G17  20789581.205   109250173.459        1747.171          51.000  
G19  21956028.097   115379816.348        2425.607          45.000  
G20  24413788.135   128295471.654       -1038.738          39.000  
G28  20480090.809   107623760.519       -2416.705          48.000  
G30  21908029.772   115127614.701       -1768.611          45.000  
R 2  23588640.000   125873506.542        2846.252          38.000  
S38  39307959.998   206564730.182        -271.171          41.000  
R11  20759253.180   110931332.741         516.575          48.000  
R 1  20640378.507   110334823.953        -603.717          46.000  
G15  23029217.674   121019441.996        2603.634          50.000  
R 8  21149075.912   113252442.608       -3743.650          47.000  
R20  21368673.732   114267972.047        -152.599          39.000  
R21  21359366.265   114298336.116        3080.324          43.000  
R10  21130021.621   112634960.335       -1527.097          42.000  
S20  37795319.633   198615749.267        -200.356          41.000  
> 2017 11 25 12 48 57.5989999  0 19                     
G 5  23687871.711   124480625.911       -2602.522          39.000  
G 7  24221720.533   127286027.752       -2596.967          43.000  
G13  20695583.513   108756188.975        1182.502          44.000  
R12  23696287.333   126581304.862        1749.118          34.000  
G17  20789514.545   109249824.037        1747.054          51.000  
G19  21955935.785   115379331.264        2425.483          45.000  
G20  24413827.677   128295679.383       -1038.941          40.000  
G28  20480182.807   107624243.889       -2416.882          48.000  
G30  21908097.130   115127968.435       -1768.750          45.000  
R 2  23588533.240   125872937.228        2846.521          38.000  
S38  39307970.224   206564784.384        -270.826          41.000  
R11  20759233.706   110931229.393         516.722          48.000  
R 1  20640401.227   110334944.720        -603.949          46.000  
G15  23029118.557   121018921.294        2603.409          50.000  
R 8  21149215.758   113253191.347       -3743.693          47.000  
R20  21368679.212   114268002.605        -152.948          39.000  
R21  21359251.129   114297720.121        3079.812          43.000  
R10  21130078.928   112635265.797       -1527.325          42.000  
S20  37795327.415   198615789.403        -200.696          41.000  
> 2017 11 25 12 48 57.7989999  0 19                     
G 5  23687970.584   124481146.302       -2602.318          39.000  
G 7  24221819.267   127286547.088       -2596.470          42.000  
G13  20695538.492   108755952.441        1182.683          44.000  
R12  23696221.616   126580955.016        1748.864          34.000  
G17  20789447.990   109249474.620        1747.205          51.000  
G19  21955843.404   115378846.185        2425.448          45.000  
G20  24413867.219   128295887.114       -1038.664          40.000  
G28  20480274.770   107624727.256       -2416.821          48.000  
G30  21908164.348   115128322.166       -1768.637          45.000  
R 2  23588426.549   125872367.912        2846.497          38.000  
S38  39307980.450   206564838.620        -271.106          41.000  
R11  20759214.197   110931126.050         516.937          48.000  
R 1  20640423.738   110335065.527        -604.034          46.000  
G15  23029019.440   121018400.588        2603.645          50.000  
R 8  21149355.569   113253940.085       -3743.542          47.000  
R20  21368684.970   114268033.163        -152.820          38.000  
R21  21359135.818   114297104.100        3080.185          42.000  
R10  21130136.199   112635571.237       -1527.090          42.000  
S20  37795335.059   198615829.508        -200.375          41.000  
> 2017 11 25 12 48 57.9989999  0 19                     
G 5  23688069.457   124481666.692       -2601.998          39.000  
G 7  24221918.070   127287066.435       -2596.763          42.000  
G13  20695493.540   108755715.914        1182.613          45.000  
R12  23696156.003   126580605.148        1749.335          34.000  
G17  20789381.505   109249125.236        1747.039          51.000  
G19  21955751.197   115378361.105        2425.342          45.000  
G20  24413906.761   128296094.857       -1038.783          40.000  
G28  20480366.767   107625210.630       -2416.718          48.000  
G30  21908231.741   115128675.913       -1768.638          45.000  
R 2  23588319.998   125871798.631        2846.546          38.000  
S38  39307990.640   206564892.834        -271.003          40.000  
R11  20759194.862   110931022.717         516.827          48.000  
R 1  20640446.423   110335186.348        -604.120          45.000  
G15  23028920.358   121017879.900        2603.479          50.000  
R 8  21149495.345   113254688.837       -3743.618          47.000  
R20  21368690.764   114268063.770        -152.848          38.000  
R21  21359020.646   114296488.123        3079.911          42.000  
R10  21130193.611   112635876.701       -1527.253          42.000  
S20  37795342.597   198615869.605        -200.257          41.000  
> 2017 11 25 12 48 58.1989999  0 19                     
G 5  23688168.329   124482187.096       -2602.150          39.000  
G 7  24222016.873   127287585.741       -2596.708          42.000  
G13  20695448.414   108755479.365        1182.739          45.000  
R12  23696090.285   126580255.272        1749.499          34.000  
G17  20789315.089   109248775.846        1746.820          51.000  
G19  21955658.990   115377876.000        2425.481          45.000  
G20  24413946.303   128296302.581       -1038.671          40.000  
G28  20480458.869   107625693.982       -2416.766          49.000  
G30  21908298.959   115129029.621       -1768.568          45.000  
R 2  23588213.308   125871229.345        2846.289          37.000  
S38  39308001.006   206564947.012        -271.107          40.000  
R11  20759175.597   110930919.353         516.613          48.000  
R 1  20640468.969   110335307.172        -604.242          45.000  
G15  23028821.171   121017359.181        2603.464          50.000  
R 8  21149635.226   113255437.572       -3743.795          48.000  
R20  21368696.452   114268094.387        -152.968          38.000  
R21  21358905.370   114295872.119        3079.989          42.000  
R10  21130250.987   112636182.088       -1527.109          42.000  
S20  37795350.275   198615909.677        -200.535          41.000  
> 2017 11 25 12 48 58.3989999  0 19                     
G 5  23688267.237   124482707.493       -2602.405          39.000  
G 7  24222115.676   127288105.075       -2596.866          42.000  
G13  20695403.462   108755242.891        1182.162          45.000  
R12  23696024.777   126579905.428        1749.211          34.000  
G17  20789248.499   109248426.501        1746.463          51.000  
G19  21955566.818   115377390.964        2424.962          45.000  
G20  24413985.811   128296510.346       -1039.048          40.000  
G28  20480550.937   107626177.384       -2417.273          49.000  
G30  21908366.177   115129383.370       -1768.948          45.000  
R 2  23588106.617   125870660.104        2846.478          37.000  
S38  39308011.406   206565001.211        -271.226          41.000  
R11  20759156.367   110930816.004         516.535          48.000  
R 1  20640491.619   110335428.061        -604.694          45.000  
G15  23028721.984   121016838.513        2603.058          50.000  
R 8  21149775.037   113256186.342       -3744.071          48.000  
R20  21368702.176   114268125.079        -153.926          38.000  
R21  21358790.129   114295256.173        3079.374          42.000  
R10  21130308.189   112636487.536       -1527.520          42.000  
S20  37795357.849   198615949.744        -200.247          41.000  
> 2017 11 25 12 48 58.5989999  0 19                     
G 5  23688366.145   124483227.872       -2601.662          39.000  
G 7  24222214.339   127288624.375       -2596.469          42.000  
G13  20695358.510   108755006.387        1182.407          45.000  
R12  23695959.234   126579555.524        1749.444          34.000  
G17  20789181.874   109248077.128        1746.863          51.000  
G19  21955474.646   115376905.883        2425.300          45.000  
G20  24414025.353   128296718.088       -1038.443          40.000  
G28  20480642.934   107626660.738       -2416.815          49.000  
G30  21908433.396   115129737.104       -1768.600          45.000  
R 2  23587999.892   125870090.844        2846.277          37.000  
S38  39308021.772   206565055.347        -270.543          41.000  
R11  20759136.997   110930712.622         516.968          49.000  
R 1  20640514.304   110335548.930        -604.492          45.000  
G15  23028622.831   121016317.812        2603.521          50.000  
R 8  21149914.778   113256935.095       -3743.666          48.000  
R20  21368707.970   114268155.721        -153.022          38.000  
R21  21358674.888   114294640.172        3079.934          42.000  
R10  21130365.425   112636792.943       -1527.035          42.000  
S20  37795365.527   198615989.808        -200.315          41.000  
> 2017 11 25 12 48 58.7989999  0 19                     
G 5  23688465.053   124483748.335       -2602.239          39.000  
G 7  24222313.143   127289143.744       -2596.586          42.000  
G13  20695313.558   108754769.952        1182.240          45.000  
R12  23695893.586   126579205.655        1749.835          34.000  
G17  20789115.284   109247727.831        1746.533          51.000  
G19  21955382.474   115376420.855        2425.347          45.000  
G20  24414064.756   128296925.886       -1038.611          40.000  
G28  20480734.827   107627144.166       -2416.986          49.000  
G30  21908500.754   115130090.867       -1768.704          45.000  
R 2  23587893.166   125869521.617        2846.234          37.000  
S38  39308031.998   206565109.535        -270.831          40.000  
R11  20759117.488   110930609.286         516.804          49.000  
R 1  20640536.989   110335669.888        -604.742          46.000  
G15  23028523.784   121015797.168        2603.385          50.000  
R 8  21150054.520   113257683.918       -3744.152          48.000  
R20  21368713.623   114268186.467        -153.582          38.000  
R21  21358559.856   114294024.243        3079.773          43.000  
R10  21130422.732   112637098.390       -1527.272          42.000  
S20  37795373.100   198616029.920        -200.425          41.000  
> 2017 11 25 12 48 58.9989999  0 19                     
G 5  23688563.856   124484268.759       -2601.914          39.000  
G 7  24222411.806   127289663.110       -2596.904          42.000  
G13  20695268.607   108754533.517        1182.258          45.000  
R12  23695828.043   126578855.788        1749.239          34.000  
G17  20789048.729   109247378.540        1746.522          51.000  
G19  21955290.197   115375935.839        2425.153          45.000  
G20  24414104.228   128297133.695       -1038.978          40.000  
G28  20480826.825   107627627.584       -2417.029          49.000  
G30  21908567.972   115130444.626       -1768.719          45.000  
R 2  23587786.615   125868952.420        2846.179          37.000  
S38  39308042.223   206565163.687        -270.853          41.000  
R11  20759098.083   110930505.941         516.785          49.000  
R 1  20640559.570   110335790.872        -604.883          46.000  
G15  23028424.841   121015276.533        2603.221          50.000  
R 8  21150194.296   113258432.728       -3744.140          48.000  
R20  21368719.173   114268217.217        -153.577          38.000  
R21  21358444.754   114293408.321        3079.640          43.000  
R10  21130480.073   112637403.821       -1527.054          42.000  
S20  37795380.743   198616070.009        -200.610          41.000  
> 2017 11 25 12 48 59.1989999  0 19                     
G 5  23688662.694   124484789.221       -2602.434          39.000  
G 7  24222510.539   127290182.527       -2597.124          42.000  
G13  20695223.690   108754297.166        1181.847          45.000  
R12  23695762.500   126578506.011        1748.769          34.000  
G17  20788982.174   109247029.336        1746.050          51.000  
G19  21955197.815   115375450.885        2424.918          45.000  
G20  24414143.840   128297341.572       -1039.242          40.000  
G28  20480918.892   107628111.074       -2417.328          49.000  
G30  21908635.260   115130798.449       -1769.044          45.000  
R 2  23587679.994   125868383.298        2845.306          37.000  
S38  39308052.414   206565217.936        -270.890          41.000  
R11  20759078.748   110930402.656         516.378          48.000  
R 1  20640582.430   110335911.933        -605.188          46.000  
G15  23028325.759   121014755.962        2602.880          50.000  
R 8  21150334.212   113259181.614       -3744.402          48.000  
R20  21368724.861   114268248.100        -154.286          38.000  
R21  21358329.513   114292792.493        3079.024          43.000  
R10  21130537.240   112637709.320       -1527.574          42.000  
S20  37795388.421   198616110.157        -200.757          41.000  
> 2017 11 25 12 48 59.3989999  0 19                     
G 5  23688761.672   124485309.687       -2602.393          39.000  
G 7  24222609.377   127290701.937       -2597.144          42.000  
G13  20695178.843   108754060.825        1181.683          46.000  
R12  23695697.027   126578156.178        1748.904          34.000  
G17  20788915.619   109246680.135        1745.828          51.000  
G19  21955105.504   115374965.939        2424.642          45.000  
G20  24414183.347   128297549.434       -1039.396          40.000  
G28  20481010.994   107628594.564       -2417.676          49.000  
G30  21908702.583   115131152.264       -1769.290          45.000  
R 2  23587573.408   125867814.168        2845.312          37.000  
S38  39308062.780   206565272.155        -271.350          41.000  
R11  20759059.343   110930299.357         516.245          48.000  
R 1  20640605.185   110336033.024        -605.695          46.000  
G15  23028226.607   121014235.389        2602.645          50.000  
R 8  21150474.058   113259930.506       -3744.760          48.000  
R20  21368730.620   114268278.971        -154.922          38.000  
R21  21358214.307   114292176.653        3079.029          43.000  
R10  21130594.442   112638014.781       -1527.534          42.000  
S20  37795396.030   198616150.273        -200.566          41.000  
> 2017 11 25 12 48 59.5989999  0 19                     
G 5  23688860.754   124485830.147       -2602.577          40.000  
G 7  24222708.250   127291221.344       -2597.261          42.000  
G13  20695133.926   108753824.477        1181.424          46.000  
R12  23695631.379   126577806.363        1748.423          34.000  
G17  20788849.029   109246330.953        1745.626          51.000  
G19  21955013.332   115374480.988        2424.449          45.000  
G20  24414222.785   128297757.311       -1039.497          40.000  
G28  20481102.957   107629078.051       -2417.786          49.000  
G30  21908769.871   115131506.059       -1769.292          45.000  
R 2  23587466.892   125867245.073        2845.013          37.000  
S38  39308073.250   206565326.369        -271.131          41.000  
R11  20759040.078   110930196.057         516.180          48.000  
R 1  20640627.835   110336154.141        -605.945          46.000  
G15  23028127.629   121013714.820        2602.612          50.000  
R 8  21150613.904   113260679.396       -3744.599          48.000  
R20  21368736.309   114268309.835        -154.527          38.000  
R21  21358099.310   114291560.799        3079.173          43.000  
R10  21130651.784   112638320.248       -1527.328          42.000  
S20  37795403.708   198616190.394        -200.683          41.000  
> 2017 11 25 12 48 59.7989999  0 19                     
G 5  23688959.836   124486350.711       -2602.977          40.000  
G 7  24222807.228   127291740.819       -2597.400          42.000  
G13  20695088.939   108753588.253        1181.086          46.000  
R12  23695565.767   126577456.584        1748.828          34.000  
G17  20788782.648   109245981.876        1745.137          51.000  
G19  21954921.195   115373996.146        2424.183          45.000  
G20  24414262.327   128297965.311       -1040.402          40.000  
G28  20481194.954   107629561.625       -2417.944          48.000  
G30  21908837.298   115131859.956       -1769.333          45.000  
R 2  23587360.271   125866676.061        2844.934          37.000  
S38  39308083.755   206565380.676        -271.322          41.000  
R11  20759020.813   110930092.846         515.917          49.000  
R 1  20640650.590   110336275.384        -606.476          46.000  
G15  23028028.686   121013194.357        2602.224          50.000  
R 8  21150753.715   113261428.402       -3745.144          48.000  
R20  21368742.137   114268340.875        -155.430          38.000  
R21  21357984.243   114290945.062        3078.867          43.000  
R10  21130709.055   112638625.802       -1527.617          41.000  
S20  37795411.351   198616230.584        -200.910          41.000  
> 2017 11 25 12 48 59.9989999  0 19                     
G 5  23689058.884   124486871.283       -2602.827          40.000  
G 7  24222906.206   127292260.329       -2597.655          42.000  
G13  20695044.022   108753352.040        1180.998          46.000  
R12  23695500.154   126577106.831        1748.700          34.000  
G17  20788716.128   109245632.811        1745.203          51.000  
G19  21954828.953   115373511.315        2423.844          45.000  
G20  24414301.799   128298173.265       -1039.968          39.000  
G28  20481286.917   107630045.224       -2418.170          48.000  
G30  21908904.517   115132213.861       -1769.582          45.000  
R 2  23587253.790   125866107.098        2844.525          37.000  
S38  39308094.155   206565435.002        -271.656          41.000  
R11  20759001.548   110929989.633         515.998          49.000  
R 1  20640673.241   110336396.650        -606.494          46.000  
G15  23027929.709   121012673.908        2602.082          50.000  
R 8  21150893.561   113262177.428       -3745.216          48.000  
R20  21368747.965   114268371.892        -155.373          38.000  
R21  21357869.002   114290329.355        3078.400          42.000  
R10  21130766.397   112638931.380       -1527.911          41.000  
S20  37795419.029   198616270.791        -201.090          41.000  
> 2017 11 25 12 49  0.1989999  0 19                     
G 5  23689158.001   124487391.902       -2603.002          40.000  
G 7  24223005.044   127292779.889       -2597.822          42.000  
G13  20694998.931   108753115.928        1180.365          45.000  
R12  23695434.646   126576757.183        1747.655          34.000  
G17  20788649.713   109245283.839        1744.848          51.000  
G19  21954736.711   115373026.550        2423.721          45.000  
G20  24414341.307   128298381.351       -1040.469          39.000  
G28  20481379.124   107630528.893       -2418.445          48.000  
G30  21908971.875   115132567.841       -1769.998          45.000  
R 2  23587147.169   125865538.182        2844.543          37.000  
S38  39308104.625   206565489.370        -271.815          41.000  
R11  20758982.283   110929886.497         515.687          49.000  
R 1  20640695.926   110336518.006        -606.836          46.000  
G15  23027830.731   121012153.528        2601.735          50.000  
R 8  21151033.477   113262926.520       -3745.573          48.000  
R20  21368753.724   114268403.047        -155.891          38.000  
R21  21357753.935   114289713.710        3078.087          41.000  
R10  21130823.703   112639236.986       -1528.031          42.000  
S20  37795426.672   198616311.042        -201.208          41.000  
> 2017 11 25 12 49  0.3989999  0 19                     
G 5  23689256.979   124487912.520       -2603.103          40.000  
G 7  24223103.986   127293299.437       -2597.729          42.000  
G13  20694954.154   108752879.790        1180.626          46.000  
R12  23695368.998   126576407.528        1748.383          34.000  
G17  20788583.437   109244934.903        1744.578          51.000  
G19  21954644.225   115372541.816        2423.823          45.000  
G20  24414380.919   128298589.420       -1040.401          40.000  
G28  20481471.017   107631012.587       -2418.610          48.000  
G30  21909039.163   115132921.816       -1769.903          45.000  
R 2  23587040.793   125864969.337        2844.147          37.000  
S38  39308115.026   206565543.815        -271.791          41.000  
R11  20758963.088   110929783.360         515.648          49.000  
R 1  20640718.786   110336639.416        -607.312          46.000  
G15  23027731.614   121011633.152        2601.873          50.000  
R 8  21151173.253   113263675.620       -3745.487          48.000  
R20  21368759.448   114268434.240        -156.316          38.000  
R21  21357638.659   114289098.072        3078.717          42.000  
R10  21130880.975   112639542.609       -1527.948          42.000  
S20  37795434.315   198616351.304        -200.789          41.000  
> 2017 11 25 12 49  0.5989999  0 19                     
G 5  23689356.096   124488433.228       -2603.857          40.000  
G 7  24223202.929   127293819.070       -2598.008          42.000  
G13  20694909.202   108752643.774        1180.100          46.000  
R12  23695303.385   126576057.894        1748.523          34.000  
G17  20788517.126   109244586.025        1744.362          51.000  
G19  21954551.983   115372057.151        2423.225          45.000  
G20  24414420.426   128298797.585       -1040.976          40.000  
G28  20481562.979   107631496.340       -2418.921          48.000  
G30  21909106.416   115133275.858       -1770.067          45.000  
R 2  23586934.067   125864400.541        2843.738          37.000  
S38  39308125.391   206565598.246        -272.517          41.000  
R11  20758943.858   110929680.276         515.474          49.000  
R 1  20640741.785   110336760.893        -607.495          46.000  
G15  23027632.636   121011112.842        2601.624          50.000  
R 8  21151313.064   113264424.803       -3745.800          47.000  
R20  21368765.276   114268465.500        -156.377          38.000  
R21  21357523.592   114288482.534        3077.711          42.000  
R10  21130938.281   112639848.280       -1528.402          42.000  
S20  37795441.854   198616391.615        -201.752          41.000  
> 2017 11 25 12 49  0.7989999  0 19                     
G 5  23689455.178   124488953.912       -2603.417          41.000  
G 7  24223301.907   127294338.701       -2598.433          42.000  
G13  20694864.390   108752407.770        1179.748          46.000  
R12  23695237.842   126575708.285        1747.973          35.000  
G17  20788450.850   109244237.199        1743.906          51.000  
G19  21954459.671   115371572.486        2423.218          45.000  
G20  24414460.003   128299005.754       -1041.003          40.000  
G28  20481654.977   107631980.096       -2419.055          48.000  
G30  21909173.808   115133629.945       -1770.626          45.000  
R 2  23586827.586   125863831.780        2843.756          37.000  
S38  39308135.722   206565652.683        -272.231          41.000  
R11  20758924.767   110929577.214         515.175          49.000  
R 1  20640764.645   110336882.416        -607.990          46.000  
G15  23027533.624   121010592.565        2601.248          50.000  
R 8  21151453.050   113265174.019       -3746.323          48.000  
R20  21368771.000   114268496.792        -156.371          38.000  
R21  21357408.491   114287867.011        3077.320          43.000  
R10  21130995.623   112640153.964       -1528.481          42.000  
S20  37795449.497   198616431.925        -201.868          41.000  
> 2017 11 25 12 49  0.9989999  0 19                     
G 5  23689554.226   124489474.654       -2603.842          41.000  
G 7  24223400.850   127294858.343       -2598.445          42.000  
G13  20694819.543   108752171.786        1179.686          45.000  
R12  23695172.334   126575358.687        1748.015          35.000  
G17  20788384.539   109243888.397        1743.780          51.000  
G19  21954367.394   115371087.857        2423.167          45.000  
G20  24414499.510   128299213.969       -1041.063          40.000  
G28  20481747.079   107632463.884       -2419.049          48.000  
G30  21909241.166   115133984.027       -1770.474          45.000  
R 2  23586721.000   125863263.058        2843.457          37.000  
S38  39308146.017   206565707.181        -272.595          41.000  
R11  20758905.572   110929474.175         514.973          49.000  
R 1  20640787.470   110337003.985        -608.051          46.000  
G15  23027434.681   121010072.315        2601.150          50.000  
R 8  21151592.931   113265923.263       -3746.474          48.000  
R20  21368776.933   114268528.165        -156.781          38.000  
R21  21357293.180   114287251.523        3077.194          43.000  
R10  21131052.929   112640459.697       -1529.104          42.000  
S20  37795457.175   198616472.260        -201.743          41.000  
> 2017 11 25 12 49  1.1989999  0 19                     
G 5  23689653.273   124489995.347       -2603.087          41.000  
G 7  24223499.757   127295377.997       -2598.013          42.000  
G13  20694774.835   108751935.844        1180.009          45.000  
R12  23695106.931   126575009.062        1748.410          35.000  
G17  20788318.089   109243539.613        1744.133          51.000  
G19  21954275.048   115370603.241        2423.319          45.000  
G20  24414539.087   128299422.199       -1041.156          40.000  
G28  20481839.007   107632947.694       -2418.939          48.000  
G30  21909308.559   115134338.112       -1770.238          45.000  
R 2  23586614.449   125862694.338        2843.817          37.000  
S38  39308156.348   206565761.634        -272.276          41.000  
R11  20758886.447   110929371.127         515.508          49.000  
R 1  20640810.120   110337125.598        -607.892          46.000  
G15  23027335.668   121009552.061        2601.549          49.000  
R 8  21151732.777   113266672.514       -3746.044          48.000  
R20  21368782.831   114268559.569        -156.886          38.000  
R21  21357177.938   114286636.045        3077.529          43.000  
R10  21131110.201   112640765.393       -1528.447          42.000  
S20  37795464.853   198616512.635        -201.494          41.000  
> 2017 11 25 12 49  1.3989999  0 19                     
G 5  23689752.390   124490516.078       -2603.153          41.000  
G 7  24223598.630   127295897.653       -2597.966          42.000  
G13  20694729.988   108751699.924        1179.670          45.000  
R12  23695041.527   126574659.469        1748.146          35.000  
G17  20788251.603   109243190.854        1744.010          51.000  
G19  21954182.876   115370118.642        2423.138          45.000  
G20  24414578.769   128299630.388       -1040.813          40.000  
G28  20481931.005   107633431.511       -2418.860          48.000  
G30  21909375.777   115134692.201       -1770.415          45.000  
R 2  23586507.968   125862125.648        2843.988          37.000  
S38  39308166.818   206565816.130        -272.408          42.000  
R11  20758867.182   110929268.099         515.348          49.000  
R 1  20640833.015   110337247.225        -608.228          46.000  
G15  23027236.830   121009031.835        2601.178          49.000  
R 8  21151872.693   113267421.784       -3746.303          48.000  
R20  21368788.624   114268591.014        -157.539          39.000  
R21  21357062.767   114286020.583        3077.213          43.000  
R10  21131167.577   112641071.089       -1528.357          42.000  
S20  37795472.496   198616553.005        -201.871          41.000  
> 2017 11 25 12 49  1.5989999  0 19                     
G 5  23689851.508   124491036.806       -2603.532          41.000  
G 7  24223697.643   127296417.335       -2598.304          42.000  
G13  20694685.071   108751464.028        1179.404          45.000  
R12  23694976.054   126574309.863        1748.503          35.000  
G17  20788185.258   109242842.122        1743.633          51.000  
G19  21954090.739   115369634.063        2422.791          45.000  
G20  24414618.346   128299838.662       -1041.217          40.000  
G28  20482022.967   107633915.349       -2419.012          48.000  
G30  21909443.030   115135046.298       -1770.403          45.000  
R 2  23586401.382   125861556.967        2843.451          37.000  
S38  39308177.114   206565870.614        -272.564          42.000  
R11  20758847.951   110929165.073         515.167          49.000  
R 1  20640855.770   110337368.920        -608.472          46.000  
G15  23027137.818   121008511.625        2601.038          50.000  
R 8  21152012.678   113268171.077       -3746.586          48.000  
R20  21368794.627   114268622.457        -157.325          39.000  
R21  21356947.665   114285405.172        3077.052          43.000  
R10  21131224.919   112641376.797       -1528.834          42.000  
S20  37795480.244   198616593.369        -201.788          41.000  
> 2017 11 25 12 49  1.7989999  0 19                     
G 5  23689950.660   124491557.560       -2603.608          41.000  
G 7  24223796.411   127296937.016       -2598.260          41.000  
G13  20694640.189   108751228.156        1179.332          45.000  
R12  23694910.581   126573960.316        1747.830          35.000  
G17  20788118.912   109242493.446        1743.356          51.000  
G19  21953998.427   115369149.514        2422.696          45.000  
G20  24414657.993   128300046.969       -1041.851          40.000  
G28  20482114.930   107634399.235       -2419.354          48.000  
G30  21909510.458   115135400.451       -1770.753          46.000  
R 2  23586294.935   125860988.333        2843.256          37.000  
S38  39308187.479   206565925.112        -272.570          42.000  
R11  20758828.756   110929062.064         515.148          49.000  
R 1  20640878.735   110337490.656        -608.777          46.000  
G15  23027038.875   121007991.442        2600.965          50.000  
R 8  21152152.594   113268920.406       -3746.697          48.000  
R20  21368800.525   114268653.973        -157.617          39.000  
R21  21356832.529   114284789.773        3076.767          43.000  
R10  21131282.330   112641682.523       -1528.729          42.000  
S20  37795487.888   198616633.756        -201.846          41.000  
> 2017 11 25 12 49  1.9989999  0 20                     
G 5  23690050.021   124492078.300       -2603.786          41.000  
G11  25302159.943                1      -1282.108          33.000  
G 7  24223895.214   127297456.703       -2598.595          41.000  
G13  20694595.377   108750992.308        1178.942          45.000  
R12  23694845.212   126573610.728        1747.441          35.000  
G17  20788052.461   109242144.775        1743.127          51.000  
G19  21953906.255   115368664.965        2422.456          45.000  
G20  24414697.640   128300255.236       -1041.480          40.000  
G28  20482206.927   107634883.111       -2419.702          48.000  
G30  21909577.851   115135754.577       -1770.753          46.000  
R 2  23586188.419   125860419.716        2843.213          37.000  
S38  39308197.809   206565979.586        -272.669          42.000  
R11  20758809.631   110928959.053         514.906          49.000  
R 1  20640901.559   110337612.416        -609.064          46.000  
G15  23026939.828   121007471.268        2600.716          50.000  
R 8  21152292.475   113269669.738       -3746.906          48.000  
R20  21368806.354   114268685.503        -157.709          39.000  
R21  21356717.427   114284174.368        3076.819          43.000  
R10  21131339.741   112641988.245       -1528.685          42.000  
S20  37795495.496   198616674.142        -202.297          41.000  
> 2017 11 25 12 49  2.1989999  0 20                     
G 5  23690149.104   124492599.090       -2603.666          40.000  
G11  25302209.153                1      -1282.108          33.000  
G 7  24223994.192   127297976.397       -2598.508          41.000  
G13  20694550.530   108750756.488        1179.292          45.000  
R12  23694779.879   126573261.173        1747.821          36.000  
G17  20787986.116   109241796.149        1743.168          51.000  
G19  21953814.257   115368180.462        2422.606          45.000  
G20  24414737.147   128300463.573       -1041.375          40.000  
G28  20482298.995   107635367.005       -2419.409          48.000  
G30  21909645.313   115136108.744       -1770.702          46.000  
R 2  23586081.973   125859851.163        2842.841          37.000  
S38  39308208.175   206566034.112        -272.502          42.000  
R11  20758790.296   110928856.074         514.960          49.000  
R 1  20640924.315   110337734.237        -609.064          46.000  
G15  23026840.955   121006951.127        2600.833          50.000  
R 8  21152432.391   113270419.117       -3746.890          48.000  
R20  21368812.252   114268717.109        -157.774          39.000  
R21  21356602.360   114283559.017        3077.089          43.000  
R10  21131397.047   112642293.993       -1528.455          42.000  
S20  37795503.034   198616714.534        -201.696          41.000  
> 2017 11 25 12 49  2.3989999  0 20                     
G 5  23690248.046   124493119.814       -2603.676          40.000  
G11  25302251.417                1      -1282.764          32.000  
G 7  24224093.135   127298496.076       -2598.386          41.000  
G13  20694505.648   108750520.658        1179.116          45.000  
R12  23694714.336   126572911.550        1747.653          35.000  
G17  20787919.770   109241447.498        1743.078          51.000  
G19  21953722.051   115367695.913        2422.520          45.000  
G20  24414776.829   128300671.895       -1041.713          39.000  
G28  20482390.923   107635850.877       -2419.427          48.000  
G30  21909712.601   115136462.870       -1770.785          46.000  
R 2  23585975.387   125859282.557        2842.896          37.000  
S38  39308218.680   206566088.589        -272.784          42.000  
R11  20758771.101   110928753.045         514.927          49.000  
R 1  20640947.104   110337856.039        -609.149          46.000  
G15  23026742.012   121006430.949        2600.760          50.000  
R 8  21152572.307   113271168.453       -3746.859          48.000  
R20  21368818.150   114268748.708        -158.257          39.000  
R21  21356487.154   114282943.627        3076.721          43.000  
R10  21131454.319   112642599.677       -1528.503          42.000  
S20  37795510.608   198616754.891        -201.682          41.000  
> 2017 11 25 12 49  2.5989999  0 19                     
G 5  23690347.129   124493640.524       -2603.448          40.000  
G 7  24224192.008   127299015.689       -2598.254          41.000  
G13  20694460.696   108750284.798        1179.190          45.000  
R12  23694648.793   126572561.923        1747.832          35.000  
G17  20787853.564   109241098.835        1743.168          51.000  
G19  21953629.809   115367211.335        2422.686          45.000  
G20  24414816.371   128300880.160       -1041.751          39.000  
G28  20482482.920   107636334.713       -2419.324          48.000  
G30  21909780.064   115136816.955       -1770.625          46.000  
R 2  23585868.941   125858713.969        2842.657          36.000  
S38  39308229.150   206566142.986        -272.231          42.000  
R11  20758751.836   110928649.958         515.303          49.000  
R 1  20640969.929   110337977.819        -609.161          46.000  
G15  23026643.034   121005910.753        2600.919          50.000  
R 8  21152712.258   113271917.771       -3746.593          48.000  
R20  21368823.979   114268780.267        -158.001          39.000  
R21  21356371.948   114282328.202        3076.903          43.000  
R10  21131511.730   112642905.348       -1528.375          42.000  
S20  37795518.181   198616795.215        -201.887          41.000  
> 2017 11 25 12 49  2.7989999  0 19                     
G 5  23690446.037   124494161.216       -2603.157          40.000  
G 7  24224290.811   127299535.298       -2597.919          42.000  
G13  20694415.745   108750048.935        1179.455          45.000  
R12  23694583.354   126572212.171        1748.775          35.000  
G17  20787787.113   109240750.160        1743.513          51.000  
G19  21953537.567   115366726.753        2423.096          44.000  
G20  24414855.948   128301088.404       -1040.631          40.000  
G28  20482574.987   107636818.536       -2419.025          48.000  
G30  21909847.387   115137171.010       -1770.164          46.000  
R 2  23585762.494   125858145.359        2843.097          37.000  
S38  39308239.515   206566197.372        -271.698          42.000  
R11  20758732.291   110928546.864         515.665          48.000  
R 1  20640992.684   110338099.629        -608.997          46.000  
G15  23026543.847   121005390.530        2601.290          50.000  
R 8  21152852.104   113272667.092       -3746.401          48.000  
R20  21368829.772   114268811.858        -157.802          39.000  
R21  21356256.741   114281712.804        3077.114          41.000  
R10  21131569.072   112643210.990       -1528.156          42.000  
S20  37795525.789   198616835.452        -201.253          41.000  
> 2017 11 25 12 49  2.9989999  0 19                     
G 5  23690545.084   124494681.912       -2603.549          40.000  
G 7  24224389.579   127300054.943       -2598.054          42.000  
G13  20694370.863   108749813.129        1179.172          45.000  
R12  23694517.951   126571862.535        1748.799          35.000  
G17  20787720.733   109240401.553        1743.141          51.000  
G19  21953445.220   115366242.221        2422.749          44.000  
G20  24414895.805   128301296.719       -1041.487          40.000  
G28  20482667.159   107637302.396       -2419.263          48.000  
G30  21909914.849   115137525.129       -1770.570          46.000  
R 2  23585655.978   125857576.766        2843.091          37.000  
S38  39308249.986   206566251.808        -271.923          43.000  
R11  20758712.642   110928443.802         515.497          48.000  
R 1  20641015.440   110338221.485        -609.204          46.000  
G15  23026444.835   121004870.357        2601.009          50.000  
R 8  21152992.054   113273416.443       -3746.620          48.000  
R20  21368835.670   114268843.518        -158.229          39.000  
R21  21356141.535   114281097.413        3076.891          41.000  
R10  21131626.343   112643516.661       -1528.389          42.000  
S20  37795533.433   198616875.745        -201.209          41.000  
> 2017 11 25 12 49  3.1989999  0 19                     
G 5  23690644.097   124495202.585       -2603.277          40.000  
G 7  24224488.487   127300574.568       -2598.206          42.000  
G13  20694325.981   108749577.316        1178.875          45.000  
R12  23694452.513   126571512.906        1748.422          35.000  
G17  20787654.352   109240052.939        1742.972          51.000  
G19  21953352.978   115365757.666        2422.500          44.000  
G20  24414935.417   128301505.012       -1041.609          40.000  
G28  20482759.192   107637786.261       -2419.360          48.000  
G30  21909982.207   115137879.210       -1770.427          46.000  
R 2  23585549.497   125857008.188        2842.706          37.000  
S38  39308260.456   206566306.214        -272.029          43.000  
R11  20758693.343   110928340.710         515.397          49.000  
R 1  20641038.195   110338343.364        -609.619          46.000  
G15  23026345.752   121004350.173        2600.733          49.000  
R 8  21153132.040   113274165.795       -3746.806          48.000  
R20  21368841.394   114268875.187        -158.360          39.000  
R21  21356026.398   114280482.025        3077.193          42.000  
R10  21131683.615   112643822.298       -1528.159          43.000  
S20  37795541.076   198616915.993        -201.586          41.000  
> 2017 11 25 12 49  3.3989999  0 19                     
G 5  23690743.249   124495723.329       -2603.441          40.000  
G 7  24224587.395   127301094.231       -2598.035          42.000  
G13  20694281.064   108749341.545        1178.987          45.000  
R12  23694387.039   126571163.274        1747.939          35.000  
G17  20787588.006   109239704.383        1742.852          51.000  
G19  21953260.737   115365273.169        2422.465          45.000  
G20  24414974.959   128301713.373       -1041.772          40.000  
G28  20482851.189   107638270.172       -2419.525          48.000  
G30  21910049.565   115138233.344       -1770.500          46.000  
R 2  23585443.016   125856439.702        2842.609          37.000  
S38  39308270.996   206566360.658        -271.994          43.000  
R11  20758674.043   110928237.670         515.396          49.000  
R 1  20641060.950   110338465.308        -609.625          46.000  
G15  23026246.740   121003830.042        2600.689          49.000  
R 8  21153271.851   113274915.213       -3747.003          48.000  
R20  21368847.257   114268906.932        -158.953          38.000  
R21  21355911.192   114279866.693        3076.702          42.000  
R10  21131740.991   112644127.981       -1528.111          43.000  
S20  37795548.789   198616956.281        -201.135          41.000  
> 2017 11 25 12 49  3.5989999  0 19                     
G 5  23690842.226   124496244.032       -2603.620          39.000  
G 7  24224686.407   127301613.855       -2597.936          43.000  
G13  20694236.077   108749105.779        1178.580          45.000  
R12  23694321.566   126570813.605        1748.046          35.000  
G17  20787521.626   109239355.834        1742.508          51.000  
G19  21953168.530   115364788.664        2422.437          45.000  
G20  24415014.571   128301921.705       -1042.019          40.000  
G28  20482943.292   107638754.053       -2419.470          48.000  
G30  21910117.028   115138587.463       -1770.660          46.000  
R 2  23585336.570   125855871.193        2842.358          37.000  
S38  39308281.326   206566415.052        -272.190          43.000  
R11  20758654.743   110928134.613         515.172          49.000  
R 1  20641083.705   110338587.258        -609.998          46.000  
G15  23026147.727   121003309.890        2600.638          49.000  
R 8  21153411.942   113275664.616       -3747.194          49.000  
R20  21368853.086   114268938.652        -158.843          38.000  
R21  21355796.021   114279251.333        3076.715          42.000  
R10  21131798.263   112644433.623       -1528.227          43.000  
S20  37795556.502   198616996.552        -201.467          41.000  
> 2017 11 25 12 49  3.7989999  0 19                     
G 5  23690941.274   124496764.758       -2603.552          39.000  
G 7  24224785.385   127302133.513       -2598.331          43.000  
G13  20694191.160   108748870.046        1178.642          45.000  
R12  23694256.232   126570463.995        1748.026          35.000  
G17  20787455.140   109239007.305        1742.727          51.000  
G19  21953076.288   115364304.185        2422.395          45.000  
G20  24415054.183   128302130.050       -1041.638          40.000  
G28  20483035.359   107639237.969       -2419.495          48.000  
G30  21910184.525   115138941.596       -1770.615          46.000  
R 2  23585229.984   125855302.717        2842.401          37.000  
S38  39308291.761   206566469.466        -272.208          43.000  
R11  20758635.338   110928031.562         515.296          49.000  
R 1  20641106.355   110338709.270        -610.059          45.000  
G15  23026048.645   121002789.759        2600.615          50.000  
R 8  21153551.823   113276414.043       -3747.119          49.000  
R20  21368859.088   114268970.447        -159.095          38.000  
R21  21355680.954   114278636.006        3076.451          42.000  
R10  21131855.569   112644739.287       -1528.146          42.000  
S20  37795564.075   198617036.829        -201.522          41.000  
> 2017 11 25 12 49  3.9989999  0 19                     
G 5  23691040.286   124497285.458       -2603.634          39.000  
G 7  24224884.327   127302653.142       -2598.131          43.000  
G13  20694146.313   108748634.328        1178.506          45.000  
R12  23694190.689   126570114.294        1748.044          35.000  
G17  20787388.725   109238658.796        1742.410          50.000  
G19  21952984.116   115363819.693        2422.342          46.000  
G20  24415093.865   128302338.421       -1041.819          40.000  
G28  20483127.461   107639721.875       -2419.635          48.000  
G30  21910251.988   115139295.720       -1770.641          46.000  
R 2  23585123.433   125854734.226        2842.511          36.000  
S38  39308302.162   206566523.841        -271.768          42.000  
R11  20758616.038   110927928.484         515.494          49.000  
R 1  20641129.110   110338831.270        -610.114          45.000  
G15  23025949.563   121002269.624        2600.695          50.000  
R 8  21153691.843   113277163.454       -3747.052          49.000  
R20  21368865.161   114269002.229        -159.074          38.000  
R21  21355565.957   114278020.674        3076.612          42.000  
R10  21131912.911   112645044.942       -1528.196          43.000  
S20  37795571.718   198617077.090        -201.243          41.000  
> 2017 11 25 12 49  4.1989999  0 19                     
G 5  23691139.299   124497806.217       -2603.860          40.000  
G 7  24224983.305   127303172.848       -2598.552          44.000  
G13  20694101.396   108748398.688        1178.058          44.000  
R12  23694125.321   126569764.692        1747.596          34.000  
G17  20787322.484   109238310.333        1742.170          50.000  
G19  21952891.874   115363335.257        2422.291          46.000  
G20  24415133.546   128302546.845       -1042.074          40.000  
G28  20483219.424   107640205.841       -2419.757          49.000  
G30  21910319.276   115139649.905       -1770.834          45.000  
R 2  23585016.847   125854165.814        2842.590          36.000  
S38  39308312.632   206566578.284        -272.270          42.000  
R11  20758596.738   110927825.468         515.104          49.000  
R 1  20641152.040   110338953.351        -610.523          46.000  
G15  23025850.655   121001749.561        2600.274          50.000  
R 8  21153831.759   113277912.955       -3747.692          49.000  
R20  21368870.989   114269034.129        -159.832          38.000  
R21  21355450.960   114277405.448        3076.050          42.000  
R10  21131970.357   112645350.656       -1528.829          43.000  
S20  37795579.327   198617117.397        -201.783          41.000  
> 2017 11 25 12 49  4.3989999  0 19                     
G 5  23691238.381   124498327.008       -2603.911          40.000  
G 7  24225082.178   127303692.587       -2598.696          44.000  
G13  20694056.480   108748163.075        1177.979          44.000  
R12  23694059.987   126569415.091        1747.971          35.000  
G17  20787256.173   109237961.930        1741.841          50.000  
G19  21952799.667   115362850.884        2421.771          46.000  
G20  24415173.124   128302755.315       -1042.557          40.000  
G28  20483311.631   107640689.850       -2420.221          49.000  
G30  21910386.494   115140004.136       -1771.291          45.000  
R 2  23584910.365   125853597.479        2841.504          36.000  
S38  39308322.962   206566632.759        -272.216          42.000  
R11  20758577.473   110927722.476         514.858          49.000  
R 1  20641174.830   110339075.508        -610.980          46.000  
G15  23025751.607   121001229.529        2600.008          50.000  
R 8  21153971.675   113278662.481       -3747.806          47.000  
R20  21368876.923   114269066.073        -160.086          38.000  
R21  21355335.928   114276790.239        3075.935          42.000  
R10  21132027.594   112645656.382       -1528.964          43.000  
S20  37795587.005   198617157.714        -201.505          41.000  
> 2017 11 25 12 49  4.5989999  0 19                     
G 5  23691337.463   124498847.805       -2604.254          40.000  
G 7  24225181.121   127304212.290       -2598.772          44.000  
G13  20694011.563   108747927.470        1177.833          44.000  
R12  23693994.514   126569065.498        1747.849          35.000  
G17  20787189.792   109237613.543        1741.765          50.000  
G19  21952707.634   115362366.505        2421.750          46.000  
G20  24415212.736   128302963.770       -1042.441          40.000  
G28  20483403.838   107641173.859       -2420.197          49.000  
G30  21910453.887   115140358.337       -1771.242          45.000  
R 2  23584803.884   125853029.138        2841.534          35.000  
S38  39308333.293   206566687.210        -272.641          42.000  
R11  20758558.208   110927619.494         514.833          49.000  
R 1  20641197.550   110339197.690        -611.115          46.000  
G15  23025652.665   121000709.505        2600.079          50.000  
R 8  21154111.591   113279412.028       -3747.836          48.000  
R20  21368882.786   114269098.059        -160.096          38.000  
R21  21355220.861   114276175.044        3075.908          42.000  
R10  21132084.970   112645962.093       -1528.661          43.000  
S20  37795594.578   198617198.053        -201.585          41.000  
> 2017 11 25 12 49  4.7989999  0 19                     
G 5  23691436.302   124499368.619       -2604.134          40.000  
G 7  24225279.994   127304732.022       -2598.794          44.000  
G13  20693966.716   108747691.909        1177.666          44.000  
R12  23693929.215   126568715.893        1748.116          35.000  
G17  20787123.482   109237265.205        1741.628          50.000  
G19  21952615.497   115361882.150        2421.657          46.000  
G20  24415252.313   128303172.269       -1042.515          40.000  
G28  20483495.975   107641657.906       -2420.276          49.000  
G30  21910521.210   115140712.576       -1771.218          45.000  
R 2  23584697.298   125852460.835        2840.979          35.000  
S38  39308343.693   206566741.651        -272.188          42.000  
R11  20758539.013   110927516.542         514.601          49.000  
R 1  20641220.340   110339319.927        -611.475          46.000  
G15  23025553.792   121000189.529        2599.752          50.000  
R 8  21154251.611   113280161.614       -3747.969          48.000  
R20  21368888.858   114269130.099        -160.883          38.000  
R21  21355106.039   114275559.886        3075.727          42.000  
R10  21132142.346   112646267.860       -1529.145          43.000  
S20  37795602.256   198617238.409        -201.938          41.000  
> 2017 11 25 12 49  4.9989999  0 19                     
G 5  23691535.244   124499889.422       -2603.780          39.000  
G 7  24225379.006   127305251.779       -2598.779          44.000  
G13  20693921.834   108747456.379        1177.631          44.000  
R12  23693863.952   126568366.366        1748.027          34.000  
G17  20787057.101   109236916.887        1741.559          51.000  
G19  21952523.290   115361397.811        2421.768          45.000  
G20  24415291.820   128303380.793       -1042.541          39.000  
G28  20483588.112   107642141.973       -2420.190          49.000  
G30  21910588.498   115141066.841       -1771.191          46.000  
R 2  23584590.782   125851892.561        2841.199          35.000  
S38  39308353.954   206566796.118        -272.067          42.000  
R11  20758519.678   110927413.585         514.730          49.000  
R 1  20641243.200   110339442.206        -611.639          46.000  
G15  23025454.709   120999669.548        2599.883          50.000  
R 8  21154391.562   113280911.216       -3748.096          48.000  
R20  21368895.001   114269162.140        -160.372          38.000  
R21  21354991.077   114274944.759        3075.522          42.000  
R10  21132199.688   112646573.603       -1528.871          43.000  
S20  37795610.004   198617278.766        -201.896          41.000  
> 2017 11 25 12 49  5.1989999  0 19                     
G 5  23691634.292   124500410.269       -2603.765          39.000  
G 7  24225477.844   127305771.520       -2598.522          43.000  
G13  20693876.952   108747220.853        1177.682          44.000  
R12  23693798.409   126568016.789        1748.236          34.000  
G17  20786990.860   109236568.592        1741.403          51.000  
G19  21952431.049   115360913.508        2421.427          45.000  
G20  24415331.502   128303589.329       -1042.607          40.000  
G28  20483680.319   107642626.039       -2420.258          49.000  
G30  21910655.821   115141421.090       -1771.222          46.000  
R 2  23584484.196   125851324.289        2841.248          35.000  
S38  39308364.110   206566850.582        -271.981          42.000  
R11  20758500.378   110927310.632         514.872          49.000  
R 1  20641265.955   110339564.497        -611.438          46.000  
G15  23025355.697   120999149.580        2599.953          50.000  
R 8  21154531.513   113281660.820       -3747.984          48.000  
R20  21368900.864   114269194.258        -160.932          38.000  
R21  21354876.045   114274329.619        3075.658          42.000  
R10  21132257.029   112646879.334       -1528.455          43.000  
S20  37795617.717   198617319.099        -201.299          41.000  
> 2017 11 25 12 49  5.3989999  0 19                     
G 5  23691733.304   124500931.042       -2603.565          39.000  
G 7  24225576.647   127306291.225       -2598.228          43.000  
G13  20693832.070   108746985.328        1177.689          44.000  
R12  23693732.935   126567667.168        1748.663          34.000  
G17  20786924.584   109236220.273        1741.820          51.000  
G19  21952338.911   115360429.145        2421.959          45.000  
G20  24415371.114   128303797.830       -1042.305          40.000  
G28  20483772.352   107643110.070       -2419.891          48.000  
G30  21910723.178   115141775.302       -1770.897          46.000  
R 2  23584377.750   125850755.983        2841.687          35.000  
S38  39308374.441   206566904.984        -271.787          42.000  
R11  20758481.357   110927207.641         515.118          49.000  
R 1  20641288.815   110339686.795        -611.279          46.000  
G15  23025256.719   120998629.582        2600.292          50.000  
R 8  21154671.533   113282410.396       -3747.643          48.000  
R20  21368906.937   114269226.315        -160.153          38.000  
R21  21354761.118   114273714.459        3076.059          42.000  
R10  21132314.405   112647185.039       -1528.282          43.000  
S20  37795625.570   198617359.411        -201.388          41.000  
> 2017 11 25 12 49  5.5989999  0 19                     
G 5  23691832.212   124501451.866       -2604.415          39.000  
G 7  24225675.625   127306810.989       -2599.244          43.000  
G13  20693787.327   108746749.836        1177.064          44.000  
R12  23693667.602   126567317.596        1747.634          34.000  
G17  20786858.448   109235872.011        1740.894          51.000  
G19  21952246.670   115359944.850        2421.253          45.000  
G20  24415410.691   128304006.376       -1042.918          39.000  
G28  20483864.349   107643594.155       -2420.831          48.000  
G30  21910790.606   115142129.549       -1771.586          46.000  
R 2  23584271.164   125850187.760        2840.485          35.000  
S38  39308384.806   206566959.421        -272.512          42.000  
R11  20758462.092   110927104.676         514.418          49.000  
R 1  20641311.674   110339809.146        -612.146          46.000  
G15  23025157.672   120998109.637        2599.338          50.000  
R 8  21154811.658   113283160.034       -3748.462          48.000  
R20  21368912.905   114269258.463        -160.965          38.000  
R21  21354646.261   114273099.354        3075.032          42.000  
R10  21132371.782   112647490.769       -1529.023          43.000  
S20  37795633.213   198617399.706        -201.971          41.000  
> 2017 11 25 12 49  5.7989999  0 19                     
G 5  23691931.120   124501972.631       -2603.501          39.000  
G 7  24225774.638   127307330.667       -2598.121          43.000  
G13  20693742.341   108746514.311        1177.846          44.000  
R12  23693602.303   126566967.944        1748.357          34.000  
G17  20786792.207   109235523.711        1741.628          51.000  
G19  21952154.532   115359460.521        2421.693          45.000  
G20  24415450.303   128304214.870       -1042.246          39.000  
G28  20483956.416   107644078.198       -2420.020          48.000  
G30  21910858.034   115142483.756       -1770.759          46.000  
R 2  23584164.683   125849619.466        2841.577          35.000  
S38  39308395.032   206567013.814        -271.632          42.000  
R11  20758442.792   110927001.660         515.416          49.000  
R 1  20641334.360   110339931.490        -611.597          46.000  
G15  23025058.659   120997589.649        2600.099          50.000  
R 8  21154951.714   113283909.625       -3747.749          48.000  
R20  21368918.838   114269290.612        -160.597          38.000  
R21  21354531.264   114272484.176        3076.268          42.000  
R10  21132429.088   112647796.448       -1528.219          43.000  
S20  37795640.856   198617439.999        -201.093          41.000  
> 2017 11 25 12 49  5.9989999  0 19                     
G 5  23692030.098   124502493.429       -2603.900          39.000  
G 7  24225873.615   127307850.425       -2598.733          43.000  
G13  20693697.529   108746278.851        1177.418          44.000  
R12  23693536.830   126566618.324        1748.249          34.000  
G17  20786726.175   109235175.488        1741.087          51.000  
G19  21952062.186   115358976.211        2421.609          45.000  
G20  24415490.019   128304423.454       -1042.960          39.000  
G28  20484048.554   107644562.280       -2420.300          48.000  
G30  21910925.566   115142838.014       -1771.260          46.000  
R 2  23584058.236   125849051.245        2841.083          35.000  
S38  39308405.397   206567068.257        -272.252          42.000  
R11  20758423.388   110926898.708         514.857          49.000  
R 1  20641357.220   110340053.909        -612.213          46.000  
G15  23024959.682   120997069.708        2599.651          50.000  
R 8  21155091.769   113284659.280       -3748.268          48.000  
R20  21368924.771   114269322.806        -160.769          38.000  
R21  21354416.232   114271869.100        3075.519          42.000  
R10  21132486.499   112648102.164       -1528.423          43.000  
S20  37795648.639   198617480.306        -201.527          41.000  
> 2017 11 25 12 49  6.1989999  0 19                     
G 5  23692129.180   124503014.214       -2603.945          39.000  
G 7  24225972.488   127308370.135       -2598.713          42.000  
G13  20693652.856   108746043.390        1176.919          44.000  
R12  23693471.531   126566268.723        1747.602          34.000  
G17  20786660.109   109234827.271        1740.789          51.000  
G19  21951969.839   115358491.920        2421.207          45.000  
G20  24415529.701   128304631.999       -1043.226          39.000  
G28  20484140.691   107645046.364       -2420.660          48.000  
G30  21910992.994   115143192.250       -1771.147          46.000  
R 2  23583951.790   125848483.026        2841.046          35.000  
S38  39308415.937   206567122.661        -272.330          42.000  
R11  20758404.192   110926795.719         514.643          49.000  
R 1  20641379.905   110340176.319        -612.335          46.000  
G15  23024860.774   120996549.760        2599.594          50.000  
R 8  21155231.860   113285408.910       -3748.343          48.000  
R20  21368930.879   114269355.029        -161.666          38.000  
R21  21354301.270   114271253.980        3075.497          42.000  
R10  21132543.841   112648407.865       -1528.617          43.000  
S20  37795656.317   198617520.591        -201.598          41.000  
> 2017 11 25 12 49  6.3989999  0 19                     
G 5  23692228.227   124503535.016       -2604.041          39.000  
G 7  24226071.396   127308889.848       -2598.569          42.000  
G13  20693608.149   108745807.939        1177.106          44.000  
R12  23693406.163   126565919.127        1747.869          34.000  
G17  20786593.867   109234479.072        1740.835          51.000  
G19  21951877.772   115358007.631        2421.137          45.000  
G20  24415569.383   128304840.582       -1043.002          40.000  
G28  20484232.828   107645530.454       -2420.764          48.000  
G30  21911060.386   115143546.504       -1771.344          46.000  
R 2  23583845.309   125847914.837        2841.034          35.000  
S38  39308426.303   206567177.059        -271.996          42.000  
R11  20758385.067   110926692.730         514.888          49.000  
R 1  20641402.765   110340298.794        -612.506          46.000  
G15  23024761.901   120996029.822        2599.531          49.000  
R 8  21155371.985   113286158.560       -3748.310          48.000  
R20  21368936.881   114269387.220        -160.891          37.000  
R21  21354186.238   114270638.879        3075.256          42.000  
R10  21132601.287   112648713.564       -1528.540          43.000  
S20  37795663.960   198617560.872        -201.460          41.000  
> 2017 11 25 12 49  6.5989999  0 19                     
G 5  23692327.205   124504055.847       -2604.576          39.000  
G 7  24226170.304   127309409.607       -2599.066          43.000  
G13  20693563.371   108745572.517        1176.750          44.000  
R12  23693340.620   126565569.532        1747.309          34.000  
G17  20786527.626   109234130.906        1740.542          51.000  
G19  21951785.530   115357523.382        2421.094          45.000  
G20  24415609.100   128305049.199       -1043.004          39.000  
G28  20484325.035   107646014.575       -2420.801          48.000  
G30  21911127.744   115143900.780       -1771.835          45.000  
R 2  23583738.653   125847346.711        2840.002          35.000  
S38  39308436.563   206567231.505        -272.433          42.000  
R11  20758365.732   110926589.773         514.633          49.000  
R 1  20641425.520   110340421.294        -613.007          45.000  
G15  23024662.784   120995509.926        2599.093          50.000  
R 8  21155512.110   113286908.259       -3748.850          48.000  
R20  21368942.954   114269419.524        -161.712          38.000  
R21  21354071.381   114270023.833        3075.143          42.000  
R10  21132658.663   112649019.294       -1528.955          43.000  
S20  37795671.534   198617601.143        -201.321          41.000  
> 2017 11 25 12 49  6.7989999  0 19                     
G 5  23692426.217   124504576.636       -2604.169          39.000  
G 7  24226269.142   127309929.327       -2598.605          43.000  
G13  20693518.455   108745337.114        1177.182          44.000  
R12  23693275.286   126565219.860        1748.539          34.000  
G17  20786461.316   109233782.757        1740.900          51.000  
G19  21951693.358   115357039.136        2421.270          45.000  
G20  24415648.747   128305257.809       -1043.282          39.000  
G28  20484417.102   107646498.700       -2420.569          48.000  
G30  21911195.137   115144255.047       -1771.246          45.000  
R 2  23583632.242   125846778.534        2841.058          35.000  
S38  39308446.789   206567285.915        -272.085          42.000  
R11  20758346.502   110926486.809         514.857          49.000  
R 1  20641448.345   110340543.824        -612.640          45.000  
G15  23024563.911   120994990.013        2599.827          50.000  
R 8  21155652.096   113287657.948       -3748.306          48.000  
R20  21368949.097   114269451.852        -161.528          39.000  
R21  21353956.314   114269408.790        3075.248          43.000  
R10  21132716.075   112649324.982       -1528.229          43.000  
S20  37795679.107   198617641.437        -201.218          41.000  
> 2017 11 25 12 49  6.9989999  0 19                     
G 5  23692525.405   124505097.428       -2603.659          39.000  
G 7  24226368.015   127310449.040       -2598.468          43.000  
G13  20693473.677   108745101.742        1176.863          44.000  
R12  23693209.917   126564870.281        1747.733          35.000  
G17  20786395.075   109233434.626        1740.598          51.000  
G19  21951601.326   115356554.886        2421.176          45.000  
G20  24415688.184   128305466.427       -1043.126          39.000  
G28  20484509.309   107646982.811       -2420.667          48.000  
G30  21911262.565   115144609.327       -1771.368          45.000  
R 2  23583525.760   125846210.426        2840.143          35.000  
S38  39308457.120   206567340.328        -272.215          42.000  
R11  20758327.097   110926383.851         514.793          49.000  
R 1  20641471.135   110340666.389        -612.805          45.000  
G15  23024465.073   120994470.135        2599.457          50.000  
R 8  21155792.256   113288407.666       -3748.706          48.000  
R20  21368955.099   114269484.187        -161.371          39.000  
R21  21353841.387   114268793.762        3074.948          43.000  
R10  21132773.416   112649630.706       -1528.573          43.000  
S20  37795686.715   198617681.722        -201.341          41.000  
> 2017 11 25 12 49  7.1989999  0 19                     
G 5  23692624.661   124505618.232       -2603.495          40.000  
G 7  24226466.992   127310968.765       -2598.176          43.000  
G13  20693428.830   108744866.355        1177.241          44.000  
R12  23693144.549   126564520.653        1748.517          34.000  
G17  20786328.903   109233086.484        1741.118          51.000  
G19  21951509.154   115356070.631        2421.623          45.000  
G20  24415727.761   128305675.034       -1042.707          39.000  
G28  20484601.481   107647466.935       -2420.282          48.000  
G30  21911329.922   115144963.585       -1771.011          45.000  
R 2  23583419.279   125845642.259        2841.199          35.000  
S38  39308467.380   206567394.709        -271.425          42.000  
R11  20758307.797   110926280.859         515.326          49.000  
R 1  20641493.959   110340788.972        -612.323          44.000  
G15  23024366.095   120993950.215        2599.834          49.000  
R 8  21155932.207   113289157.348       -3748.157          48.000  
R20  21368961.067   114269516.549        -161.266          37.000  
R21  21353726.599   114268178.697        3075.723          44.000  
R10  21132830.722   112649936.371       -1527.864          42.000  
S20  37795694.428   198617721.982        -200.987          41.000  
> 2017 11 25 12 49  7.3989999  0 19                     
G 5  23692723.848   124506139.013       -2603.866          40.000  
G 7  24226565.726   127311488.460       -2598.467          43.000  
G13  20693383.913   108744630.978        1176.700          44.000  
R12  23693079.041   126564170.968        1748.482          34.000  
G17  20786262.662   109232738.357        1740.519          51.000  
G19  21951416.947   115355586.374        2421.320          45.000  
G20  24415767.408   128305883.629       -1042.641          39.000  
G28  20484693.653   107647951.044       -2420.532          48.000  
G30  21911397.315   115145317.808       -1771.008          45.000  
R 2  23583312.938   125845074.140        2840.649          35.000  
S38  39308477.781   206567449.071        -271.727          42.000  
R11  20758288.567   110926177.839         515.105          49.000  
R 1  20641516.819   110340911.560        -612.982          44.000  
G15  23024267.013   120993430.301        2599.641          49.000  
R 8  21156072.332   113289907.040       -3748.483          48.000  
R20  21368967.070   114269548.928        -161.540          38.000  
R21  21353611.707   114267563.627        3075.516          44.000  
R10  21132888.029   112650242.033       -1528.243          43.000  
S20  37795702.072   198617762.212        -201.219          41.000  
> 2017 11 25 12 49  7.5989999  0 19                     
G 5  23692823.070   124506659.740       -2603.642          40.000  
G 7  24226664.668   127312008.143       -2598.478          44.000  
G13  20693339.171   108744395.586        1176.949          44.000  
R12  23693013.672   126563821.325        1748.813          34.000  
G17  20786196.526   109232390.230        1740.568          51.000  
G19  21951324.740   115355102.104        2421.323          45.000  
G20  24415807.125   128306092.241       -1043.264          39.000  
G28  20484785.790   107648435.140       -2420.447          48.000  
G30  21911464.603   115145672.042       -1771.159          45.000  
R 2  23583206.596   125844505.961        2840.948          35.000  
S38  39308488.146   206567503.407        -271.755          42.000  
R11  20758269.407   110926074.817         515.329          49.000  
R 1  20641539.714   110341034.162        -613.153          44.000  
G15  23024168.000   120992910.377        2599.589          49.000  
R 8  21156212.387   113290656.725       -3748.513          48.000  
R20  21368973.108   114269581.307        -161.985          38.000  
R21  21353496.745   114266948.572        3075.233          44.000  
R10  21132945.475   112650547.675       -1528.227          43.000  
S20  37795709.680   198617802.415        -201.178          41.000  
> 2017 11 25 12 49  7.7989999  0 19                     
G 5  23692922.153   124507180.480       -2603.479          40.000  
G 7  24226763.402   127312527.808       -2598.414          44.000  
G13  20693294.359   108744160.209        1176.805          44.000  
R12  23692948.164   126563471.638        1748.314          35.000  
G17  20786130.250   109232042.107        1740.621          50.000  
G19  21951232.568   115354617.832        2421.487          45.000  
G20  24415846.807   128306300.814       -1042.699          39.000  
G28  20484878.032   107648919.233       -2420.294          48.000  
G30  21911531.891   115146026.252       -1770.845          44.000  
R 2  23583100.254   125843937.802        2841.144          35.000  
S38  39308498.477   206567557.705        -271.323          42.000  
R11  20758250.212   110925971.778         515.399          49.000  
R 1  20641562.399   110341156.776        -613.019          44.000  
G15  23024068.918   120992390.445        2599.782          49.000  
R 8  21156352.443   113291406.407       -3748.283          48.000  
R20  21368979.216   114269613.683        -161.890          38.000  
R21  21353381.888   114266333.531        3075.525          43.000  
R10  21133002.991   112650853.296       -1528.064          43.000  
S20  37795717.428   198617842.577        -200.627          41.000  
> 2017 11 25 12 49  7.9989999  0 19                     
G 5  23693021.270   124507701.240       -2603.627          40.000  
G 7  24226862.310   127313047.493       -2598.221          44.000  
G13  20693249.512   108743924.867        1176.733          44.000  
R12  23692882.621   126563121.931        1748.911          35.000  
G17  20786063.939   109231694.027        1740.494          51.000  
G19  21951140.535   115354133.605        2421.362          45.000  
G20  24415886.384   128306509.450       -1042.956          39.000  
G28  20484970.204   107649403.360       -2420.508          48.000  
G30  21911599.284   115146380.497       -1771.108          45.000  
R 2  23582993.808   125843369.695        2840.942          36.000  
S38  39308508.737   206567612.048        -271.390          42.000  
R11  20758230.982   110925868.764         515.255          49.000  
R 1  20641585.224   110341279.438        -613.312          45.000  
G15  23023970.010   120991870.545        2599.656          50.000  
R 8  21156492.463   113292156.144       -3748.492          48.000  
R20  21368985.533   114269646.132        -161.745          38.000  
R21  21353266.856   114265718.483        3075.463          43.000  
R10  21133060.332   112651158.935       -1527.909          43.000  
S20  37795725.106   198617882.797        -200.805          41.000  
> 2017 11 25 12 49  8.1989999  0 19                     
G 5  23693120.492   124508221.950       -2603.928          40.000  
G 7  24226961.183   127313567.121       -2598.317          44.000  
G13  20693204.595   108743689.489        1176.745          44.000  
R12  23692817.183   126562772.204        1748.561          35.000  
G17  20785997.663   109231345.907        1740.374          51.000  
G19  21951048.398   115353649.322        2421.245          45.000  
G20  24415925.926   128306718.045       -1043.279          39.000  
G28  20485062.307   107649887.436       -2420.520          49.000  
G30  21911666.677   115146734.686       -1770.956          45.000  
R 2  23582887.362   125842801.573        2840.454          36.000  
S38  39308519.173   206567666.337        -271.582          42.000  
R11  20758211.612   110925765.691         515.287          49.000  
R 1  20641608.189   110341402.075        -613.507          45.000  
G15  23023870.893   120991350.607        2599.531          50.000  
R 8  21156632.624   113292905.824       -3748.537          48.000  
R20  21368991.640   114269678.569        -162.396          38.000  
R21  21353151.859   114265103.422        3075.111          43.000  
R10  21133117.744   112651464.513       -1527.856          43.000  
S20  37795732.679   198617922.932        -200.740          41.000  
> 2017 11 25 12 49  8.3989999  0 19                     
G 5  23693219.749   124508742.635       -2603.618          40.000  
G 7  24227060.090   127314086.731       -2598.080          44.000  
G13  20693159.818   108743454.107        1176.823          44.000  
R12  23692751.675   126562422.453        1748.540          35.000  
G17  20785931.527   109230997.790        1740.410          51.000  
G19  21950956.226   115353165.023        2421.419          45.000  
G20  24415965.538   128306926.630       -1043.410          39.000  
G28  20485154.444   107650371.500       -2420.349          49.000  
G30  21911734.035   115147088.860       -1770.973          45.000  
R 2  23582780.846   125842233.408        2840.704          35.000  
S38  39308529.503   206567720.598        -271.429          42.000  
R11  20758192.312   110925662.602         515.385          49.000  
R 1  20641631.083   110341524.706        -613.330          45.000  
G15  23023771.810   120990830.653        2599.704          50.000  
R 8  21156772.679   113293655.498       -3748.447          48.000  
R20  21368997.713   114269710.973        -162.055          39.000  
R21  21353036.897   114264488.342        3075.264          43.000  
R10  21133175.155   112651770.072       -1527.771          43.000  
S20  37795740.322   198617963.054        -200.560          41.000  
> 2017 11 25 12 49  8.5989999  0 19                     
G 5  23693318.936   124509263.338       -2603.348          40.000  
G 7  24227158.998   127314606.370       -2598.004          44.000  
G13  20693115.005   108743218.748        1176.942          44.000  
R12  23692686.132   126562072.718        1748.710          35.000  
G17  20785865.321   109230649.700        1740.643          51.000  
G19  21950864.054   115352680.759        2421.478          45.000  
G20  24416005.150   128307135.210       -1042.739          39.000  
G28  20485246.581   107650855.594       -2420.233          49.000  
G30  21911801.427   115147443.044       -1770.496          45.000  
R 2  23582674.434   125841665.301        2839.868          35.000  
S38  39308539.694   206567774.883        -271.469          42.000  
R11  20758173.082   110925559.528         515.488          49.000  
R 1  20641653.873   110341647.411        -613.312          45.000  
G15  23023672.798   120990310.728        2599.884          50.000  
R 8  21156912.734   113294405.203       -3748.296          48.000  
R20  21369003.820   114269743.461        -162.125          38.000  
R21  21352921.830   114263873.302        3075.034          43.000  
R10  21133232.601   112652075.648       -1527.712          43.000  
S20  37795748.070   198618003.211        -200.594          41.000  
> 2017 11 25 12 49  8.7989999  0 19                     
G 5  23693418.053   124509783.981       -2602.913          40.000  
G 7  24227257.906   127315125.961       -2597.784          44.000  
G13  20693070.193   108742983.384        1176.978          44.000  
R12  23692620.554   126561722.927        1748.892          35.000  
G17  20785799.080   109230301.602        1740.751          51.000  
G19  21950771.882   115352196.479        2421.551          45.000  
G20  24416044.867   128307343.769       -1042.372          39.000  
G28  20485338.753   107651339.655       -2420.135          49.000  
G30  21911868.960   115147797.203       -1770.510          45.000  
R 2  23582567.953   125841097.115        2841.510          35.000  
S38  39308549.920   206567829.107        -270.743          42.000  
R11  20758153.712   110925456.405         515.837          49.000  
R 1  20641676.698   110341770.103        -613.239          45.000  
G15  23023573.785   120989790.773        2599.985          50.000  
R 8  21157052.860   113295154.884       -3748.160          48.000  
R20  21369010.033   114269775.919        -161.990          39.000  
R21  21352806.729   114263258.222        3075.566          43.000  
R10  21133289.907   112652381.176       -1527.397          43.000  
S20  37795755.644   198618043.344        -200.430          41.000  
> 2017 11 25 12 49  8.9989999  0 19                     
G 5  23693517.345   124510304.667       -2603.602          40.000  
G 7  24227356.849   127315645.538       -2597.872          44.000  
G13  20693025.451   108742748.000        1176.932          44.000  
R12  23692554.976   126561373.071        1748.978          35.000  
G17  20785732.874   109229953.494        1740.412          51.000  
G19  21950679.780   115351712.152        2421.616          45.000  
G20  24416084.514   128307552.365       -1043.042          39.000  
G28  20485431.030   107651823.694       -2420.294          49.000  
G30  21911936.283   115148151.343       -1770.755          45.000  
R 2  23582461.576   125840528.980        2841.144          35.000  
S38  39308560.355   206567883.324        -271.166          42.000  
R11  20758134.447   110925353.264         515.625          49.000  
R 1  20641699.418   110341892.805        -613.794          45.000  
G15  23023475.017   120989270.805        2599.791          50.000  
R 8  21157193.020   113295904.559       -3748.556          48.000  
R20  21369016.140   114269808.406        -162.512          39.000  
R21  21352691.836   114262643.136        3075.253          43.000  
R10  21133347.249   112652686.673       -1527.427          43.000  
S20  37795763.287   198618083.418        -200.641          41.000  
> 2017 11 25 12 49  9.1989999  0 19                     
G 5  23693616.392   124510825.227       -2602.913          40.000  
G 7  24227455.792   127316165.062       -2597.738          44.000  
G13  20692980.604   108742512.582        1177.091          45.000  
R12  23692489.468   126561023.174        1749.628          35.000  
G17  20785666.633   109229605.349        1740.659          51.000  
G19  21950587.608   115351227.801        2421.776          45.000  
G20  24416124.126   128307760.858       -1042.522          39.000  
G28  20485523.132   107652307.694       -2419.940          49.000  
G30  21912003.606   115148505.438       -1770.377          45.000  
R 2  23582355.095   125839960.822        2840.619          35.000  
S38  39308570.651   206567937.460        -270.721          42.000  
R11  20758115.147   110925250.060         516.073          49.000  
R 1  20641722.348   110342015.459        -613.367          45.000  
G15  23023376.074   120988750.790        2600.022          50.000  
R 8  21157332.971   113296654.188       -3748.197          48.000  
R20  21369022.318   114269840.827        -162.168          39.000  
R21  21352576.944   114262027.982        3075.982          43.000  
R10  21133404.521   112652992.107       -1527.045          43.000  
S20  37795770.930   198618123.425        -199.818          41.000  
> 2017 11 25 12 49  9.3989999  0 19                     
G 5  23693715.440   124511345.780       -2602.581          40.000  
G 7  24227554.699   127316684.533       -2597.209          44.000  
G13  20692935.792   108742277.129        1177.347          45.000  
R12  23692423.890   126560673.221        1750.255          35.000  
G17  20785600.392   109229257.176        1740.946          51.000  
G19  21950495.470   115350743.411        2421.997          45.000  
G20  24416163.738   128307969.338       -1042.096          39.000  
G28  20485615.339   107652791.655       -2419.659          49.000  
G30  21912071.033   115148859.480       -1770.016          45.000  
R 2  23582248.614   125839392.589        2841.388          35.000  
S38  39308580.912   206567991.559        -270.328          42.000  
R11  20758095.707   110925146.816         516.450          49.000  
R 1  20641745.208   110342138.112        -613.135          45.000  
G15  23023277.097   120988230.725        2600.542          50.000  
R 8  21157473.061   113297403.780       -3747.792          48.000  
R20  21369028.390   114269873.263        -162.168          39.000  
R21  21352461.877   114261412.838        3075.979          43.000  
R10  21133461.897   112653297.513       -1526.800          43.000  
S20  37795778.469   198618163.396        -199.559          41.000  
> 2017 11 25 12 49  9.5989999  0 19                     
G 5  23693814.522   124511866.242       -2602.447          40.000  
G 7  24227653.712   127317203.926       -2596.884          44.000  
G13  20692890.980   108742041.619        1177.813          45.000  
R12  23692358.242   126560323.221        1749.864          35.000  
G17  20785534.046   109228908.952        1741.193          51.000  
G19  21950403.333   115350258.945        2422.271          45.000  
G20  24416203.349   128308177.762       -1042.110          38.000  
G28  20485707.301   107653275.539       -2419.415          49.000  
G30  21912138.496   115149213.447       -1769.859          45.000  
R 2  23582142.098   125838824.302        2841.571          36.000  
S38  39308591.172   206568045.565        -269.943          42.000  
R11  20758076.373   110925043.492         516.641          49.000  
R 1  20641767.928   110342260.707        -612.982          45.000  
G15  23023178.189   120987710.612        2600.641          50.000  
R 8  21157613.116   113298153.303       -3747.483          48.000  
R20  21369034.533   114269905.650        -162.135          39.000  
R21  21352346.950   114260797.602        3076.228          43.000  
R10  21133519.203   112653602.820       -1526.374          43.000  
S20  37795786.042   198618203.294        -199.375          41.000  
> 2017 11 25 12 49  9.7989999  0 19                     
G 5  23693913.500   124512386.698       -2602.466          40.000  
G 7  24227752.550   127317723.341       -2597.308          44.000  
G13  20692846.063   108741806.151        1177.223          45.000  
R12  23692292.664   126559973.188        1750.049          35.000  
G17  20785467.770   109228560.747        1740.884          51.000  
G19  21950311.126   115349774.506        2421.985          45.000  
G20  24416242.927   128308386.188       -1042.081          39.000  
G28  20485799.474   107653759.437       -2419.592          49.000  
G30  21912205.679   115149567.417       -1769.937          45.000  
R 2  23582035.512   125838256.039        2841.309          36.000  
S38  39308601.503   206568099.571        -270.158          42.000  
R11  20758056.933   110924940.175         516.490          49.000  
R 1  20641790.857   110342383.355        -613.409          45.000  
G15  23023079.176   120987190.512        2600.181          50.000  
R 8  21157753.102   113298902.857       -3747.932          48.000  
R20  21369040.606   114269938.064        -162.542          39.000  
R21  21352232.128   114260182.410        3075.827          43.000  
R10  21133576.545   112653908.141       -1526.764          43.000  
S20  37795793.511   198618243.169        -199.447          41.000  
> 2017 11 25 12 49  9.9989999  0 19                     
G 5  23694012.617   124512907.156       -2602.362          40.000  
G 7  24227851.493   127318242.705       -2596.748          44.000  
G13  20692801.285   108741570.675        1177.355          45.000  
R12  23692227.086   126559623.203        1749.727          35.000  
G17  20785401.355   109228212.564        1740.941          51.000  
G19  21950219.024   115349290.078        2422.187          45.000  
G20  24416282.504   128308594.646       -1042.298          38.000  
G28  20485891.506   107654243.340       -2419.354          49.000  
G30  21912272.932   115149921.391       -1769.837          45.000  
R 2  23581928.996   125837687.813        2841.449          36.000  
S38  39308611.938   206568153.559        -270.050          42.000  
R11  20758037.633   110924836.857         516.627          49.000  
R 1  20641813.682   110342506.011        -613.306          45.000  
G15  23022980.234   120986670.409        2600.406          50.000  
R 8  21157892.983   113299652.406       -3747.678          48.000  
R20  21369046.643   114269970.472        -161.929          39.000  
R21  21352117.236   114259567.212        3075.961          43.000  
R10  21133633.816   112654213.448       -1526.631          43.000  
S20  37795801.084   198618283.060        -199.483          41.000  
> 2017 11 25 12 49 10.1989999  0 19                     
G 5  23694111.769   124513427.600       -2601.841          40.000  
G 7  24227950.366   127318762.069       -2596.509          44.000  
G13  20692756.508   108741335.190        1177.684          45.000  
R12  23692161.508   126559273.143        1750.332          35.000  
G17  20785335.044   109227864.373        1741.097          51.000  
G19  21950126.992   115348805.617        2422.532          45.000  
G20  24416322.046   128308803.050       -1041.638          38.000  
G28  20485983.713   107654727.231       -2419.171          49.000  
G30  21912340.116   115150275.343       -1769.494          44.000  
R 2  23581822.549   125837119.573        2841.034          36.000  
S38  39308622.129   206568207.509        -269.751          42.000  
R11  20758018.368   110924733.503         517.001          49.000  
R 1  20641836.647   110342628.675        -613.287          45.000  
G15  23022881.151   120986150.272        2600.900          50.000  
R 8  21158032.864   113300401.948       -3747.593          48.000  
R20  21369052.925   114270002.918        -161.813          39.000  
R21  21352002.308   114258951.997        3076.318          43.000  
R10  21133691.123   112654518.717       -1526.051          43.000  
S20  37795808.483   198618322.875        -199.006          41.000  
> 2017 11 25 12 49 10.3989999  0 19                     
G 5  23694210.781   124513947.949       -2601.735          40.000  
G 7  24228049.343   127319281.360       -2596.190          44.000  
G13  20692711.626   108741099.648        1177.930          45.000  
R12  23692095.861   126558923.010        1750.922          35.000  
G17  20785268.768   109227516.130        1741.273          50.000  
G19  21950034.924   115348321.110        2422.774          45.000  
G20  24416361.763   128309011.423       -1041.843          38.000  
G28  20486075.710   107655211.058       -2419.000          49.000  
G30  21912407.439   115150629.241       -1769.501          44.000  
R 2  23581716.033   125836551.258        2841.974          36.000  
S38  39308632.250   206568261.389        -269.272          42.000  
R11  20757999.138   110924630.084         517.274          49.000  
R 1  20641859.576   110342751.300        -613.019          45.000  
G15  23022782.069   120985630.098        2601.084          50.000  
R 8  21158172.850   113301151.431       -3747.194          48.000  
R20  21369058.963   114270035.349        -162.472          39.000  
R21  21351887.346   114258336.720        3076.498          43.000  
R10  21133748.360   112654823.939       -1526.162          43.000  
S20  37795816.021   198618362.639        -198.681          41.000  
> 2017 11 25 12 49 10.5989999  0 19                     
G 5  23694309.759   124514468.339       -2601.863          40.000  
G 7  24228148.181   127319800.646       -2596.499          44.000  
G13  20692666.954   108740864.137        1177.508          45.000  
R12  23692030.213   126558572.863        1750.834          35.000  
G17  20785202.527   109227167.899        1741.076          51.000  
G19  21949942.682   115347836.620        2422.245          45.000  
G20  24416401.444   128309219.780       -1041.896          38.000  
G28  20486167.813   107655694.895       -2418.988          49.000  
G30  21912474.796   115150983.118       -1769.357          44.000  
R 2  23581609.692   125835983.006        2841.418          36.000  
S38  39308642.406   206568315.263        -269.472          42.000  
R11  20757979.838   110924526.661         517.156          49.000  
R 1  20641882.506   110342873.940        -613.159          45.000  
G15  23022683.161   120985109.922        2600.647          50.000  
R 8  21158312.870   113301900.925       -3747.571          48.000  
R20  21369064.861   114270067.763        -162.254          39.000  
R21  21351772.384   114257721.448        3076.370          43.000  
R10  21133805.596   112655129.134       -1526.061          43.000  
S20  37795823.490   198618402.407        -198.852          41.000  
> 2017 11 25 12 49 10.7989999  0 19                     
G 5  23694408.737   124514988.672       -2601.774          40.000  
G 7  24228246.845   127320319.891       -2596.033          44.000  
G13  20692622.142   108740628.606        1177.589          45.000  
R12  23691964.670   126558222.704        1750.641          35.000  
G17  20785136.181   109226819.662        1741.171          51.000  
G19  21949850.475   115347352.089        2422.607          45.000  
G20  24416441.126   128309428.131       -1041.957          38.000  
G28  20486259.706   107656178.700       -2419.092          49.000  
G30  21912541.945   115151336.995       -1769.498          44.000  
R 2  23581503.141   125835414.722        2841.229          36.000  
S38  39308652.737   206568369.099        -269.455          42.000  
R11  20757960.433   110924423.205         517.178          49.000  
R 1  20641905.296   110342996.598        -613.379          45.000  
G15  23022584.288   120984589.721        2601.023          50.000  
R 8  21158452.891   113302650.398       -3747.423          48.000  
R20  21369071.074   114270100.174        -162.160          39.000  
R21  21351657.527   114257106.161        3076.399          43.000  
R10  21133862.903   112655434.289       -1525.753          43.000  
S20  37795831.029   198618442.143        -198.837          41.000  
> 2017 11 25 12 49 10.9989999  0 19                     
G 5  23694507.749   124515509.037       -2601.623          40.000  
G 7  24228345.613   127320839.183       -2596.216          44.000  
G13  20692577.399   108740393.103        1177.637          45.000  
R12  23691899.127   126557872.548        1750.629          35.000  
G17  20785070.010   109226471.461        1741.054          51.000  
G19  21949758.268   115346867.586        2422.759          45.000  
G20  24416480.703   128309636.512       -1041.566          38.000  
G28  20486351.773   107656662.538       -2418.945          49.000  
G30  21912609.198   115151690.862       -1769.219          44.000  
R 2  23581396.729   125834846.446        2840.937          36.000  
S38  39308663.067   206568422.927        -268.800          42.000  
R11  20757941.133   110924319.769         517.380          49.000  
R 1  20641928.260   110343119.298        -613.391          45.000  
G15  23022485.136   120984069.545        2601.035          50.000  
R 8  21158592.876   113303399.902       -3747.367          48.000  
R20  21369077.251   114270132.650        -162.311          39.000  
R21  21351542.530   114256490.888        3076.597          44.000  
R10  21133920.244   112655739.451       -1525.598          43.000  
S20  37795838.567   198618481.914        -198.915          41.000  
> 2017 11 25 12 49 11.1989999  0 19                     
G 5  23694606.797   124516029.346       -2601.572          40.000  
G 7  24228444.346   127321358.439       -2596.472          44.000  
G13  20692532.657   108740157.604        1177.343          45.000  
R12  23691833.549   126557522.378        1750.842          35.000  
G17  20785003.839   109226123.248        1740.934          51.000  
G19  21949665.957   115346383.085        2422.277          45.000  
G20  24416520.280   128309844.888       -1042.069          38.000  
G28  20486443.805   107657146.356       -2419.171          49.000  
G30  21912676.381   115152044.723       -1769.315          44.000  
R 2  23581290.283   125834278.161        2841.644          36.000  
S38  39308673.398   206568476.768        -269.158          42.000  
R11  20757921.834   110924216.314         517.185          49.000  
R 1  20641951.225   110343242.009        -613.684          45.000  
G15  23022386.333   120983549.361        2600.740          50.000  
R 8  21158732.827   113304149.390       -3747.649          48.000  
R20  21369083.498   114270165.141        -162.958          39.000  
R21  21351427.708   114255875.629        3076.135          44.000  
R10  21133977.551   112656044.608       -1525.787          43.000  
S20  37795846.175   198618521.668        -198.861          41.000  
> 2017 11 25 12 49 11.3989999  0 19                     
G 5  23694705.739   124516549.759       -2602.198          40.000  
G 7  24228543.080   127321877.756       -2596.677          44.000  
G13  20692487.775   108739922.182        1176.760          45.000  
R12  23691768.006   126557172.242        1750.480          35.000  
G17  20784937.772   109225775.134        1740.277          51.000  
G19  21949573.785   115345898.650        2421.697          45.000  
G20  24416559.892   128310053.330       -1042.669          38.000  
G28  20486535.838   107657630.247       -2419.684          49.000  
G30  21912743.704   115152398.653       -1769.856          44.000  
R 2  23581183.837   125833710.007        2840.845          36.000  
S38  39308683.763   206568530.666        -270.113          42.000  
R11  20757902.603   110924112.929         516.677          49.000  
R 1  20641974.015   110343364.809        -614.410          45.000  
G15  23022287.355   120983029.263        2600.258          50.000  
R 8  21158872.743   113304898.969       -3748.173          48.000  
R20  21369089.676   114270197.732        -163.537          39.000  
R21  21351312.781   114255260.454        3075.518          44.000  
R10  21134034.997   112656349.824       -1526.233          43.000  
S20  37795853.749   198618561.500        -199.243          41.000  
> 2017 11 25 12 49 11.5989999  0 19                     
G 5  23694804.717   124517070.067       -2601.431          40.000  
G 7  24228641.848   127322397.009       -2596.278          43.000  
G13  20692442.963   108739686.691        1177.591          45.000  
R12  23691702.498   126556822.077        1750.410          35.000  
G17  20784871.706   109225426.946        1740.988          51.000  
G19  21949481.717   115345414.136        2422.610          45.000  
G20  24416599.539   128310261.708       -1042.222          38.000  
G28  20486627.940   107658114.076       -2419.135          50.000  
G30  21912811.027   115152752.507       -1769.196          44.000  
R 2  23581077.425   125833141.752        2841.370          36.000  
S38  39308694.094   206568584.444        -269.190          42.000  
R11  20757883.478   110924009.453         517.320          49.000  
R 1  20641996.910   110343487.561        -613.745          45.000  
G15  23022188.273   120982509.089        2600.715          50.000  
R 8  21159012.519   113305648.456       -3747.520          48.000  
R20  21369095.783   114270230.238        -162.695          39.000  
R21  21351197.993   114254645.182        3076.486          44.000  
R10  21134092.234   112656654.959       -1525.656          43.000  
S20  37795861.392   198618601.222        -198.598          41.000  
> 2017 11 25 12 49 11.7989999  0 19                     
G 5  23694903.799   124517590.383       -2601.384          40.000  
G 7  24228740.651   127322916.258       -2596.445          43.000  
G13  20692398.185   108739451.235        1177.368          45.000  
R12  23691636.815   126556471.864        1751.363          35.000  
G17  20784805.430   109225078.800        1740.903          51.000  
G19  21949389.510   115344929.658        2422.631          46.000  
G20  24416639.151   128310470.100       -1041.960          38.000  
G28  20486720.112   107658597.918       -2419.135          50.000  
G30  21912878.420   115153106.373       -1769.237          44.000  
R 2  23580971.014   125832573.532        2840.942          36.000  
S38  39308704.250   206568638.237        -268.711          42.000  
R11  20757864.283   110923905.992         517.508          49.000  
R 1  20642019.804   110343610.340        -613.818          45.000  
G15  23022089.191   120981988.923        2600.903          50.000  
R 8  21159152.400   113306397.978       -3747.422          48.000  
R20  21369101.995   114270262.817        -162.865          39.000  
R21  21351083.136   114254029.961        3076.370          44.000  
R10  21134149.401   112656960.091       -1525.632          43.000  
S20  37795868.930   198618640.965        -198.470          41.000  
> 2017 11 25 12 49 11.9989999  0 19                     
G 5  23695002.847   124518110.702       -2601.545          40.000  
G 7  24228839.350   127323435.476       -2595.933          43.000  
G13  20692353.199   108739215.754        1177.589          45.000  
R12  23691571.167   126556121.634        1751.403          35.000  
G17  20784739.154   109224730.640        1740.940          51.000  
G19  21949297.234   115344445.158        2422.621          45.000  
G20  24416678.973   128310678.485       -1041.593          38.000  
G28  20486812.214   107659081.739       -2419.019          50.000  
G30  21912945.743   115153460.210       -1768.939          44.000  
R 2  23580864.463   125832005.342        2840.613          36.000  
S38  39308714.510   206568692.018        -268.483          42.000  
R11  20757844.843   110923802.498         517.654          49.000  
R 1  20642042.839   110343733.133        -613.843          45.000  
G15  23021990.213   120981468.736        2601.195          50.000  
R 8  21159292.316   113307147.484       -3747.300          48.000  
R20  21369108.068   114270295.373        -162.648          39.000  
R21  21350968.174   114253414.712        3076.296          44.000  
R10  21134206.602   112657265.191       -1525.088          43.000  
S20  37795876.504   198618680.670        -198.188          41.000  
> 2017 11 25 12 49 12.1989999  0 19                     
G 5  23695101.790   124518631.013       -2601.800          40.000  
G 7  24228938.153   127323954.736       -2596.688          43.000  
G13  20692308.456   108738980.333        1176.867          45.000  
R12  23691505.624   126555771.459        1750.348          35.000  
G17  20784672.948   109224382.533        1740.259          51.000  
G19  21949204.992   115343960.703        2421.983          45.000  
G20  24416718.585   128310886.922       -1042.557          38.000  
G28  20486904.177   107659565.607       -2419.598          50.000  
G30  21913013.066   115153814.096       -1769.598          44.000  
R 2  23580757.981   125831437.150        2840.509          35.000  
S38  39308724.771   206568745.849        -269.577          42.000  
R11  20757825.613   110923699.033         517.145          49.000  
R 1  20642065.978   110343855.996        -614.642          45.000  
G15  23021891.340   120980948.599        2600.421          50.000  
R 8  21159432.302   113307897.043       -3747.987          48.000  
R20  21369114.141   114270328.010        -163.414          38.000  
R21  21350853.246   114252799.500        3075.864          44.000  
R10  21134263.804   112657570.351       -1525.985          43.000  
S20  37795884.077   198618720.430        -199.035          41.000  
> 2017 11 25 12 49 12.3989999  0 19                     
G 5  23695200.628   124519151.351       -2601.737          40.000  
G 7  24229037.026   127324473.994       -2596.298          43.000  
G13  20692263.540   108738744.938        1177.135          45.000  
R12  23691440.012   126555421.223        1751.142          35.000  
G17  20784606.741   109224034.449        1740.450          51.000  
G19  21949112.785   115343476.244        2422.329          45.000  
G20  24416758.301   128311095.338       -1042.261          38.000  
G28  20486996.209   107660049.485       -2419.537          50.000  
G30  21913080.284   115154167.979       -1769.231          44.000  
R 2  23580651.570   125830868.993        2841.321          35.000  
S38  39308735.102   206568799.641        -268.795          42.000  
R11  20757806.173   110923595.566         517.506          49.000  
R 1  20642089.186   110343978.888        -614.618          46.000  
G15  23021792.467   120980428.478        2600.527          50.000  
R 8  21159572.183   113308646.600       -3747.710          48.000  
R20  21369120.318   114270360.677        -163.314          38.000  
R21  21350738.354   114252184.319        3076.055          44.000  
R10  21134321.006   112657875.493       -1525.778          43.000  
S20  37795891.686   198618760.142        -198.472          41.000  
> 2017 11 25 12 49 12.5989999  0 19                     
G 5  23695299.466   124519671.647       -2600.986          39.000  
G 7  24229135.794   127324993.233       -2595.914          43.000  
G13  20692218.762   108738509.550        1177.058          45.000  
R12  23691374.538   126555071.046        1751.101          36.000  
G17  20784540.465   109223686.367        1740.670          51.000  
G19  21949020.438   115342991.792        2422.520          45.000  
G20  24416798.123   128311303.762       -1041.777          39.000  
G28  20487088.312   107660533.347       -2419.055          50.000  
G30  21913147.607   115154521.857       -1769.169          44.000  
R 2  23580545.124   125830300.882        2840.576          35.000  
S38  39308745.328   206568853.470        -268.744          42.000  
R11  20757786.699   110923492.093         517.721          49.000  
R 1  20642112.256   110344101.786        -614.246          46.000  
G15  23021693.559   120979908.349        2600.982          50.000  
R 8  21159712.238   113309396.159       -3747.483          48.000  
R20  21369126.426   114270393.346        -162.962          38.000  
R21  21350623.427   114251569.123        3076.194          44.000  
R10  21134378.208   112658180.602       -1525.399          43.000  
S20  37795899.189   198618799.882        -198.514          41.000  
> 2017 11 25 12 49 12.7989999  0 19                     
G 5  23695398.408   124520191.995       -2601.283          39.000  
G 7  24229234.527   127325512.507       -2596.476          43.000  
G13  20692174.020   108738274.179        1176.638          45.000  
R12  23691308.995   126554720.829        1750.743          36.000  
G17  20784474.155   109223338.335        1740.010          51.000  
G19  21948928.231   115342507.378        2421.972          45.000  
G20  24416837.944   128311512.250       -1042.481          39.000  
G28  20487180.519   107661017.248       -2419.580          50.000  
G30  21913214.790   115154875.753       -1769.573          44.000  
R 2  23580438.782   125829732.736        2840.192          35.000  
S38  39308755.553   206568907.287        -269.055          42.000  
R11  20757767.259   110923388.636         517.155          49.000  
R 1  20642135.360   110344224.753        -614.978          46.000  
G15  23021594.547   120979388.254        2600.388          50.000  
R 8  21159852.328   113310145.747       -3748.118          48.000  
R20  21369132.568   114270426.095        -163.836          38.000  
R21  21350508.570   114250953.970        3075.725          44.000  
R10  21134435.375   112658485.733       -1525.640          43.000  
S20  37795906.728   198618839.609        -198.621          41.000  
> 2017 11 25 12 49 12.9989999  0 19                     
G 5  23695497.281   124520712.348       -2602.000          39.000  
G 7  24229333.330   127326031.749       -2596.136          43.000  
G13  20692129.173   108738038.828        1176.655          45.000  
R12  23691243.452   126554370.665        1750.802          36.000  
G17  20784408.053   109222990.312        1740.005          51.000  
G19  21948835.920   115342022.953        2422.087          45.000  
G20  24416877.521   128311720.721       -1042.614          39.000  
G28  20487272.586   107661501.131       -2419.489          50.000  
G30  21913282.043   115155229.635       -1769.410          44.000  
R 2  23580332.545   125829164.639        2840.442          36.000  
S38  39308765.744   206568961.125        -268.933          42.000  
R11  20757747.855   110923285.182         517.256          49.000  
R 1  20642158.534   110344347.738        -615.033          45.000  
G15  23021495.604   120978868.151        2600.524          50.000  
R 8  21159992.244   113310895.346       -3747.997          48.000  
R20  21369138.850   114270458.866        -164.166          38.000  
R21  21350393.747   114250338.828        3075.648          44.000  
R10  21134492.611   112658790.885       -1525.776          43.000  
S20  37795914.196   198618879.352        -198.619          41.000  
> 2017 11 25 12 49 13.1989999  0 19                     
G 5  23695596.329   124521232.652       -2601.757          39.000  
G 7  24229432.238   127326550.979       -2596.141          43.000  
G13  20692084.326   108737803.449        1176.853          45.000  
R12  23691177.944   126554020.381        1750.902          36.000  
G17  20784341.812   109222642.267        1740.084          51.000  
G19  21948743.643   115341538.506        2421.979          45.000  
G20  24416917.203   128311929.153       -1042.397          39.000  
G28  20487364.758   107661985.012       -2419.568          49.000  
G30  21913349.401   115155583.494       -1769.573          44.000  
R 2  23580226.099   125828596.493        2840.271          36.000  
S38  39308775.935   206569014.922        -269.009          42.000  
R11  20757728.380   110923181.676         517.340          50.000  
R 1  20642181.463   110344470.723        -615.082          45.000  
G15  23021396.626   120978348.037        2600.422          50.000  
R 8  21160132.195   113311644.928       -3748.112          48.000  
R20  21369144.958   114270491.584        -163.509          38.000  
R21  21350278.925   114249723.652        3075.543          44.000  
R10  21134549.918   112659095.986       -1525.718          43.000  
S20  37795921.700   198618919.024        -198.660          41.000  
> 2017 11 25 12 49 13.3989999  0 19                     
G 5  23695695.202   124521752.941       -2600.934          39.000  
G 7  24229530.937   127327070.240       -2596.224          43.000  
G13  20692039.583   108737568.123        1176.910          45.000  
R12  23691112.436   126553670.167        1751.214          36.000  
G17  20784275.397   109222294.258        1740.236          51.000  
G19  21948651.401   115341054.092        2422.272          45.000  
G20  24416956.885   128312137.664       -1042.337          39.000  
G28  20487456.791   107662468.915       -2419.537          49.000  
G30  21913416.829   115155937.369       -1769.126          45.000  
R 2  23580119.687   125828028.407        2840.527          36.000  
S38  39308786.196   206569068.726        -268.958          42.000  
R11  20757708.941   110923078.198         517.543          50.000  
R 1  20642204.428   110344593.747        -615.118          45.000  
G15  23021297.579   120977827.956        2600.444          49.000  
R 8  21160272.111   113312394.547       -3747.865          48.000  
R20  21369151.170   114270524.428        -164.098          39.000  
R21  21350164.033   114249108.503        3075.993          44.000  
R10  21134607.085   112659401.082       -1525.383          42.000  
S20  37795929.238   198618958.727        -198.475          41.000  
> 2017 11 25 12 49 13.5989999  0 19                     
G 5  23695794.214   124522273.249       -2601.244          39.000  
G 7  24229629.670   127327589.476       -2596.173          43.000  
G13  20691994.736   108737332.832        1176.480          45.000  
R12  23691046.684   126553319.972        1751.509          36.000  
G17  20784209.051   109221946.289        1739.933          51.000  
G19  21948559.159   115340569.690        2422.058          45.000  
G20  24416996.601   128312346.163       -1042.870          39.000  
G28  20487548.928   107662952.816       -2419.275          48.000  
G30  21913483.977   115156291.275       -1769.576          45.000  
R 2  23580013.171   125827460.348        2840.222          37.000  
S38  39308796.387   206569122.537        -268.883          42.000  
R11  20757689.606   110922974.718         517.561          49.000  
R 1  20642227.427   110344716.817        -615.411          45.000  
G15  23021198.462   120977307.888        2600.490          49.000  
R 8  21160412.096   113313144.187       -3748.153          48.000  
R20  21369157.278   114270557.272        -164.443          39.000  
R21  21350049.140   114248493.402        3075.696          44.000  
R10  21134664.322   112659706.213       -1525.364          42.000  
S20  37795936.847   198618998.415        -198.543          41.000  
> 2017 11 25 12 49 13.7989999  0 19                     
G 5  23695892.982   124522793.614       -2601.597          37.000  
G 7  24229728.473   127328108.752       -2596.362          42.000  
G13  20691949.924   108737097.550        1176.253          45.000  
R12  23690980.827   126552969.777        1750.947          36.000  
G17  20784142.915   109221598.355        1739.540          52.000  
G19  21948466.883   115340085.323        2421.752          44.000  
G20  24417036.213   128312554.667       -1042.942          39.000  
G28  20487640.925   107663436.760       -2419.739          48.000  
G30  21913551.510   115156645.195       -1769.537          45.000  
R 2  23579906.760   125826892.339        2839.734          37.000  
S38  39308806.717   206569176.376        -269.311          42.000  
R11  20757670.341   110922871.259         517.278          49.000  
R 1  20642250.426   110344839.932        -615.796          45.000  
G15  23021099.449   120976787.846        2600.103          49.000  
R 8  21160552.047   113313893.839       -3748.461          48.000  
R20  21369163.420   114270590.155        -164.492          39.000  
R21  21349934.178   114247878.316        3075.362          44.000  
R10  21134721.558   112660011.353       -1525.815          42.000  
S20  37795944.385   198619038.085        -198.508          41.000  
> 2017 11 25 12 49 13.9989999  0 19                     
G 5  23695991.960   124523313.964       -2601.910          37.000  
G 7  24229827.067   127328628.012       -2596.426          42.000  
G13  20691905.042   108736862.275        1176.195          45.000  
R12  23690915.179   126552619.555        1750.458          35.000  
G17  20784076.848   109221250.425        1739.333          52.000  
G19  21948374.711   115339600.941        2421.570          45.000  
G20  24417075.895   128312763.210       -1042.924          39.000  
G28  20487733.027   107663920.694       -2419.714          48.000  
G30  21913618.972   115156999.094       -1769.762          46.000  
R 2  23579800.209   125826324.284        2840.057          37.000  
S38  39308817.153   206569230.199        -269.516          42.000  
R11  20757650.901   110922767.770         517.110          49.000  
R 1  20642273.496   110344963.046        -616.028          45.000  
G15  23021000.611   120976267.772        2600.084          49.000  
R 8  21160692.068   113314643.498       -3748.574          48.000  
R20  21369169.458   114270623.041        -164.752          39.000  
R21  21349819.251   114247263.201        3075.141          44.000  
R10  21134778.795   112660316.466       -1525.812          42.000  
S20  37795951.959   198619077.753        -198.664          41.000  
> 2017 11 25 12 49 14.1989999  0 19                     
G 5  23696090.798   124523834.300       -2601.967          38.000  
G 7  24229925.765   127329147.247       -2595.968          42.000  
G13  20691860.370   108736627.002        1176.553          44.000  
R12  23690849.392   126552269.238        1751.707          35.000  
G17  20784010.537   109220902.485        1739.817          51.000  
G19  21948282.504   115339116.565        2422.122          45.000  
G20  24417115.542   128312971.713       -1042.450          39.000  
G28  20487824.920   107664404.618       -2419.519          49.000  
G30  21913686.365   115157352.972       -1769.272          45.000  
R 2  23579693.797   125825756.247        2840.173          37.000  
S38  39308827.274   206569283.974        -268.769          42.000  
R11  20757631.497   110922664.276         517.594          49.000  
R 1  20642296.460   110345086.176        -615.521          45.000  
G15  23020901.703   120975747.710        2600.566          50.000  
R 8  21160831.844   113315393.137       -3748.119          48.000  
R20  21369175.496   114270655.953        -164.458          39.000  
R21  21349704.359   114246648.111        3075.614          44.000  
R10  21134836.032   112660621.565       -1525.294          43.000  
S20  37795959.392   198619117.370        -197.789          41.000  
> 2017 11 25 12 49 14.3989999  0 19                     
G 5  23696189.636   124524354.572       -2601.549          38.000  
G 7  24230024.324   127329666.462       -2596.398          43.000  
G13  20691815.383   108736391.738        1176.165          44.000  
R12  23690783.814   126551918.966        1751.135          35.000  
G17  20783944.331   109220554.560        1739.383          51.000  
G19  21948190.297   115338632.189        2421.896          45.000  
G20  24417155.154   128313180.196       -1042.448          39.000  
G28  20487916.778   107664888.535       -2419.824          49.000  
G30  21913753.723   115157706.864       -1769.678          45.000  
R 2  23579587.421   125825188.198        2840.277          37.000  
S38  39308837.604   206569337.768        -268.848          42.000  
R11  20757612.127   110922560.760         517.307          49.000  
R 1  20642319.634   110345209.337        -616.156          45.000  
G15  23020802.865   120975227.635        2600.120          50.000  
R 8  21160971.795   113316142.790       -3748.413          48.000  
R20  21369181.708   114270688.882        -164.922          39.000  
R21  21349589.467   114246033.006        3075.285          44.000  
R10  21134893.303   112660926.630       -1525.588          43.000  
S20  37795966.931   198619157.007        -198.195          41.000  
> 2017 11 25 12 49 14.5989999  0 19                     
G 5  23696288.614   124524874.905       -2601.605          38.000  
G 7  24230123.057   127330185.708       -2596.237          43.000  
G13  20691770.466   108736156.508        1176.119          44.000  
R12  23690718.306   126551568.686        1751.690          35.000  
G17  20783877.985   109220206.664        1739.530          51.000  
G19  21948098.090   115338147.833        2421.865          45.000  
G20  24417194.871   128313388.739       -1042.336          39.000  
G28  20488008.881   107665372.466       -2419.598          49.000  
G30  21913821.185   115158060.756       -1769.399          45.000  
R 2  23579480.870   125824620.218        2839.703          37.000  
S38  39308847.830   206569391.546        -268.550          42.000  
R11  20757592.722   110922457.247         517.721          49.000  
R 1  20642342.703   110345332.504        -615.765          46.000  
G15  23020703.818   120974707.583        2600.244          49.000  
R 8  21161111.676   113316892.468       -3748.320          48.000  
R20  21369187.990   114270721.837        -164.475          39.000  
R21  21349474.575   114245417.923        3075.431          44.000  
R10  21134950.540   112661231.709       -1525.316          43.000  
S20  37795974.469   198619196.642        -197.976          41.000  
> 2017 11 25 12 49 14.7989999  0 19                     
G 5  23696387.522   124525395.210       -2601.565          38.000  
G 7  24230221.930   127330704.953       -2596.140          43.000  
G13  20691725.619   108735921.295        1175.989          44.000  
R12  23690652.553   126551218.468        1750.879          35.000  
G17  20783811.779   109219858.808        1739.226          51.000  
G19  21948005.918   115337663.494        2421.673          45.000  
G20  24417234.518   128313597.312       -1042.753          39.000  
G28  20488100.808   107665856.430       -2419.617          49.000  
G30  21913888.613   115158414.666       -1769.414          45.000  
R 2  23579374.389   125824052.227        2839.691          36.000  
S38  39308858.021   206569445.366        -269.278          42.000  
R11  20757573.318   110922353.767         517.521          49.000  
R 1  20642365.737   110345455.756        -616.205          46.000  
G15  23020604.840   120974187.564        2600.148          49.000  
R 8  21161251.836   113317642.186       -3748.722          48.000  
R20  21369194.237   114270754.875        -164.900          37.000  
R21  21349359.717   114244802.879        3075.118          44.000  
R10  21135007.777   112661536.810       -1525.438          43.000  
S20  37795982.182   198619236.275        -198.118          41.000  
> 2017 11 25 12 49 14.9989999  0 19                     
G 5  23696486.499   124525915.519       -2601.781          38.000  
G 7  24230320.733   127331224.168       -2595.929          43.000  
G13  20691680.702   108735686.064        1176.400          44.000  
R12  23690586.940   126550868.163        1751.344          35.000  
G17  20783745.503   109219510.935        1739.362          50.000  
G19  21947913.850   115337179.140        2421.738          45.000  
G20  24417274.339   128313805.845       -1042.820          39.000  
G28  20488192.980   107666340.376       -2419.745          49.000  
G30  21913956.006   115158768.554       -1769.203          45.000  
R 2  23579267.942   125823484.247        2839.941          36.000  
S38  39308868.142   206569499.138        -268.649          42.000  
R11  20757553.808   110922250.259         517.598          49.000  
R 1  20642388.841   110345578.994        -616.217          46.000  
G15  23020505.793   120973667.518        2600.237          49.000  
R 8  21161391.856   113318391.871       -3748.399          48.000  
R20  21369200.310   114270787.899        -165.384          38.000  
R21  21349244.895   114244187.808        3075.479          44.000  
R10  21135064.979   112661841.878       -1525.250          43.000  
S20  37795989.581   198619275.876        -197.981          41.000  
> 2017 11 25 12 49 15.1989999  0 19                     
G 5  23696585.477   124526435.797       -2601.668          38.000  
G 7  24230419.571   127331743.383       -2595.940          43.000  
G13  20691635.890   108735450.862        1175.911          43.000  
R12  23690521.327   126550517.894        1751.214          35.000  
G17  20783679.158   109219163.082        1739.119          50.000  
G19  21947821.713   115336694.784        2421.708          45.000  
G20  24417314.126   128314014.381       -1042.708          39.000  
G28  20488285.048   107666824.323       -2419.806          49.000  
G30  21914023.329   115159122.444       -1769.415          45.000  
R 2  23579161.426   125822916.289        2839.502          36.000  
S38  39308878.228   206569552.931        -268.844          42.000  
R11  20757534.578   110922146.740         517.568          49.000  
R 1  20642411.946   110345702.259        -616.357          46.000  
G15  23020406.745   120973147.482        2600.096          49.000  
R 8  21161531.807   113319141.579       -3748.510          48.000  
R20  21369206.418   114270820.924        -165.215          38.000  
R21  21349130.037   114243572.743        3075.171          44.000  
R10  21135122.285   112662146.932       -1525.245          43.000  
S20  37795997.050   198619315.458        -197.707          41.000  
> 2017 11 25 12 49 15.3989999  0 19                     
G 5  23696684.420   124526956.086       -2601.441          38.000  
G 7  24230518.409   127332262.595       -2596.213          44.000  
G13  20691591.113   108735215.656        1175.955          43.000  
R12  23690455.645   126550167.593        1751.280          35.000  
G17  20783613.021   109218815.230        1739.071          50.000  
G19  21947729.436   115336210.433        2421.539          45.000  
G20  24417353.947   128314222.947       -1043.046          39.000  
G28  20488377.115   107667308.275       -2419.958          49.000  
G30  21914090.617   115159476.326       -1769.406          45.000  
R 2  23579054.980   125822348.310        2839.734          36.000  
S38  39308888.315   206569606.699        -268.786          42.000  
R11  20757515.209   110922043.221         517.556          49.000  
R 1  20642435.085   110345825.543        -616.736          46.000  
G15  23020307.733   120972627.438        2599.999          49.000  
R 8  21161671.758   113319891.287       -3748.589          48.000  
R20  21369212.630   114270854.005        -165.654          38.000  
R21  21349015.110   114242957.693        3075.104          44.000  
R10  21135179.382   112662451.965       -1525.083          43.000  
S20  37796004.623   198619355.032        -197.778          41.000  
> 2017 11 25 12 49 15.5989999  0 19                     
G 5  23696783.432   124527476.388       -2601.273          38.000  
G 7  24230617.073   127332781.821       -2595.842          42.000  
G13  20691546.196   108734980.480        1176.026          42.000  
R12  23690390.102   126549817.274        1752.271          35.000  
G17  20783546.885   109218467.430        1738.996          49.000  
G19  21947637.195   115335726.126        2421.589          43.000  
G20  24417393.559   128314431.528       -1043.069          37.000  
G28  20488469.182   107667792.245       -2419.720          47.000  
G30  21914157.975   115159830.254       -1769.614          43.000  
R 2  23578948.499   125821780.385        2839.844          36.000  
S38  39308898.506   206569660.504        -268.847          40.000  
R11  20757495.839   110921939.733         517.609          49.000  
R 1  20642458.224   110345948.894        -616.711          46.000  
G15  23020208.720   120972107.431        2600.124          48.000  
R 8  21161811.604   113320641.037       -3748.667          48.000  
R20  21369218.877   114270887.114        -165.418          38.000  
R21  21348900.323   114242342.691        3075.015          44.000  
R10  21135236.619   112662757.032       -1525.085          43.000  
S20  37796012.267   198619394.616        -197.671          39.000  
> 2017 11 25 12 49 15.7989999  0 19                     
G 5  23696882.480   124527996.718       -2601.768          38.000  
G 7  24230715.771   127333301.070       -2596.345          41.000  
G13  20691501.384   108734745.336        1175.681          42.000  
R12  23690324.629   126549467.045        1751.136          35.000  
G17  20783480.679   109218119.642        1738.901          49.000  
G19  21947545.162   115335241.809        2421.483          43.000  
G20  24417433.241   128314640.102       -1042.935          37.000  
G28  20488561.110   107668276.224       -2419.775          47.000  
G30  21914225.332   115160184.153       -1769.574          43.000  
R 2  23578841.947   125821212.477        2839.911          33.000  
S38  39308908.662   206569714.294        -268.943          40.000  
R11  20757476.399   110921836.233         517.463          48.000  
R 1  20642481.328   110346072.249        -616.834          45.000  
G15  23020109.812   120971587.439        2600.000          48.000  
R 8  21161951.590   113321390.783       -3748.767          46.000  
R20  21369225.054   114270920.265        -165.980          36.000  
R21  21348785.465   114241727.689        3074.866          43.000  
R10  21135293.925   112663062.109       -1525.304          41.000  
S20  37796019.700   198619434.195        -197.765          39.000  
> 2017 11 25 12 49 15.9989999  0 19                     
G 5  23696981.353   124528516.986       -2601.434          38.000  
G 7  24230814.505   127333820.278       -2596.128          41.000  
G13  20691456.641   108734510.195        1175.725          42.000  
R12  23690259.016   126549116.699        1751.834          35.000  
G17  20783414.577   109217771.850        1738.925          49.000  
G19  21947453.025   115334757.495        2421.527          43.000  
G20  24417472.992   128314848.685       -1042.596          37.000  
G28  20488653.108   107668760.199       -2419.946          47.000  
G30  21914292.655   115160538.035       -1769.451          43.000  
R 2  23578735.536   125820644.562        2839.850          33.000  
S38  39308918.818   206569768.062        -268.947          40.000  
R11  20757456.960   110921732.716         517.657          49.000  
R 1  20642504.327   110346195.635        -616.791          46.000  
G15  23020010.974   120971067.439        2599.874          48.000  
R 8  21162091.540   113322140.538       -3748.697          48.000  
R20  21369231.162   114270953.439        -165.726          36.000  
R21  21348670.573   114241112.666        3075.138          44.000  
R10  21135351.162   112663367.129       -1524.902          43.000  
S20  37796027.204   198619473.745        -197.399          39.000  
> 2017 11 25 12 49 16.1989999  0 19                     
G 5  23697080.400   124529037.266       -2601.077          37.000  
G 7  24230913.133   127334339.505       -2595.846          41.000  
G13  20691411.899   108734275.085        1175.781          43.000  
R12  23690193.508   126548766.427        1751.719          35.000  
G17  20783348.406   109217424.124        1738.898          49.000  
G19  21947360.853   115334273.216        2421.824          43.000  
G20  24417512.709   128315057.309       -1043.222          37.000  
G28  20488745.175   107669244.211       -2419.806          46.000  
G30  21914360.013   115160891.967       -1769.408          43.000  
R 2  23578629.020   125820076.672        2839.844          34.000  
S38  39308929.078   206569821.844        -268.487          40.000  
R11  20757437.415   110921629.245         517.570          49.000  
R 1  20642527.361   110346319.095        -617.072          46.000  
G15  23019912.032   120970547.487        2600.148          48.000  
R 8  21162231.561   113322890.337       -3748.647          48.000  
R20  21369237.444   114270986.671        -166.038          38.000  
R21  21348555.681   114240497.721        3075.017          44.000  
R10  21135408.504   112663672.209       -1524.921          43.000  
S20  37796034.812   198619513.322        -197.391          39.000  
> 2017 11 25 12 49 16.3989999  0 19                     
G 5  23697179.343   124529557.549       -2600.913          38.000  
G 7  24231011.867   127334858.706       -2595.759          43.000  
G13  20691367.227   108734039.964        1175.797          44.000  
R12  23690127.930   126548416.103        1752.275          35.000  
G17  20783282.060   109217076.365        1738.834          51.000  
G19  21947268.506   115333788.922        2421.547          45.000  
G20  24417552.286   128315265.902       -1042.921          37.000  
G28  20488837.277   107669728.193       -2419.763          48.000  
G30  21914427.231   115161245.860       -1769.300          45.000  
R 2  23578522.643   125819508.777        2839.984          34.000  
S38  39308939.339   206569875.580        -268.270          43.000  
R11  20757418.011   110921525.715         517.774          49.000  
R 1  20642550.430   110346442.533        -617.065          46.000  
G15  23019813.054   120970027.491        2600.010          50.000  
R 8  21162371.616   113323640.094       -3748.725          48.000  
R20  21369243.552   114271019.875        -166.032          38.000  
R21  21348440.824   114239882.712        3075.011          45.000  
R10  21135465.636   112663977.237       -1524.957          43.000  
S20  37796042.351   198619552.851        -197.367          40.000  
> 2017 11 25 12 49 16.5989999  0 19                     
G 5  23697278.285   124530077.902       -2601.603          38.000  
G 7  24231110.705   127335377.943       -2596.406          43.000  
G13  20691322.484   108733804.901        1175.375          44.000  
R12  23690062.387   126548065.809        1751.417          35.000  
G17  20783215.819   109216728.671        1738.682          51.000  
G19  21947176.334   115333304.650        2421.295          45.000  
G20  24417591.898   128315474.571       -1043.607          37.000  
G28  20488929.414   107670212.202       -2419.861          48.000  
G30  21914494.589   115161599.769       -1769.533          45.000  
R 2  23578416.232   125818940.971        2839.459          34.000  
S38  39308949.635   206569929.341        -268.544          43.000  
R11  20757398.571   110921422.230         517.541          49.000  
R 1  20642573.465   110346566.015        -617.529          46.000  
G15  23019714.111   120969507.527        2600.010          50.000  
R 8  21162511.637   113324389.910       -3749.019          48.000  
R20  21369249.520   114271053.178        -166.461          39.000  
R21  21348325.897   114239267.735        3074.840          45.000  
R10  21135522.837   112664282.296       -1525.334          43.000  
S20  37796049.819   198619592.371        -197.491          40.000  
> 2017 11 25 12 49 16.7989999  0 19                     
G 5  23697377.193   124530598.187       -2601.708          38.000  
G 7  24231209.333   127335897.149       -2596.005          43.000  
G13  20691277.847   108733569.839        1175.159          44.000  
R12  23689996.704   126547715.472        1751.507          36.000  
G17  20783149.753   109216380.969        1738.373          50.000  
G19  21947084.162   115332820.378        2421.327          45.000  
G20  24417631.685   128315683.172       -1043.114          38.000  
G28  20489021.517   107670696.220       -2420.215          48.000  
G30  21914561.912   115161953.717       -1769.714          45.000  
R 2  23578309.821   125818373.136        2838.843          34.000  
S38  39308959.895   206569983.091        -268.646          43.000  
R11  20757379.132   110921318.720         517.441          49.000  
R 1  20642596.569   110346689.534        -617.767          46.000  
G15  23019615.169   120968987.558        2599.822          49.000  
R 8  21162651.657   113325139.709       -3749.057          48.000  
R20  21369255.697   114271086.439        -166.338          37.000  
R21  21348210.969   114238652.768        3074.571          44.000  
R10  21135580.004   112664587.341       -1525.343          43.000  
S20  37796057.323   198619631.891        -197.794          41.000  
> 2017 11 25 12 49 16.9989999  0 19                     
G 5  23697476.136   124531118.525       -2601.854          38.000  
G 7  24231308.067   127336416.438       -2596.631          43.000  
G13  20691233.104   108733334.831        1174.793          44.000  
R12  23689931.091   126547365.205        1751.037          36.000  
G17  20783083.372   109216033.353        1737.830          50.000  
G19  21946991.990   115332336.186        2420.701          45.000  
G20  24417671.367   128315891.883       -1043.497          38.000  
G28  20489113.584   107671180.297       -2420.599          48.000  
G30  21914629.200   115162307.690       -1770.144          45.000  
R 2  23578203.409   125817805.347        2838.812          34.000  
S38  39308970.296   206570036.871        -269.031          41.000  
R11  20757359.727   110921215.270         517.164          49.000  
R 1  20642619.603   110346813.143        -618.280          46.000  
G15  23019516.191   120968467.655        2599.273          49.000  
R 8  21162791.748   113325889.571       -3749.435          48.000  
R20  21369261.839   114271119.810        -167.153          37.000  
R21  21348096.217   114238037.866        3074.264          44.000  
R10  21135637.276   112664892.435       -1525.773          43.000  
S20  37796064.827   198619671.449        -197.866          41.000  
> 2017 11 25 12 49 17.1989999  0 19                     
G 5  23697575.218   124531638.872       -2601.735          38.000  
G 7  24231406.905   127336935.684       -2596.085          43.000  
G13  20691188.467   108733099.851        1174.993          43.000  
R12  23689865.618   126547014.940        1751.377          36.000  
G17  20783016.992   109215685.733        1738.099          49.000  
G19  21946899.748   115331851.975        2421.108          44.000  
G20  24417710.874   128316100.578       -1043.370          37.000  
G28  20489205.616   107671664.373       -2420.270          48.000  
G30  21914696.453   115162661.665       -1769.891          44.000  
R 2  23578097.102   125817237.549        2839.331          34.000  
S38  39308980.452   206570090.639        -268.678          41.000  
R11  20757340.357   110921111.799         517.495          49.000  
R 1  20642642.742   110346936.740        -618.091          46.000  
G15  23019417.178   120967947.764        2599.644          49.000  
R 8  21162931.629   113326639.439       -3749.041          47.000  
R20  21369267.912   114271153.205        -167.257          37.000  
R21  21347981.255   114237422.983        3074.478          44.000  
R10  21135694.478   112665197.501       -1525.182          43.000  
S20  37796072.365   198619711.020        -197.421          40.000  
> 2017 11 25 12 49 17.3989999  0 19                     
G 5  23697674.336   124532159.258       -2601.948          38.000  
G 7  24231505.638   127337454.971       -2596.799          44.000  
G13  20691143.794   108732864.873        1174.673          44.000  
R12  23689800.075   126546664.692        1751.043          36.000  
G17  20782950.960   109215338.144        1737.952          51.000  
G19  21946807.576   115331367.786        2420.944          45.000  
G20  24417750.556   128316309.323       -1043.694          38.000  
G28  20489297.614   107672148.471       -2420.349          49.000  
G30  21914763.707   115163015.627       -1769.772          44.000  
R 2  23577990.796   125816669.806        2839.050          34.000  
S38  39308990.747   206570144.421        -268.626          41.000  
R11  20757320.918   110921008.350         517.336          49.000  
R 1  20642665.811   110347060.391        -618.317          46.000  
G15  23019318.271   120967427.885        2599.352          50.000  
R 8  21163071.649   113327389.321       -3749.403          47.000  
R20  21369274.020   114271186.633        -167.286          39.000  
R21  21347866.258   114236808.120        3074.097          44.000  
R10  21135751.889   112665502.590       -1525.461          43.000  
S20  37796080.008   198619750.612        -198.037          41.000  
> 2017 11 25 12 49 17.5989999  0 19                     
G 5  23697773.557   124532679.611       -2601.553          38.000  
G 7  24231604.441   127337974.256       -2596.324          43.000  
G13  20691099.052   108732629.948        1174.640          44.000  
R12  23689734.358   126546314.437        1751.132          36.000  
G17  20782884.789   109214990.612        1737.768          51.000  
G19  21946715.404   115330883.647        2420.837          45.000  
G20  24417790.168   128316518.074       -1043.438          38.000  
G28  20489389.681   107672632.611       -2420.569          48.000  
G30  21914831.064   115163369.658       -1769.875          45.000  
R 2  23577884.280   125816102.133        2838.727          34.000  
S38  39309000.799   206570198.248        -268.985          42.000  
R11  20757301.548   110920904.927         517.477          49.000  
R 1  20642689.020   110347184.102        -618.396          46.000  
G15  23019219.328   120966908.036        2599.342          50.000  
R 8  21163211.740   113328139.257       -3749.556          47.000  
R20  21369280.302   114271220.135        -167.358          38.000  
R21  21347751.261   114236193.294        3074.376          44.000  
R10  21135809.161   112665807.669       -1525.141          43.000  
S20  37796087.512   198619790.208        -197.788          41.000  
> 2017 11 25 12 49 17.7989999  0 19                     
G 5  23697872.675   124533200.075       -2602.351          38.000  
G 7  24231703.314   127338493.623       -2596.637          43.000  
G13  20691054.379   108732395.095        1174.387          45.000  
R12  23689668.815   126545964.255        1751.298          36.000  
G17  20782818.862   109214643.165        1737.279          51.000  
G19  21946623.267   115330399.579        2420.353          45.000  
G20  24417829.849   128316726.919       -1043.777          38.000  
G28  20489481.749   107673116.806       -2420.978          49.000  
G30  21914898.597   115163723.741       -1770.293          45.000  
R 2  23577777.868   125815534.481        2839.020          34.000  
S38  39309011.059   206570252.089        -269.188          42.000  
R11  20757282.074   110920801.571         516.996          48.000  
R 1  20642712.124   110347307.902        -618.970          45.000  
G15  23019120.350   120966388.258        2599.020          51.000  
R 8  21163351.690   113328889.259       -3749.816          47.000  
R20  21369286.514   114271253.731        -167.838          38.000  
R21  21347636.543   114235578.541        3074.045          45.000  
R10  21135866.327   112666112.849       -1525.720          43.000  
S20  37796094.981   198619829.891        -198.126          41.000  
> 2017 11 25 12 49 17.9989999  0 19                     
G 5  23697971.827   124533720.487       -2602.349          38.000  
G 7  24231802.187   127339012.982       -2596.998          43.000  
G13  20691009.707   108732160.271        1173.864          45.000  
R12  23689603.167   126545614.049        1750.977          36.000  
G17  20782752.865   109214295.714        1736.925          51.000  
G19  21946531.165   115329915.517        2419.867          45.000  
G20  24417869.531   128316935.769       -1044.430          38.000  
G28  20489573.886   107673600.998       -2421.228          49.000  
G30  21914966.094   115164077.833       -1770.727          45.000  
R 2  23577671.561   125814966.928        2838.086          34.000  
S38  39309021.460   206570305.943        -269.473          42.000  
R11  20757262.669   110920698.198         516.582          48.000  
R 1  20642735.263   110347431.742        -619.525          45.000  
G15  23019021.442   120965868.490        2598.477          51.000  
R 8  21163491.955   113329639.290       -3750.516          47.000  
R20  21369292.691   114271287.344        -168.563          38.000  
R21  21347521.721   114234963.792        3073.442          45.000  
R10  21135923.634   112666418.014       -1526.156          43.000  
S20  37796102.554   198619869.559        -198.875          41.000  
> 2017 11 25 12 49 18.1989999  0 19                     
G 5  23698070.944   124534240.939       -2602.347          39.000  
G 7  24231901.060   127339532.376       -2597.383          43.000  
G13  20690965.208   108731925.483        1173.677          45.000  
R12  23689537.554   126545263.914        1750.047          36.000  
G17  20782686.764   109213948.327        1736.622          51.000  
G19  21946439.028   115329431.496        2419.857          45.000  
G20  24417909.353   128317144.663       -1045.120          38.000  
G28  20489666.058   107674085.252       -2421.527          49.000  
G30  21915033.487   115164431.957       -1771.014          45.000  
R 2  23577565.220   125814399.390        2837.219          33.000  
S38  39309031.895   206570359.821        -269.542          42.000  
R11  20757243.160   110920594.858         516.387          47.000  
R 1  20642758.402   110347555.642        -619.745          45.000  
G15  23018922.500   120965348.765        2598.263          50.000  
R 8  21163631.941   113330389.354       -3750.521          47.000  
R20  21369299.008   114271321.007        -168.869          38.000  
R21  21347406.898   114234349.098        3073.167          45.000  
R10  21135980.906   112666723.217       -1526.356          42.000  
S20  37796109.988   198619909.251        -198.662          41.000  
> 2017 11 25 12 49 18.3989999  0 19                     
G 5  23698170.026   124534761.451       -2602.374          39.000  
G 7  24231999.828   127340051.815       -2597.339          42.000  
G13  20690920.431   108731690.762        1173.580          45.000  
R12  23689471.941   126544913.748        1750.528          36.000  
G17  20782620.732   109213601.004        1736.502          51.000  
G19  21946346.960   115328947.524        2419.696          45.000  
G20  24417949.174   128317353.577       -1044.375          38.000  
G28  20489758.195   107674569.548       -2421.716          49.000  
G30  21915100.915   115164786.112       -1770.752          45.000  
R 2  23577459.053   125813831.875        2837.988          33.000  
S38  39309042.226   206570413.706        -269.402          42.000  
R11  20757223.755   110920491.554         516.533          47.000  
R 1  20642781.716   110347679.616        -620.136          46.000  
G15  23018823.452   120964829.093        2598.276          50.000  
R 8  21163771.961   113331139.485       -3750.886          47.000  
R20  21369305.256   114271354.736        -168.680          38.000  
R21  21347291.971   114233734.442        3073.281          45.000  
R10  21136038.072   112667028.446       -1526.090          43.000  
S20  37796117.596   198619948.994        -199.063          41.000  
> 2017 11 25 12 49 18.5989999  0 19                     
G 5  23698269.109   124535281.997       -2602.931          39.000  
G 7  24232098.596   127340571.286       -2597.405          42.000  
G13  20690875.549   108731456.086        1173.189          46.000  
R12  23689406.433   126544563.646        1750.395          36.000  
G17  20782554.735   109213253.726        1736.178          52.000  
G19  21946255.033   115328463.582        2419.424          45.000  
G20  24417988.995   128317562.564       -1044.693          39.000  
G28  20489850.437   107675053.866       -2421.552          49.000  
G30  21915168.377   115165140.296       -1771.064          46.000  
R 2  23577352.781   125813264.429        2837.805          33.000  
S38  39309052.696   206570467.628        -269.642          43.000  
R11  20757204.281   110920388.271         516.378          48.000  
R 1  20642804.959   110347803.637        -620.172          46.000  
G15  23018724.509   120964309.460        2598.107          49.000  
R 8  21163912.052   113331889.641       -3750.922          47.000  
R20  21369311.573   114271388.535        -169.090          38.000  
R21  21347177.044   114233119.842        3072.928          45.000  
R10  21136095.309   112667333.694       -1526.301          43.000  
S20  37796125.135   198619988.760        -199.071          41.000  
> 2017 11 25 12 49 18.7989999  0 19                     
G 5  23698368.156   124535802.574       -2602.647          39.000  
G 7  24232197.330   127341090.763       -2597.207          41.000  
G13  20690830.946   108731221.374        1173.480          45.000  
R12  23689340.890   126544213.497        1750.956          36.000  
G17  20782488.669   109212906.476        1736.229          51.000  
G19  21946163.105   115327979.683        2419.638          44.000  
G20  24418028.921   128317771.514       -1044.579          38.000  
G28  20489942.679   107675538.137       -2421.234          48.000  
G30  21915235.770   115165494.452       -1770.568          44.000  
R 2  23577246.439   125812696.891        2838.073          33.000  
S38  39309062.887   206570521.542        -269.529          42.000  
R11  20757184.876   110920284.912         517.058          48.000  
R 1  20642828.378   110347927.666        -620.129          46.000  
G15  23018625.497   120963789.766        2598.679          49.000  
R 8  21164052.072   113332639.879       -3751.237          47.000  
R20  21369317.820   114271422.321        -168.929          38.000  
R21  21347062.187   114232505.313        3072.637          45.000  
R10  21136152.511   112667638.898       -1526.088          42.000  
S20  37796132.708   198620028.556        -199.175          41.000  
> 2017 11 25 12 49 18.9989999  0 19                     
G 5  23698467.169   124536323.294       -2603.736          39.000  
G 7  24232296.098   127341610.258       -2597.568          41.000  
G13  20690786.204   108730986.688        1173.298          45.000  
R12  23689275.452   126543863.404        1750.496          36.000  
G17  20782422.428   109212559.300        1735.579          51.000  
G19  21946071.037   115327495.882        2418.731          45.000  
G20  24418068.638   128317980.497       -1044.868          39.000  
G28  20490034.746   107676022.404       -2421.576          48.000  
G30  21915303.058   115165848.613       -1770.879          44.000  
R 2  23577140.028   125812129.416        2837.793          33.000  
S38  39309073.147   206570575.498        -270.024          42.000  
R11  20757165.506   110920181.582         516.610          48.000  
R 1  20642851.726   110348051.759        -620.715          47.000  
G15  23018526.624   120963270.089        2598.470          49.000  
R 8  21164192.267   113333390.180       -3751.875          47.000  
R20  21369323.997   114271456.166        -168.985          39.000  
R21  21346947.329   114231890.845        3071.970          45.000  
R10  21136209.748   112667944.076       -1526.116          42.000  
S20  37796140.351   198620068.410        -199.573          41.000  
> 2017 11 25 12 49 19.1989999  0 19                     
G 5  23698566.600   124536843.978       -2603.278          43.000  
G 7  24232394.901   127342129.704       -2596.899          41.000  
G13  20690741.601   108730751.982        1173.694          46.000  
R12  23689209.979   126543513.311        1750.794          38.000  
G17  20782356.047   109212212.177        1735.773          50.000  
G19  21945978.970   115327012.120        2418.944          45.000  
G20  24418108.460   128318189.517       -1044.927          40.000  
G28  20490126.813   107676506.666       -2420.996          49.000  
G30  21915370.311   115166202.765       -1770.541          44.000  
R 2  23577033.616   125811561.857        2837.775          33.000  
S38  39309083.338   206570629.458        -269.377          41.000  
R11  20757146.102   110920078.204         516.999          48.000  
R 1  20642875.109   110348175.867        -620.428          47.000  
G15  23018427.751   120962750.378        2598.720          49.000  
R 8  21164332.323   113334140.531       -3751.698          47.000  
R20  21369330.523   114271490.042        -169.041          39.000  
R21  21346832.577   114231276.396        3072.355          46.000  
R10  21136266.984   112668249.161       -1525.254          41.000  
S20  37796147.994   198620108.262        -199.339          41.000  
> 2017 11 25 12 49 19.3989999  0 19                     
G 5  23698666.206   124537364.714       -2604.091          42.000  
G 7  24232493.739   127342649.279       -2598.491          42.000  
G13  20690697.208   108730517.386        1172.493          46.000  
R12  23689144.470   126543163.193        1750.405          39.000  
G17  20782289.946   109211865.154        1734.625          51.000  
G19  21945886.798   115326528.501        2417.494          44.000  
G20  24418148.246   128318398.619       -1046.134          40.000  
G28  20490219.055   107676990.954       -2421.759          49.000  
G30  21915437.529   115166557.015       -1771.922          45.000  
R 2  23576927.240   125810994.276        2837.195          33.000  
S38  39309093.529   206570683.478        -270.676          41.000  
R11  20757126.627   110919974.852         516.496          49.000  
R 1  20642898.283   110348300.056        -621.338          45.000  
G15  23018328.948   120962230.684        2598.011          49.000  
R 8  21164472.413   113334891.028       -3752.992          47.000  
R20  21369336.875   114271523.905        -169.729          39.000  
R21  21346717.719   114230662.105        3070.764          45.000  
R10  21136324.116   112668554.329       -1526.277          42.000  
S20  37796155.498   198620148.245        -200.207          41.000  
> 2017 11 25 12 49 19.5989999  0 19                     
G 5  23698765.358   124537885.575       -2604.880          41.000  
G 7  24232592.438   127343168.822       -2597.721          41.000  
G13  20690652.850   108730282.733        1173.300          46.000  
R12  23689078.823   126542812.949        1751.275          39.000  
G17  20782224.019   109211518.124        1735.051          50.000  
G19  21945794.905   115326044.856        2417.805          45.000  
G20  24418188.033   128318607.610       -1044.871          39.000  
G28  20490311.018   107677475.158       -2421.100          48.000  
G30  21915504.957   115166911.212       -1770.761          44.000  
R 2  23576821.038   125810426.794        2838.123          33.000  
S38  39309103.615   206570737.490        -270.135          42.000  
R11  20757107.432   110919871.417         517.053          48.000  
R 1  20642921.143   110348424.225        -621.167          44.000  
G15  23018230.040   120961710.969        2598.676          49.000  
R 8  21164612.364   113335641.517       -3752.576          47.000  
R20  21369343.297   114271557.818        -169.508          39.000  
R21  21346602.827   114230047.818        3071.523          45.000  
R10  21136381.214   112668859.365       -1525.102          42.000  
S20  37796163.036   198620188.215        -199.743          41.000  
> 2017 11 25 12 49 19.7989999  0 19                     
G 5  23698864.755   124538406.405       -2603.736          41.000  
G 7  24232691.380   127343688.468       -2597.620          41.000  
G13  20690608.177   108730048.198        1172.783          46.000  
R12  23689013.140   126542462.959        1750.276          39.000  
G17  20782157.987   109211171.270        1734.431          50.000  
G19  21945702.943   115325561.418        2417.943          44.000  
G20  24418227.889   128318816.722       -1045.810          40.000  
G28  20490403.085   107677959.453       -2421.057          49.000  
G30  21915572.419   115167265.471       -1771.308          44.000  
R 2  23576714.836   125809859.116        2837.500          30.000  
S38  39309113.876   206570791.615        -270.462          42.000  
R11  20757088.202   110919768.035         517.216          49.000  
R 1  20642944.177   110348548.525        -621.246          45.000  
G15  23018131.062   120961191.275        2598.617          49.000  
R 8  21164752.419   113336392.216       -3753.345          46.000  
R20  21369349.719   114271591.818        -169.415          39.000  
R21  21346488.214   114229433.670        3070.427          46.000  
R10  21136438.450   112669164.496       -1525.508          42.000  
S20  37796170.680   198620228.290        -200.490          41.000  
> 2017 11 25 12 49 19.9989999  0 19                     
G 5  23698963.942   124538927.389       -2604.628          39.000  
G 7  24232790.149   127344208.126       -2599.031          41.000  
G13  20690563.504   108729813.626        1172.801          45.000  
R12  23688947.527   126542112.811        1750.998          36.000  
G17  20782092.200   109210824.418        1733.818          51.000  
G19  21945610.980   115325078.018        2415.857          44.000  
G20  24418267.745   128319025.826       -1045.138          40.000  
G28  20490495.188   107678443.709       -2421.490          49.000  
G30  21915639.603   115167619.716       -1771.330          44.000  
R 2  23576607.517   125809291.509        2840.540          30.000  
S38  39309124.102   206570845.768        -270.987          42.000  
R11  20757068.937   110919664.620         517.100          49.000  
R 1  20642967.351   110348672.812        -621.637          45.000  
G15  23018031.945   120960671.573        2598.598          49.000  
R 8  21164892.649   113337142.899       -3754.077          45.000  
R20  21369356.036   114271625.829        -170.558          39.000  
R21  21346373.671   114228819.537        3070.437          46.000  
R10  21136495.827   112669469.559       -1525.625          42.000  
S20  37796178.218   198620268.359        -200.782          41.000  
> 2017 11 25 12 49 20.1989999  0 19                     
G 5  23699063.129   124539448.366       -2605.520          37.000  
G 7  24232889.091   127344727.745       -2597.974          41.000  
G13  20690518.797   108729579.075        1172.427          46.000  
R12  23688882.054   126541762.762        1750.290          38.000  
G17  20782026.378   109210477.675        1733.807          51.000  
G19  21945519.087   115324594.608        2416.687          45.000  
G20  24418307.532   128319234.991       -1046.156          40.000  
G28  20490587.255   107678927.942       -2421.326          49.000  
G30  21915707.030   115167974.023       -1772.089          44.000  
R 2  23576503.514   125808724.0201       2837.329          30.000  
S38  39309134.432   206570899.963        -270.613          42.000  
R11  20757049.672   110919561.195         516.688          49.000  
R 1  20642990.560   110348797.196        -622.168          45.000  
G15  23017933.107   120960151.873        2598.467          49.000  
R 8  21165032.705   113337893.652       -3753.617          42.000  
R20  21369362.283   114271659.827        -170.328          39.000  
R21  21346259.163   114228205.518        3070.363          46.000  
R10  21136552.889   112669774.585       -1525.151          42.000  
S20  37796185.722   198620308.438        -200.686          41.000  
> 2017 11 25 12 49 20.3989999  0 19                     
G 5  23699162.351   124539969.313       -2605.098          37.000  
G 7  24232988.034   127345247.342       -2598.188          41.000  
G13  20690474.439   108729344.532        1172.499          46.000  
R12  23688816.476   126541412.569        1749.840          34.000  
G17  20781960.346   109210130.967        1732.941          51.000  
G19  21945427.124   115324111.318        2416.567          44.000  
G20  24418347.248   128319444.085       -1045.300          39.000  
G28  20490679.427   107679412.175       -2420.782          49.000  
G30  21915774.388   115168328.252       -1770.891          44.000  
R 2  23576396.893   125808156.3061       2837.500          34.000  
S38  39309144.868   206570954.102        -271.063          41.000  
R11  20757030.267   110919457.702         517.492          48.000  
R 1  20643013.838   110348921.540        -621.948          45.000  
G15  23017834.234   120959632.109        2598.540          50.000  
R 8  21165172.865   113338644.402       -3753.435          42.000  
R20  21369368.809   114271693.893        -170.083          39.000  
R21  21346144.584   114227591.541        3069.695          45.000  
R10  21136610.126   112670079.622       -1525.769          42.000  
S20  37796193.260   198620348.584        -200.864          39.000  
> 2017 11 25 12 49 20.5989999  0 19                     
G 5  23699261.538   124540490.295       -2604.049          39.000  
G 7  24233086.872   127345766.964       -2597.523          41.000  
G13  20690429.731   108729109.966        1172.851          45.000  
R12  23688751.003   126541062.431        1752.310          36.000  
G17  20781894.314   109209784.178        1734.089          51.000  
G19  21945335.022   115323627.984        2417.087          44.000  
G20  24418387.105   128319653.286       -1046.126          40.000  
G28  20490771.669   107679896.392       -2420.953          49.000  
G30  21915841.955   115168682.493       -1771.011          45.000  
R 2  23576288.701   125807588.6441       2839.954          33.000  
S38  39309155.024   206571008.198        -270.135          41.000  
R11  20757010.897   110919354.218         518.055          48.000  
R 1  20643037.117   110349045.926        -621.741          45.000  
G15  23017735.361   120959112.349        2598.589          50.000  
R 8  21165313.060   113339395.198       -3753.499          43.000  
R20  21369375.126   114271727.938        -170.188          39.000  
R21  21346029.867   114226977.487        3070.514          43.000  
R10  21136667.188   112670384.527       -1524.657          42.000  
S20  37796200.903   198620388.637        -200.223          39.000  
> 2017 11 25 12 49 20.7989999  0 19                     
G 5  23699360.829   124541011.354       -2604.012          41.000  
G 7  24233185.745   127346286.612       -2598.103          41.000  
G13  20690385.442   108728875.446        1172.689          47.000  
R12  23688685.565   126540712.297        1750.131          36.000  
G17  20781828.178   109209437.487        1733.600          51.000  
G19  21945243.025   115323144.686        2417.030          45.000  
G20  24418426.926   128319862.282       -1044.541          39.000  
G28  20490863.806   107680380.643       -2421.381          49.000  
G30  21915909.348   115169036.760       -1771.833          44.000  
R 2  23576188.363   125807021.218        2837.836          34.000  
S38  39309165.389   206571062.337        -270.717          42.000  
R11  20756991.458   110919250.784         517.423          49.000  
R 1  20643060.256   110349170.319        -622.272          45.000  
G15  23017636.488   120958592.580        2599.081          49.000  
R 8  21165453.185   113340145.990       -3754.431          44.000  
R20  21369381.478   114271762.045        -171.550          39.000  
R21  21345915.149   114226363.415        3070.406          42.000  
R10  21136724.424   112670689.524       -1524.369          42.000  
S20  37796208.547   198620428.723        -200.022          39.000  
> 2017 11 25 12 49 20.9989999  0 19                     
G 5  23699460.296   124541532.398       -2605.451          41.000  
G 7  24233284.688   127346806.244       -2598.512          41.000  
G13  20690340.840   108728640.918        1172.084          46.000  
R12  23688619.882   126540362.234        1750.908          33.000  
G17  20781762.147   109209090.791        1733.169          51.000  
G19  21945151.132   115322661.397        2416.591          45.000  
G20  24418466.643   128320071.569       -1046.243          39.000  
G28  20490955.908   107680864.890       -2421.655          49.000  
G30  21915976.601   115169391.030       -1771.197          44.000  
R 2  23576084.220   125806453.650        2836.938          34.000  
S38  39309175.650   206571116.475        -270.695          43.000  
R11  20756971.948   110919147.298         517.025          49.000  
R 1  20643083.535   110349294.743        -621.954          45.000  
G15  23017537.685   120958072.902        2598.432          50.000  
R 8  21165593.380   113340896.768       -3753.999          46.000  
R20  21369387.900   114271796.129        -170.285          39.000  
R21  21345800.536   114225749.377        3071.245          42.000  
R10  21136781.661   112670994.539       -1524.749          41.000  
S20  37796216.120   198620468.812        -200.552          39.000  
> 2017 11 25 12 49 21.1989999  0 19                     
G 5  23699559.657   124542053.381       -2605.514          41.000  
G 7  24233383.421   127347325.831       -2598.224          39.000  
G13  20690296.272   108728406.429        1172.742          46.000  
R12  23688554.479   126540012.027        1750.669          38.000  
G17  20781696.220   109208744.090        1733.276          51.000  
G19  21945059.134   115322178.122        2415.858          44.000  
G20  24418506.394   128320280.637       -1044.995          39.000  
G28  20491048.045   107681349.098       -2420.673          49.000  
G30  21916043.994   115169745.264       -1771.482          44.000  
R 2  23575976.343   125805886.022        2838.605          34.000  
S38  39309185.806   206571170.587        -270.677          43.000  
R11  20756952.544   110919043.786         517.943          49.000  
R 1  20643106.743   110349419.209        -622.473          46.000  
G15  23017438.812   120957553.177        2598.752          49.000  
R 8  21165733.505   113341647.579       -3754.170          46.000  
R20  21369394.252   114271830.303        -171.066          39.000  
R21  21345685.818   114225135.390        3069.499          42.000  
R10  21136838.968   112671299.522       -1524.719          41.000  
S20  37796223.624   198620508.836        -200.342          39.000  
> 2017 11 25 12 49 21.3989999  0 19                     
G 5  23699658.879   124542574.297       -2606.106          37.000  
G 7  24233482.259   127347845.538       -2598.746          38.000  
G13  20690251.669   108728171.912        1172.357          46.000  
R12  23688488.726   126539661.826        1749.957          38.000  
G17  20781630.223   109208397.405        1733.547          50.000  
G19  21944967.241   115321694.793        2416.071          43.000  
G20  24418546.041   128320489.832       -1045.716          39.000  
G28  20491140.148   107681833.347       -2421.088          49.000  
G30  21916111.317   115170099.506       -1771.246          44.000  
R 2  23575873.421   125805318.544        2838.287          34.000  
S38  39309196.102   206571224.713        -270.519          44.000  
R11  20756933.104   110918940.339         516.780          49.000  
R 1  20643129.952   110349543.680        -622.217          44.000  
G15  23017339.870   120957033.460        2598.259          49.000  
R 8  21165873.770   113342398.410       -3754.521          44.000  
R20  21369400.534   114271864.418        -171.509          40.000  
R21  21345571.170   114224521.350        3070.152          44.000  
R10  21136896.169   112671604.515       -1525.560          41.000  
S20  37796231.162   198620548.859        -199.224          39.000  
> 2017 11 25 12 49 21.5989999  0 19                     
G 5  23699758.066   124543095.118       -2602.627          37.000  
G 7  24233581.097   127348365.040       -2596.565          38.000  
G13  20690207.136   108727937.416        1172.341          46.000  
R12  23688423.148   126539311.625        1752.120          38.000  
G17  20781564.121   109208050.728        1733.170          50.000  
G19  21944875.209   115321211.453        2416.433          43.000  
G20  24418585.723   128320699.003       -1046.318          39.000  
G28  20491232.145   107682317.604       -2421.136          48.000  
G30  21916178.849   115170453.732       -1770.571          45.000  
R 2  23575770.325   125804751.059        2837.390          34.000  
S38  39309206.327   206571278.818        -270.659          43.000  
R11  20756913.560   110918836.820         517.135          49.000  
R 1  20643153.336   110349668.221        -622.803          47.000  
G15  23017241.066   120956513.737        2598.938          49.000  
R 8  21166013.861   113343149.212       -3754.257          44.000  
R20  21369406.816   114271898.561        -170.001          39.000  
R21  21345456.487   114223907.380        3070.019          44.000  
R10  21136953.371   112671909.455       -1525.170          42.000  
S20  37796238.875   198620588.894        -200.033          39.000  
> 2017 11 25 12 49 21.7989999  0 19                     
G 5  23699857.218   124543616.135       -2602.919          37.000  
G 7  24233679.900   127348884.787       -2599.578          40.000  
G13  20690162.394   108727703.011        1172.148          45.000  
R12  23688357.605   126538961.609        1749.467          38.000  
G17  20781498.264   109207704.072        1733.077          51.000  
G19  21944783.072   115320728.137        2416.269          43.000  
G20  24418625.649   128320908.171       -1045.688          39.000  
G28  20491324.143   107682801.887       -2421.356          48.000  
G30  21916246.137   115170808.006       -1771.859          45.000  
R 2  23575662.797   125804183.440        2839.148          30.000  
S38  39309216.658   206571332.956        -270.983          43.000  
R11  20756894.365   110918733.361         517.277          49.000  
R 1  20643176.614   110349792.759        -622.827          45.000  
G15  23017142.368   120955994.106        2597.715          49.000  
R 8  21166153.881   113343900.011       -3753.898          44.000  
R20  21369413.168   114271932.840        -170.954          39.000  
R21  21345341.805   114223293.366        3069.637          45.000  
R10  21137010.573   112672214.418       -1525.211          43.000  
S20  37796246.553   198620628.953        -200.510          41.000  
> 2017 11 25 12 49 21.9989999  0 19                     
G 5  23699956.335   124544137.210       -2604.792          35.000  
G 7  24233778.599   127349404.297       -2597.329          41.000  
G13  20690117.756   108727468.536        1172.406          45.000  
R12  23688291.957   126538611.361        1750.670          36.000  
G17  20781432.337   109207357.489        1732.717          51.000  
G19  21944691.004   115320244.868        2416.522          43.000  
G20  24418665.750   128321117.380       -1046.405          40.000  
G28  20491416.315   107683286.147       -2421.472          49.000  
G30  21916313.391   115171162.262       -1771.205          43.000  
R 2  23575559.247   125803616.1401       2836.603          30.000  
S38  39309227.093   206571387.103        -270.875          43.000  
R11  20756875.065   110918629.851         517.891          49.000  
R 1  20643199.788   110349917.358        -623.322          46.000  
G15  23017043.356   120955474.367        2598.753          49.000  
R 8  21166294.076   113344650.899       -3755.047          44.000  
R20  21369419.520   114271967.087        -171.983          39.000  
R21  21345227.052   114222679.411        3069.838          44.000  
R10  21137067.705   112672519.344       -1524.499          43.000  
S20  37796254.266   198620669.036        -200.784          41.000  
> 2017 11 25 12 49 22.1989999  0 19                     
G 5  23700055.453   124544658.298       -2606.776          35.000  
G 7  24233877.437   127349924.044       -2598.896          41.000  
G13  20690073.153   108727234.144        1172.096          45.000  
R12  23688226.484   126538261.190        1751.745          39.000  
G17  20781366.410   109207010.922        1732.733          50.000  
G19  21944599.077   115319761.678        2416.132          44.000  
G20  24418705.466   128321326.596       -1045.934          39.000  
G28  20491508.522   107683770.392       -2421.442          50.000  
G30  21916380.748   115171516.515       -1770.822          44.000  
R 2  23575452.382   125803048.4801       2837.946          23.000  
S38  39309237.493   206571441.266        -270.574          43.000  
R11  20756855.625   110918526.345         517.761          50.000  
R 1  20643223.067   110350041.971        -623.309          45.000  
G15  23016944.343   120954954.718        2598.828          49.000  
R 8  21166434.306   113345401.841       -3755.306          44.000  
R20  21369425.837   114272001.332        -171.295          39.000  
R21  21345112.195   114222065.532        3069.882          44.000  
R10  21137124.872   112672824.239       -1523.840          42.000  
S20  37796261.840   198620709.119        -199.990          41.000  
> 2017 11 25 12 49 22.3989999  0 19                     
G 5  23700154.570   124545179.157       -2605.292          35.000  
G 7  24233976.275   127350443.511       -2596.948          41.000  
G13  20690028.551   108726999.696        1171.988          46.000  
R12  23688160.976   126537911.059        1750.293          37.000  
G17  20781300.239   109206664.303        1733.568          50.000  
G19  21944507.219   115319278.424        2416.570          44.000  
G20  24418745.393   128321535.731       -1045.709          39.000  
G28  20491600.694   107684254.618       -2421.124          48.000  
G30  21916448.176   115171870.769       -1771.630          44.000  
R 2  23575347.227                1       2836.216          23.000  
S38  39309247.894   206571495.323        -270.455          43.000  
R11  20756836.221   110918422.745         518.195          49.000  
R 1  20643246.310   110350166.543        -622.614          45.000  
G15  23016845.470   120954434.984        2598.418          50.000  
R 8  21166574.327   113346152.667       -3754.149          44.000  
R20  21369432.049   114272035.576        -170.521          37.000  
R21  21344997.512   114221451.576        3069.686          43.000  
R10  21137182.074   112673129.137       -1523.929          42.000  
S20  37796269.448   198620749.169        -199.505          39.000  
> 2017 11 25 12 49 22.5989999  0 19                     
G 5  23700253.548   124545700.100       -2604.721          36.000  
G 7  24234075.043   127350963.211       -2598.361          40.000  
G13  20689984.053   108726765.251        1172.365          46.000  
R12  23688095.433   126537560.731        1751.382          38.000  
G17  20781234.208   109206317.752        1732.543          50.000  
G19  21944415.117   115318795.166        2416.623          44.000  
G20  24418785.109   128321745.006       -1046.481          39.000  
G28  20491692.936   107684738.936       -2421.436          48.000  
G30  21916515.499   115172224.962       -1770.448          43.000  
R 2  23575242.247                1       2836.855          24.000  
S38  39309258.085   206571549.438        -270.169          43.000  
R11  20756816.956   110918319.240         518.252          49.000  
R 1  20643269.519   110350291.194        -623.633          45.000  
G15  23016746.667   120953915.298        2598.786          50.000  
R 8  21166714.522   113346903.556       -3754.041          44.000  
R20  21369438.366   114272069.950        -171.604          39.000  
R21  21344882.829   114220837.625        3069.057          43.000  
R10  21137239.171   112673434.079       -1523.713          42.000  
S20  37796277.161   198620789.257        -200.423          39.000  
> 2017 11 25 12 49 22.7989999  0 19                     
G 5  23700352.700   124546220.937       -2603.934          38.000  
G 7  24234174.021   127351482.768       -2597.677          41.000  
G13  20689939.485   108726530.883        1171.827          45.000  
R12  23688029.890   126537210.566        1750.934          35.000  
G17  20781168.350   109205971.177        1732.597          50.000  
G19  21944323.154   115318311.908        2416.202          44.000  
G20  24418824.896   128321954.166       -1045.787          39.000  
G28  20491785.108   107685223.183       -2421.130          49.000  
G30  21916582.822   115172579.274       -1771.445          44.000  
R 2  23575135.905                1       2840.964          24.000  
S38  39309268.276   206571603.479        -270.594          43.000  
R11  20756797.446   110918215.719         517.828          48.000  
R 1  20643292.693   110350415.865        -622.986          45.000  
G15  23016647.899   120953395.623        2598.314          51.000  
R 8  21166854.822   113347654.430       -3754.312          44.000  
R20  21369444.718   114272104.275        -171.646          39.000  
R21  21344768.146   114220223.639        3069.760          44.000  
R10  21137296.338   112673739.018       -1524.467          42.000  
S20  37796284.769   198620829.257        -200.171          39.000  
> 2017 11 25 12 49 22.9989999  0 19                     
G 5  23700451.817   124546741.976       -2604.070          38.000  
G 7  24234272.614   127352002.259       -2597.079          41.000  
G13  20689894.672   108726296.422        1172.174          46.000  
R12  23687964.417   126536860.332        1751.374          38.000  
G17  20781102.319   109205624.597        1733.134          51.000  
G19  21944231.121   115317828.616        2416.630          44.000  
G20  24418864.612   128322163.322       -1045.866          38.000  
G28  20491877.419   107685707.351       -2420.776          49.000  
G30  21916649.970   115172933.406       -1770.719          44.000  
R 2  23575026.073                1       2834.583          24.000  
S38  39309278.467   206571657.505        -270.038          42.000  
R11  20756777.937   110918112.108         517.853          48.000  
R 1  20643316.076   110350540.474        -623.315          45.000  
G15  23016549.096   120952875.854        2598.582          51.000  
R 8  21166994.912   113348405.351       -3754.193          44.000  
R20  21369451.070   114272138.600        -170.762          39.000  
R21  21344653.533   114219609.710        3070.059          44.000  
R10  21137353.470   112674043.796       -1523.865          42.000  
S20  37796292.273   198620869.226        -199.700          39.000  
> 2017 11 25 12 49 23.1989999  0 19                     
G 5  23700550.864   124547262.980       -2604.363          40.000  
G 7  24234371.627   127352521.868       -2598.560          42.000  
G13  20689850.105   108726062.055        1171.360          46.000  
R12  23687898.909   126536510.031        1750.555          38.000  
G17  20781036.217   109205278.067        1732.863          50.000  
G19  21944139.194   115317345.394        2416.765          44.000  
G20  24418904.399   128322372.551       -1046.079          38.000  
G28  20491969.731   107686191.628       -2421.674          50.000  
G30  21916717.538   115173287.638       -1771.047          45.000  
R 2  23574928.003                1       2836.176          25.000  
S38  39309288.797   206571711.636        -270.653          42.000  
R11  20756758.288   110918008.573         517.043          47.000  
R 1  20643339.425   110350665.247        -623.883          46.000  
G15  23016450.223   120952356.174        2597.851          51.000  
R 8  21167135.107   113349156.244       -3754.300          44.000  
R20  21369457.421   114272172.977        -172.886          38.000  
R21  21344538.920   114218995.790        3069.275          46.000  
R10  21137410.672   112674348.708       -1525.067          42.000  
S20  37796299.811   198620909.245        -199.869          39.000  
> 2017 11 25 12 49 23.3989999  0 19                     
G 5  23700649.877   124547783.936       -2605.096          38.000  
G 7  24234470.430   127353041.425       -2597.000          41.000  
G13  20689805.397   108725827.709        1171.436          45.000  
R12  23687833.331   126536159.903        1751.082          37.000  
G17  20780970.395   109204931.553        1732.330          50.000  
G19  21944047.057   115316862.156        2416.334          43.000  
G20  24418944.395   128322581.777       -1045.989          38.000  
G28  20492061.903   107686675.908       -2421.503          49.000  
G30  21916784.965   115173641.921       -1771.453          44.000  
R 2  23574823.337                1       2836.384          25.000  
S38  39309299.128   206571765.637        -270.411          42.000  
R11  20756738.813   110917905.024         517.674          48.000  
R 1  20643362.878   110350789.962        -623.535          47.000  
G15  23016351.210   120951836.513        2598.401          50.000  
R 8  21167275.407   113349907.165       -3754.602          44.000  
R20  21369463.878   114272207.413        -172.121          38.000  
R21  21344424.098   114218381.866        3069.913          46.000  
R10  21137467.874   112674653.597       -1524.851          42.000  
S20  37796307.315   198620949.257        -200.062          39.000  
> 2017 11 25 12 49 23.5989999  0 19                     
G 5  23700749.064   124548304.823       -2605.262          36.000  
G 7  24234569.338   127353561.039       -2598.571          42.000  
G13  20689760.794   108725593.408        1171.743          45.000  
R12  23687767.893   126535809.603        1751.248          37.000  
G17  20780904.538   109204585.034        1732.601          51.000  
G19  21943955.059   115316378.873        2416.191          44.000  
G20  24418984.146   128322791.078       -1046.376          38.000  
G28  20492154.005   107687160.299       -2421.893          49.000  
G30  21916852.323   115173996.156       -1771.079          44.000  
R 2  23574720.834                1       2835.584          26.000  
S38  39309309.563   206571819.718        -269.891          43.000  
R11  20756719.479   110917801.575         517.323          49.000  
R 1  20643386.121   110350914.793        -624.683          45.000  
G15  23016252.337   120951316.957        2597.517          49.000  
R 8  21167415.706   113350658.057       -3754.663          44.000  
R20  21369470.300   114272241.892        -172.380          38.000  
R21  21344309.310   114217767.973        3069.638          46.000  
R10  21137525.075   112674958.580       -1524.792          42.000  
S20  37796314.818   198620989.244        -199.998          39.000  
> 2017 11 25 12 49 23.7989999  0 19                     
G 5  23700848.146   124548825.842       -2605.407          36.000  
G 7  24234668.141   127354080.725       -2598.082          42.000  
G13  20689716.192   108725359.110        1171.028          46.000  
R12  23687702.315   126535459.360        1752.052          37.000  
G17  20780838.646   109204238.631        1732.241          51.000  
G19  21943863.131   115315895.733        2415.614          45.000  
G20  24419023.828   128323000.339       -1045.922          38.000  
G28  20492246.107   107687644.655       -2421.698          49.000  
G30  21916919.786   115174350.514       -1771.903          44.000  
R 2  23574617.040                1       2833.203          26.000  
S38  39309319.824   206571873.786        -270.023          43.000  
R11  20756700.004   110917698.064         517.989          49.000  
R 1  20643409.470   110351039.652        -623.846          45.000  
G15  23016153.394   120950797.331        2598.055          49.000  
R 8  21167556.006   113351409.012       -3754.647          44.000  
R20  21369476.721   114272276.447        -173.009          38.000  
R21  21344194.837   114217154.186        3068.422          46.000  
R10  21137582.172   112675263.538       -1524.657          40.000  
S20  37796322.531   198621029.270        -200.122          39.000  
> 2017 11 25 12 49 23.9989999  0 19                     
G 5  23700947.473   124549346.726       -2604.105          39.000  
G 7  24234766.944   127354600.332       -2598.092          42.000  
G13  20689671.519   108725124.824        1171.749          44.000  
R12  23687636.737   126535109.166        1750.690          37.000  
G17  20780772.789   109203892.224        1731.660          51.000  
G19  21943771.238   115315412.583        2415.391          45.000  
G20  24419063.684   128323209.675       -1047.070          38.000  
G28  20492338.280   107688129.038       -2421.960          49.000  
G30  21916987.074   115174704.799       -1771.135          44.000  
R 2  23574508.395                1       2837.296          26.000  
S38  39309330.189   206571927.816        -270.760          43.000  
R11  20756680.600   110917594.610         516.951          50.000  
R 1  20643432.958   110351164.485        -624.408          46.000  
G15  23016054.277   120950277.733        2597.705          48.000  
R 8  21167696.271   113352159.962       -3754.623          44.000  
R20  21369483.143   114272311.053        -173.227          38.000  
R21  21344080.224   114216540.332        3069.016          45.000  
R10  21137639.235   112675568.476       -1524.215          42.000  
S20  37796330.070   198621069.277        -199.853          39.000  
> 2017 11 25 12 49 24.1989999  0 19                     
G 5  23701046.660   124549867.752       -2603.659          39.000  
G 7  24234865.852   127355120.030       -2598.495          40.000  
G13  20689626.986   108724890.584        1171.084          46.000  
R12  23687571.194   126534758.995        1750.006          34.000  
G17  20780706.967   109203545.837        1731.585          51.000  
G19  21943679.415   115314929.464        2415.073          45.000  
G20  24419103.541   128323418.965       -1046.559          38.000  
G28  20492430.277   107688613.364       -2421.912          48.000  
G30  21917054.606   115175059.129       -1771.961          44.000  
R 2  23574404.287                1       2835.760          31.000  
S38  39309340.345   206571981.873        -270.033          44.000  
R11  20756661.230   110917491.047         517.231          49.000  
R 1  20643456.132   110351289.397        -624.744          45.000  
G15  23015955.334   120949758.135        2597.730          48.000  
R 8  21167836.431   113352910.991       -3755.579          44.000  
R20  21369489.530   114272345.670        -173.207          38.000  
R21  21343965.401   114215926.552        3069.060          44.000  
R10  21137696.436   112675873.404       -1524.313          42.000  
S20  37796337.643   198621109.313        -200.267          39.000  
> 2017 11 25 12 49 24.3989999  0 19                     
G 5  23701145.812   124550388.806       -2605.969          38.000  
G 7  24234964.620   127355639.598       -2598.323          40.000  
G13  20689582.244   108724656.290        1171.231          45.000  
R12  23687505.616   126534408.712        1751.919          34.000  
G17  20780640.830   109203199.488        1731.495          50.000  
G19  21943587.662   115314446.341        2415.068          45.000  
G20  24419143.257   128323628.211       -1046.429          38.000  
G28  20492522.344   107689097.704       -2421.808          48.000  
G30  21917121.859   115175413.443       -1772.198          43.000  
R 2  23574294.421                1       2837.201          26.000  
S38  39309350.676   206572035.866        -269.942          43.000  
R11  20756641.825   110917387.463         518.137          49.000  
R 1  20643479.375   110351414.266        -624.176          46.000  
G15  23015856.357   120949238.482        2598.279          48.000  
R 8  21167976.696   113353662.023       -3755.828          44.000  
R20  21369496.091   114272380.249        -173.812          40.000  
R21  21343850.718   114215312.751        3068.959          43.000  
R10  21137753.673   112676178.321       -1524.956          43.000  
S20  37796345.252   198621149.354        -200.217          39.000  
> 2017 11 25 12 49 24.5989999  0 19                     
G 5  23701244.929   124550909.727       -2606.219          37.000  
G 7  24235063.563   127356159.336       -2598.280          40.000  
G13  20689537.606   108724422.057        1171.514          46.000  
R12  23687440.143   126534058.493        1750.365          34.000  
G17  20780574.764   109202853.124        1732.405          50.000  
G19  21943495.804   115313963.179        2416.936          45.000  
G20  24419183.114   128323837.556       -1046.198          38.000  
G28  20492614.516   107689582.070       -2421.704          49.000  
G30  21917189.391   115175767.706       -1770.912          44.000  
R 2  23574183.019                1       2837.311          26.000  
S38  39309360.971   206572089.881        -270.077          44.000  
R11  20756622.386   110917283.939         517.520          48.000  
R 1  20643502.828   110351539.229        -624.939          45.000  
G15  23015757.484   120948718.889        2597.943          49.000  
R 8  21168116.891   113354413.041       -3755.062          44.000  
R20  21369502.618   114272414.841        -173.018          39.000  
R21  21343735.966   114214698.919        3069.527          43.000  
R10  21137810.945   112676483.205       -1524.652          43.000  
S20  37796352.895   198621189.348        -199.618          39.000  
> 2017 11 25 12 49 24.7989999  0 19                     
G 5  23701344.151   124551430.707       -2605.026          40.000  
G 7  24235162.471   127356678.924       -2597.976          40.000  
G13  20689493.108   108724187.919        1170.691          46.000  
R12  23687374.879   126533708.290        1751.461          30.000  
G17  20780508.732   109202506.816        1731.154          50.000  
G19  21943403.946   115313480.144        2415.397          45.000  
G20  24419223.040   128324046.903       -1047.374          40.000  
G28  20492706.758   107690066.517       -2422.009          49.000  
G30  21917256.924   115176122.124       -1771.977          44.000  
R 2  23574073.047                1       2837.390          31.000  
S38  39309371.232   206572143.932        -270.212          44.000  
R11  20756603.016   110917180.534         517.154          48.000  
R 1  20643526.142   110351664.268        -625.067          46.000  
G15  23015658.751   120948199.396        2597.723          49.000  
R 8  21168257.051   113355164.079       -3755.585          44.000  
R20  21369509.109   114272449.610        -173.131          39.000  
R21  21343621.388   114214085.170        3068.155          43.000  
R10  21137868.112   112676788.158       -1524.857          42.000  
S20  37796360.398   198621229.375        -200.583          39.000  
> 2017 11 25 12 49 24.9989999  0 19                     
G 5  23701443.513   124551951.771       -2604.304          40.000  
G 7  24235261.414   127357198.679       -2599.071          40.000  
G13  20689448.470   108723953.780        1170.158          45.000  
R12  23687309.789   126533358.160        1751.069          36.000  
G17  20780442.980   109202160.543        1731.495          50.000  
G19  21943312.053   115312997.068        2414.838          44.000  
G20  24419262.826   128324256.286       -1047.029          38.000  
G28  20492799.035   107690550.944       -2422.266          49.000  
G30  21917324.247   115176476.458       -1771.732          44.000  
R 2  23573964.821                1       2835.345          35.000  
S38  39309381.562   206572197.963        -270.497          43.000  
R11  20756583.507   110917077.071         516.495          48.000  
R 1  20643549.455   110351789.314        -625.427          45.000  
G15  23015559.808   120947679.874        2597.257          50.000  
R 8  21168397.037   113355915.143       -3754.758          43.000  
R20  21369515.566   114272484.441        -174.657          38.000  
R21  21343506.635   114213471.447        3068.573          43.000  
R10  21137925.348   112677093.127       -1524.510          42.000  
S20  37796368.042   198621269.391        -200.092          39.000  
> 2017 11 25 12 49 25.1989999  0 19                     
G 5  23701542.874   124552472.926       -2605.043          40.000  
G 7  24235360.286   127357718.290       -2598.186          41.000  
G13  20689403.972   108723719.707        1170.485          45.000  
R12  23687242.257   126533007.915        1750.605          33.000  
G17  20780377.123   109201814.331        1730.745          51.000  
G19  21943220.230   115312514.052        2414.419          44.000  
G20  24419302.683   128324465.791       -1047.651          38.000  
G28  20492891.277   107691035.443       -2422.260          49.000  
G30  21917391.674   115176830.854       -1771.786          44.000  
R 2  23573854.187   125794701.4513       2835.626          37.000  
S38  39309391.893   206572252.123        -270.848          43.000  
R11  20756564.067   110916973.679         517.296          49.000  
R 1  20643572.943   110351914.503        -625.964          46.000  
G15  23015461.005   120947160.449        2597.018          50.000  
R 8  21168537.197   113356666.306       -3756.029          44.000  
R20  21369522.022   114272519.187        -174.379          38.000  
R21  21343391.952   114212857.775        3068.078          44.000  
R10  21137982.480   112677398.132       -1525.093          42.000  
S20  37796375.545   198621309.445        -200.187          39.000  
> 2017 11 25 12 49 25.3989999  0 19                     
G 5  23701641.957   124552994.065       -2606.141          38.000  
G 7  24235459.264   127358238.138       -2598.973          40.000  
G13  20689359.405   108723485.665        1170.292          45.000  
R12  23687180.553   126532657.926        1750.515          33.000  
G17  20780311.300   109201468.169        1731.014          51.000  
G19  21943128.093   115312031.053        2414.981          44.000  
G20  24419342.434   128324675.276       -1047.550          38.000  
G28  20492983.414   107691519.974       -2422.906          49.000  
G30  21917458.893   115177185.283       -1772.318          44.000  
R 2  23573739.260   125794134.3123       2836.054          37.000  
S38  39309402.189   206572306.234        -270.195          43.000  
R11  20756544.732   110916870.305         516.866          49.000  
R 1  20643596.536   110352039.706        -626.032          46.000  
G15  23015362.027   120946640.999        2597.164          49.000  
R 8  21168677.357   113357417.494       -3755.945          44.000  
R20  21369528.479   114272554.106        -174.129          38.000  
R21  21343277.269   114212244.189        3068.022          45.000  
R10  21138039.752   112677703.151       -1524.868          42.000  
S20  37796383.328   198621349.558        -200.305          40.000  
> 2017 11 25 12 49 25.5989999  0 19                     
G 5  23701741.039   124553515.157       -2605.869          38.000  
G 7  24235557.997   127358757.817       -2598.710          39.000  
G13  20689314.662   108723251.683        1169.382          45.000  
R12  23687111.415   126532307.795        1750.189          34.000  
G17  20780245.408   109201122.079        1730.332          50.000  
G19  21943036.026   115311548.170        2414.725          44.000  
G20  24419382.221   128324884.790       -1047.696          39.000  
G28  20493075.726   107692004.507       -2422.675          49.000  
G30  21917526.460   115177539.808       -1772.267          44.000  
R 2  23573628.869   125793567.2122       2835.718          39.000  
S38  39309412.345   206572360.462        -271.152          42.000  
R11  20756525.642   110916766.907         517.341          50.000  
R 1  20643619.885   110352164.995        -626.862          46.000  
G15  23015263.398   120946121.611        2597.335          50.000  
R 8  21168817.552   113358168.794       -3756.323          45.000  
R20  21369535.040   114272589.039        -174.952          38.000  
R21  21343162.587   114211630.668        3067.566          45.000  
R10  21138097.093   112678008.201       -1524.819          42.000  
S20  37796391.181   198621389.742        -201.114          39.000  
> 2017 11 25 12 49 25.7989999  0 19                     
G 5  23701840.261   124554036.340       -2607.221          38.000  
G 7  24235657.010   127359277.667       -2598.705          41.000  
G13  20689270.094   108723017.698        1170.123          45.000  
R12  23687048.246   126531957.695        1751.267          34.000  
G17  20780179.516   109200776.016        1730.283          51.000  
G19  21942944.063   115311065.274        2414.712          44.000  
G20  24419421.903   128325094.368       -1047.528          39.000  
G28  20493167.898   107692489.069       -2422.809          49.000  
G30  21917593.818   115177894.279       -1772.897          44.000  
R 2  23573516.141   125793000.1262       2835.468          39.000  
S38  39309422.605   206572414.630        -270.960          42.000  
R11  20756506.481   110916663.545         516.590          50.000  
R 1  20643643.303   110352290.241        -626.251          46.000  
G15  23015164.421   120945602.253        2596.489          50.000  
R 8  21168957.782   113358920.107       -3756.612          45.000  
R20  21369541.636   114272623.979        -175.189          38.000  
R21  21343047.939   114211017.110        3067.906          45.000  
R10  21138154.330   112678313.253       -1525.616          42.000  
S20  37796398.754   198621429.847        -200.920          39.000  
> 2017 11 25 12 49 25.9989999  0 19                     
G 5  23701939.588   124554557.402       -2606.035          40.000  
G 7  24235755.813   127359797.403       -2598.734          39.000  
G13  20689225.561   108722783.767        1169.876          45.000  
R12  23686984.378   126531607.625        1750.604          38.000  
G17  20780113.904   109200429.954        1730.283          51.000  
G19  21942852.101   115310582.355        2414.561          44.000  
G20  24419462.003   128325303.905       -1047.271          42.000  
G28  20493259.965   107692973.670       -2423.273          49.000  
G30  21917661.245   115178248.722       -1772.168          44.000  
R 2  23573409.695   125792433.0942       2835.175          39.000  
S38  39309432.866   206572468.794        -270.620          41.000  
R11  20756487.216   110916560.204         516.525          49.000  
R 1  20643666.791   110352415.627        -626.843          46.000  
G15  23015065.583   120945082.903        2596.784          49.000  
R 8  21169098.082   113359671.356       -3756.281          45.000  
R20  21369548.197   114272659.026        -174.843          38.000  
R21  21342933.221   114210403.522        3068.327          44.000  
R10  21138211.392   112678618.313       -1525.621          42.000  
S20  37796406.362   198621469.957        -200.502          39.000  
> 2017 11 25 12 49 26.1989999  0 19                     
G 5  23702039.124   124555078.556       -2604.608          40.000  
G 7  24235854.756   127360317.219       -2599.127          42.000  
G13  20689181.063   108722549.889        1169.169          46.000  
R12  23686915.554   126531257.525        1750.129          36.000  
G17  20780047.907   109200083.924        1730.219          50.000  
G19  21942760.208   115310099.444        2414.223          44.000  
G20  24419501.859   128325513.491       -1048.125          40.000  
G28  20493352.242   107693458.300       -2423.395          49.000  
G30  21917728.778   115178603.274       -1772.476          44.000  
R 2  23573301.294   125791866.1152       2834.662          40.000  
S38  39309443.162   206572522.927        -270.524          41.000  
R11  20756467.742   110916456.891         516.597          49.000  
R 1  20643690.104   110352540.998        -626.849          46.000  
G15  23014966.710   120944563.619        2596.541          49.000  
R 8  21169238.347   113360422.652       -3756.420          44.000  
R20  21369554.898   114272694.103        -175.555          38.000  
R21  21342818.713   114209789.986        3067.994          44.000  
R10  21138268.559   112678923.410       -1525.870          42.000  
S20  37796413.901   198621510.096        -200.710          40.000  
> 2017 11 25 12 49 26.3989999  0 19                     
G 5  23702138.311   124555599.811       -2606.326          40.000  
G 7  24235953.664   127360837.049       -2598.983          42.000  
G13  20689136.705   108722315.988        1169.438          46.000  
R12  23686855.037   126530907.534        1750.229          36.000  
G17  20779982.015   109199737.905        1729.860          50.000  
G19  21942668.350   115309616.562        2414.411          45.000  
G20  24419541.646   128325723.125       -1047.838          38.000  
G28  20493444.414   107693942.936       -2422.900          49.000  
G30  21917796.205   115178957.824       -1772.879          44.000  
R 2  23573197.116   125791299.1762       2834.576          42.000  
S38  39309453.283   206572577.054        -270.854          41.000  
R11  20756448.302   110916353.605         516.687          49.000  
R 1  20643713.557   110352666.426        -627.155          46.000  
G15  23014867.802   120944044.334        2596.405          49.000  
R 8  21169378.681   113361173.973       -3757.302          44.000  
R20  21369561.564   114272729.250        -175.874          38.000  
R21  21342704.030   114209176.557        3066.859          44.000  
R10  21138325.831   112679228.489       -1525.105          42.000  
S20  37796421.544   198621550.266        -200.927          40.000  
> 2017 11 25 12 49 26.5989999  0 19                     
G 5  23702237.463   124556120.871       -2605.622          38.000  
G 7  24236052.781   127361356.864       -2599.022          42.000  
G13  20689092.032   108722082.107        1169.648          45.000  
R12  23686788.377   126530557.417        1750.083          36.000  
G17  20779916.193   109199391.921        1730.317          51.000  
G19  21942576.492   115309133.704        2415.349          45.000  
G20  24419581.607   128325932.748       -1047.936          40.000  
G28  20493536.621   107694427.587       -2422.723          48.000  
G30  21917863.598   115179312.300       -1772.064          44.000  
R 2  23573092.275   125790732.2002       2834.760          40.000  
S38  39309463.509   206572631.201        -270.254          41.000  
R11  20756428.898   110916250.287         516.448          49.000  
R 1  20643736.941   110352791.879        -627.478          45.000  
G15  23014769.104   120943525.036        2596.258          50.000  
R 8  21169518.946   113361925.284       -3756.625          44.000  
R20  21369568.126   114272764.384        -175.509          38.000  
R21  21342589.417   114208563.044        3067.908          45.000  
R10  21138383.068   112679533.586       -1525.524          42.000  
S20  37796429.152   198621590.370        -200.115          40.000  
> 2017 11 25 12 49 26.7989999  0 19                     
G 5  23702336.510   124556642.086       -2604.727          38.000  
G 7  24236151.793   127361876.738       -2599.283          42.000  
G13  20689047.569   108721848.329        1168.734          45.000  
R12  23686722.345   126530207.352        1750.406          36.000  
G17  20779850.301   109199046.045        1728.796          51.000  
G19  21942484.669   115308650.972        2413.835          45.000  
G20  24419621.463   128326142.418       -1048.667          38.000  
G28  20493629.072   107694912.307       -2423.743          49.000  
G30  21917930.991   115179666.918       -1773.137          44.000  
R 2  23572987.504   125790165.3002       2834.845          40.000  
S38  39309473.909   206572685.398        -271.332          42.000  
R11  20756409.563   110916146.989         516.757          50.000  
R 1  20643760.394   110352917.360        -626.862          46.000  
G15  23014670.196   120943005.777        2596.714          49.000  
R 8  21169659.316   113362676.672       -3757.053          45.000  
R20  21369574.687   114272799.579        -176.472          38.000  
R21  21342474.873   114207949.656        3067.048          44.000  
R10  21138440.200   112679838.658       -1524.818          40.000  
S20  37796436.795   198621630.564        -201.270          39.000  
> 2017 11 25 12 49 26.9989999  0 19                     
G 5  23702435.662   124557163.403       -2606.479          39.000  
G 7  24236250.597   127362396.637       -2599.619          40.000  
G13  20689003.036   108721614.498        1168.764          46.000  
R12  23686656.174   126529857.395        1748.951          36.000  
G17  20779784.548   109198700.161        1729.206          50.000  
G19  21942392.846   115308168.236        2413.062          45.000  
G20  24419661.389   128326352.080       -1047.896          38.000  
G28  20493721.139   107695397.014       -2424.225          49.000  
G30  21917998.488   115180021.509       -1773.043          44.000  
R 2  23572881.581   125789598.4562       2834.027          40.000  
S38  39309484.170   206572739.534        -270.751          42.000  
R11  20756390.193   110916043.699         515.990          49.000  
R 1  20643784.021   110353042.954        -628.674          46.000  
G15  23014571.358   120942486.542        2595.773          50.000  
R 8  21169799.616   113363428.119       -3757.059          45.000  
R20  21369581.283   114272834.880        -176.597          38.000  
R21  21342360.260   114207336.282        3066.031          44.000  
R10  21138497.367   112680143.838       -1525.217          41.000  
S20  37796444.404   198621670.768        -201.176          39.000  
> 2017 11 25 12 49 27.1989999  0 19                     
G 5  23702534.919   124557684.699       -2608.441          38.000  
G 7  24236349.609   127362916.573       -2599.406          42.000  
G13  20688958.643   108721380.788        1168.942          45.000  
R12  23686588.886   126529507.285        1750.049          35.000  
G17  20779718.621   109198354.341        1729.471          50.000  
G19  21942300.848   115307685.509        2413.789          44.000  
G20  24419701.315   128326561.869       -1048.954          38.000  
G28  20493813.207   107695881.763       -2423.688          48.000  
G30  21918065.986   115180376.148       -1773.009          44.000  
R 2  23572775.903   125789031.6422       2833.496          39.000  
S38  39309494.361   206572793.804        -271.209          42.000  
R11  20756370.998   110915940.451         516.529          49.000  
R 1  20643807.439   110353168.558        -627.576          45.000  
G15  23014472.520   120941967.327        2596.536          50.000  
R 8  21169939.985   113364179.601       -3756.853          45.000  
R20  21369587.984   114272870.193        -176.571          40.000  
R21  21342245.787   114206722.905        3067.531          45.000  
R10  21138554.568   112680449.023       -1526.010          41.000  
S20  37796452.117   198621711.010        -200.827          40.000  
> 2017 11 25 12 49 27.3989999  0 19                     
G 5  23702634.246   124558205.771       -2606.688          38.000  
G 7  24236448.552   127363436.447       -2599.474          40.000  
G13  20688914.110   108721147.097        1167.855          45.000  
R12  23686524.809   126529157.308        1749.781          36.000  
G17  20779652.799   109198008.540        1729.012          51.000  
G19  21942208.851   115307202.800        2413.730          44.000  
G20  24419741.276   128326771.595       -1049.166          38.000  
G28  20493905.414   107696366.534       -2423.773          49.000  
G30  21918133.413   115180730.811       -1772.933          44.000  
R 2  23572671.516   125788464.8642       2833.466          39.000  
S38  39309504.726   206572848.036        -271.609          42.000  
R11  20756351.803   110915837.260         515.788          49.000  
R 1  20643830.893   110353294.256        -629.199          46.000  
G15  23014373.961   120941448.198        2595.379          50.000  
R 8  21170080.250   113364931.102       -3757.544          45.000  
R20  21369594.580   114272905.543        -176.317          38.000  
R21  21342131.314   114206109.596        3067.634          45.000  
R10  21138611.700   112680754.223       -1526.501          42.000  
S20  37796459.795   198621751.268        -201.835          40.000  
> 2017 11 25 12 49 27.5989999  0 19                     
G 5  23702733.258   124558727.049       -2604.684          36.000  
G 7  24236547.495   127363956.434       -2600.271          41.000  
G13  20688869.507   108720913.455        1168.680          45.000  
R12  23686459.266   126528807.369        1748.956          36.000  
G17  20779586.977   109197662.824        1728.776          51.000  
G19  21942116.853   115306720.142        2413.087          43.000  
G20  24419781.133   128326981.366       -1048.038          39.000  
G28  20493997.760   107696851.383       -2424.023          48.000  
G30  21918201.016   115181085.515       -1773.812          44.000  
R 2  23572563.394   125787898.1512       2833.575          38.000  
S38  39309515.196   206572902.253        -271.307          43.000  
R11  20756332.503   110915734.089         515.898          49.000  
R 1  20643854.381   110353419.974        -628.546          44.000  
G15  23014275.227   120940929.085        2595.587          50.000  
R 8  21170220.654   113365682.622       -3757.544          45.000  
R20  21369601.246   114272941.057        -177.907          38.000  
R21  21342016.526   114205496.369        3065.926          44.000  
R10  21138668.937   112681059.420       -1526.370          41.000  
S20  37796467.543   198621791.482        -201.433          40.000  
> 2017 11 25 12 49 27.7989999  0 19                     
G 5  23702832.306   124559248.484       -2606.473          34.000  
G 7  24236646.298   127364476.394       -2599.346          41.000  
G13  20688824.904   108720679.882        1167.818          46.000  
R12  23686390.861   126528457.463        1750.707          35.000  
G17  20779521.155   109197317.147        1727.829          50.000  
G19  21942025.204   115306237.511        2412.718          44.000  
G20  24419821.164   128327191.303       -1050.509          39.000  
G28  20494089.932   107697336.254       -2424.518          48.000  
G30  21918268.373   115181440.182       -1773.147          43.000  
R 2  23572455.168   125787331.4892       2833.094          38.000  
S38  39309525.631   206572956.594        -271.497          44.000  
R11  20756313.063   110915630.920         516.318          49.000  
R 1  20643877.973   110353545.823        -629.077          45.000  
G15  23014176.250   120940410.022        2595.269          50.000  
R 8  21170360.954   113366434.213       -3758.313          45.000  
R20  21369607.807   114272976.461        -177.016          40.000  
R21  21341901.773   114204883.121        3065.543          44.000  
R10  21138726.244   112681364.634       -1525.963          41.000  
S20  37796475.326   198621831.820        -201.198          40.000  
> 2017 11 25 12 49 27.9989999  0 19                     
G 5  23702931.214   124559769.807       -2607.254          33.000  
G 7  24236745.345   127364996.349       -2599.585          43.000  
G13  20688780.476   108720446.256        1168.195          46.000  
R12  23686330.064   126528107.580        1749.726          36.000  
G17  20779455.367   109196971.400        1728.798          51.000  
G19  21941933.556   115305754.876        2413.269          44.000  
G20  24419861.194   128327401.169       -1048.593          40.000  
G28  20494182.279   107697821.081       -2424.512          49.000  
G30  21918336.010   115181794.890       -1773.332          46.000  
R 2  23572349.559   125786764.7892       2833.575          38.000  
S38  39309535.962   206573010.895        -271.606          43.000  
R11  20756293.624   110915527.774         516.069          48.000  
R 1  20643901.496   110353671.625        -629.089          45.000  
G15  23014077.307   120939890.938        2595.233          49.000  
R 8  21170501.184   113367185.811       -3757.373          45.000  
R20  21369614.473   114273011.936        -177.609          38.000  
R21  21341786.951   114204269.818        3066.855          44.000  
R10  21138783.480   112681669.818       -1526.274          41.000  
S20  37796482.864   198621872.108        -201.186          40.000  
> 2017 11 25 12 49 28.1989999  0 19                     
G 5  23703030.296   124560291.162       -2606.504          36.000  
G 7  24236844.113   127365516.326       -2600.216          42.000  
G13  20688735.943   108720212.718        1167.683          44.000  
R12  23686260.194   126527757.631        1749.551          35.000  
G17  20779389.720   109196625.808        1728.258          51.000  
G19  21941841.803   115305272.333        2412.398          44.000  
G20  24419901.190   128327611.069       -1049.680          40.000  
G28  20494274.625   107698305.951       -2424.536          49.000  
G30  21918403.543   115182149.634       -1774.008          44.000  
R 2  23572244.823   125786198.1962       2833.020          38.000  
S38  39309546.223   206573065.180        -271.505          43.000  
R11  20756274.219   110915424.668         515.771          48.000  
R 1  20643924.914   110353797.555        -629.535          45.000  
G15  23013978.504   120939371.903        2595.395          50.000  
R 8  21170641.554   113367937.533       -3758.965          45.000  
R20  21369621.139   114273047.547        -177.670          38.000  
R21  21341672.478   114203656.661        3066.523          45.000  
R10  21138840.577   112681975.046       -1526.025          41.000  
S20  37796490.507   198621912.464        -201.926          40.000  
> 2017 11 25 12 49 28.3989999  0 19                     
G 5  23703129.169   124560812.507       -2607.253          36.000  
G 7  24236942.882   127366036.388       -2600.061          41.000  
G13  20688691.689   108719979.286        1167.619          46.000  
R12  23686193.220   126527407.815        1749.710          35.000  
G17  20779324.002   109196280.276        1727.437          50.000  
G19  21941749.980   115304789.795        2412.413          44.000  
G20  24419941.221   128327820.990       -1049.933          39.000  
G28  20494366.867   107698790.899       -2424.554          49.000  
G30  21918471.040   115182504.465       -1773.824          45.000  
R 2  23572139.668   125785631.7072       2832.190          38.000  
S38  39309556.588   206573119.575        -272.023          44.000  
R11  20756254.919   110915321.630         514.922          48.000  
R 1  20643948.542   110353923.501        -629.865          47.000  
G15  23013879.875   120938852.946        2594.570          50.000  
R 8  21170782.028   113368689.171       -3758.815          45.000  
R20  21369627.945   114273083.185        -178.139          38.000  
R21  21341558.074   114203043.596        3065.314          45.000  
R10  21138897.744   112682280.378       -1526.367          42.000  
S20  37796498.325   198621952.803        -201.861          40.000  
> 2017 11 25 12 49 28.5989999  0 19                     
G 5  23703228.286   124561333.812       -2607.010          36.000  
G 7  24237041.929   127366556.448       -2600.409          42.000  
G13  20688647.296   108719745.792        1166.932          46.000  
R12  23686128.619   126527057.951        1749.115          38.000  
G17  20779258.110   109195934.679        1727.576          50.000  
G19  21941658.087   115304307.254        2412.359          44.000  
G20  24419981.147   128328031.009       -1050.027          36.000  
G28  20494459.004   107699275.864       -2424.603          48.000  
G30  21918538.573   115182859.244       -1774.273          44.000  
R 2  23572034.792   125785065.1872       2832.934          38.000  
S38  39309566.954   206573173.881        -271.924          43.000  
R11  20756235.514   110915218.512         515.544          49.000  
R 1  20643972.135   110354049.457        -629.608          45.000  
G15  23013781.107   120938333.964        2594.809          49.000  
R 8  21170922.363   113369440.824       -3758.485          45.000  
R20  21369634.576   114273118.865        -178.266          38.000  
R21  21341443.531   114202430.457        3064.732          45.000  
R10  21138955.051   112682585.675       -1526.621          43.000  
S20  37796505.933   198621993.129        -201.357          40.000  
> 2017 11 25 12 49 28.7989999  0 19                     
G 5  23703327.648   124561855.215       -2606.227          40.000  
G 7  24237140.907   127367076.482       -2600.153          42.000  
G13  20688602.833   108719512.324        1167.235          45.000  
R12  23686062.622   126526708.008        1749.454          38.000  
G17  20779192.393   109195589.159        1727.916          51.000  
G19  21941566.229   115303824.735        2413.638          44.000  
G20  24420021.248   128328240.926       -1049.764          39.000  
G28  20494551.246   107699760.830       -2424.670          48.000  
G30  21918606.105   115183214.025       -1773.573          45.000  
R 2  23571928.660   125784498.7012       2831.708          36.000  
S38  39309577.179   206573228.167        -271.303          44.000  
R11  20756216.389   110915115.372         515.626          50.000  
R 1  20643995.692   110354175.482        -630.469          45.000  
G15  23013682.234   120937814.964        2595.092          49.000  
R 8  21171062.627   113370192.571       -3758.678          45.000  
R20  21369641.347   114273154.555        -178.652          38.000  
R21  21341328.848   114201817.344        3065.780          45.000  
R10  21139012.392   112682890.898       -1526.346          43.000  
S20  37796513.646   198622033.495        -201.607          38.000  
> 2017 11 25 12 49 28.9989999  0 19                     
G 5  23703427.114   124562376.732       -2607.026          41.000  
G 7  24237239.780   127367596.559       -2600.250          42.000  
G13  20688558.405   108719278.922        1167.023          46.000  
R12  23685997.882   126526358.103        1750.071          37.000  
G17  20779126.710   109195243.696        1726.707          50.000  
G19  21941474.406   115303342.316        2412.253          44.000  
G20  24420061.139   128328450.860       -1049.642          39.000  
G28  20494643.593   107700245.813       -2424.878          49.000  
G30  21918673.777   115183568.864       -1774.379          44.000  
R 2  23571820.992   125783932.1602       2831.323          36.000  
S38  39309587.510   206573282.566        -271.794          43.000  
R11  20756196.984   110915012.262         515.586          50.000  
R 1  20644019.355   110354301.485        -630.054          47.000  
G15  23013583.536   120937296.032        2595.235          49.000  
R 8  21171203.137   113370944.303       -3759.163          45.000  
R20  21369648.117   114273190.313        -179.123          38.000  
R21  21341214.270   114201204.298        3064.942          45.000  
R10  21139069.594   112683196.178       -1526.304          44.000  
S20  37796521.359   198622073.851        -202.572          40.000  
> 2017 11 25 12 49 29.1989999  0 19                     
G 5  23703526.510   124562898.213       -2608.415          38.000  
G 7  24237338.722   127368116.629       -2600.660          41.000  
G13  20688514.186   108719045.518        1166.634          46.000  
R12  23685933.002   126526008.263        1749.040          37.000  
G17  20779060.678   109194898.200        1727.797          50.000  
G19  21941382.618   115302859.867        2412.379          44.000  
G20  24420101.065   128328660.954       -1050.372          39.000  
G28  20494736.009   107700730.814       -2425.024          49.000  
G30  21918741.239   115183923.709       -1774.425          44.000  
R 2  23571713.324   125783365.6382       2832.135          37.000  
S38  39309597.980   206573336.858        -271.816          43.000  
R11  20756177.510   110914909.171         515.489          49.000  
R 1  20644042.948   110354427.676        -631.116          44.000  
G15  23013484.977   120936777.138        2594.117          50.000  
R 8  21171343.436   113371696.092       -3758.872          44.000  
R20  21369654.888   114273226.096        -178.971          38.000  
R21  21341099.761   114200591.245        3065.588          45.000  
R10  21139126.866   112683501.482       -1526.556          44.000  
S20  37796528.968   198622114.164        -201.578          40.000  
> 2017 11 25 12 49 29.3989999  0 19                     
G 5  23703625.697   124563419.594       -2606.707          38.000  
G 7  24237437.595   127368636.689       -2600.217          39.000  
G13  20688469.548   108718812.126        1167.222          44.000  
R12  23685867.494   126525658.388        1749.349          35.000  
G17  20778994.821   109194552.766        1727.056          50.000  
G19  21941290.795   115302377.402        2412.118          45.000  
G20  24420140.991   128328870.952       -1049.957          38.000  
G28  20494828.391   107701215.817       -2424.963          49.000  
G30  21918808.597   115184278.497       -1773.553          43.000  
R 2  23571607.960   125782799.2122       2833.167          39.000  
S38  39309608.311   206573391.176        -270.870          43.000  
R11  20756158.105   110914806.157         515.480          49.000  
R 1  20644066.471   110354553.767        -630.353          46.000  
G15  23013386.383   120936258.223        2594.475          50.000  
R 8  21171483.806   113372447.808       -3758.219          46.000  
R20  21369661.554   114273261.908        -179.243          38.000  
R21  21340985.044   114199978.180        3065.132          45.000  
R10  21139184.207   112683806.766       -1526.305          43.000  
S20  37796536.646   198622154.444        -200.932          40.000  
> 2017 11 25 12 49 29.5989999  0 19                     
G 5  23703724.884   124563940.981       -2606.161          37.000  
G 7  24237536.573   127369156.741       -2600.426          41.000  
G13  20688425.294   108718578.797        1166.496          46.000  
R12  23685804.638   126525308.553        1750.086          37.000  
G17  20778929.418   109194207.314        1726.893          51.000  
G19  21941198.902   115301894.965        2411.842          45.000  
G20  24420180.917   128329081.000       -1049.983          39.000  
G28  20494920.528   107701700.812       -2425.330          48.000  
G30  21918876.060   115184633.324       -1774.075          44.000  
R 2  23571501.060   125782232.7932       2831.873          39.000  
S38  39309618.711   206573445.546        -272.507          43.000  
R11  20756138.735   110914703.077         514.702          49.000  
R 1  20644090.028   110354679.887        -630.524          45.000  
G15  23013287.755   120935739.287        2594.456          50.000  
R 8  21171624.245   113373199.638       -3758.556          45.000  
R20  21369668.360   114273297.766        -179.413          38.000  
R21  21340870.535   114199365.114        3065.689          45.000  
R10  21139241.514   112684112.038       -1526.292          43.000  
S20  37796544.324   198622194.792        -201.906          40.000  
> 2017 11 25 12 49 29.7989999  0 19                     
G 5  23703823.932   124564462.500       -2608.562          34.000  
G 7  24237635.516   127369676.803       -2599.808          39.000  
G13  20688380.831   108718345.402        1166.637          45.000  
R12  23685739.375   126524958.612        1749.245          40.000  
G17  20778863.735   109193861.905        1727.121          51.000  
G19  21941107.044   115301412.525        2411.606          45.000  
G20  24420220.913   128329291.020       -1050.700          40.000  
G28  20495012.665   107702185.835       -2424.670          48.000  
G30  21918943.557   115184988.187       -1774.069          44.000  
R 2  23571396.358   125781666.3632       2831.879          39.000  
S38  39309629.111   206573499.807        -271.527          43.000  
R11  20756119.296   110914599.952         516.114          49.000  
R 1  20644113.796   110354806.126        -631.488          45.000  
G15  23013188.847   120935220.399        2594.699          49.000  
R 8  21171764.580   113373951.449       -3759.497          45.000  
R20  21369675.026   114273333.612        -179.176          38.000  
R21  21340755.957   114198752.118        3065.286          45.000  
R10  21139298.715   112684417.326       -1525.813          43.000  
S20  37796552.037   198622235.109        -202.048          40.000  
> 2017 11 25 12 49 29.9989999  0 19                     
G 5  23703923.293   124564983.727       -2606.952          39.000  
G 7  24237734.458   127370196.871       -2600.441          41.000  
G13  20688336.333   108718112.157        1166.724          46.000  
R12  23685672.331   126524608.768        1748.483          35.000  
G17  20778797.983   109193516.492        1727.387          50.000  
G19  21941015.221   115300930.034        2412.897          45.000  
G20  24420260.979   128329501.179       -1051.126          36.000  
G28  20495105.116   107702670.971       -2425.714          48.000  
G30  21919011.159   115185343.029       -1774.335          44.000  
R 2  23571291.413   125781100.1242       2831.049          40.000  
S38  39309639.372   206573554.164        -271.263          43.000  
R11  20756099.961   110914496.998         514.787          48.000  
R 1  20644137.109   110354932.355        -630.890          45.000  
G15  23013090.044   120934701.607        2593.770          49.000  
R 8  21171904.880   113374703.218       -3758.665          45.000  
R20  21369681.727   114273369.543        -179.171          38.000  
R21  21340641.379   114198139.112        3064.918          45.000  
R10  21139356.057   112684722.718       -1526.898          43.000  
S20  37796559.610   198622275.363        -200.852          40.000  
> 2017 11 25 12 49 30.1989999  0 19                     
G 5  23704022.585   124565505.134       -2605.809          40.000  
G 7  24237833.401   127370716.860       -2599.597          41.000  
G13  20688291.835   108717878.884        1166.328          46.000  
R12  23685605.043   126524259.082        1749.203          35.000  
G17  20778732.335   109193171.047        1727.141          51.000  
G19  21940923.398   115300447.499        2413.229          44.000  
G20  24420300.870   128329711.314       -1050.787          38.000  
G28  20495197.288   107703156.030       -2425.366          48.000  
G30  21919078.657   115185697.829       -1773.961          45.000  
R 2  23571185.385   125780533.8212       2830.561          40.000  
S38  39309649.807   206573608.508        -271.581          43.000  
R11  20756080.591   110914393.999         514.865          49.000  
R 1  20644160.806   110355058.672        -631.775          47.000  
G15  23012991.345   120934182.828        2593.832          50.000  
R 8  21172045.249   113375454.966       -3758.758          45.000  
R20  21369688.218   114273405.453        -179.286          38.000  
R21  21340527.045   114197525.926        3065.983          45.000  
R10  21139413.363   112685028.022       -1526.814          43.000  
S20  37796567.218   198622315.561        -200.471          40.000  
> 2017 11 25 12 49 30.3989999  0 19                     
G 5  23704121.772   124566026.484       -2607.366          40.000  
G 7  24237932.553   127371236.799       -2599.127          41.000  
G13  20688247.686   108717645.657        1166.063          47.000  
R12  23685540.721   126523909.257        1748.838          35.000  
G17  20778666.652   109192825.555        1727.508          51.000  
G19  21940831.435   115299964.933        2413.327          43.000  
G20  24420340.657   128329921.412       -1050.618          39.000  
G28  20495289.670   107703641.147       -2425.714          49.000  
G30  21919146.224   115186052.656       -1773.891          45.000  
R 2  23571078.834   125779967.5872       2831.592          38.000  
S38  39309660.068   206573662.789        -271.506          43.000  
R11  20756061.291   110914291.053         514.343          48.000  
R 1  20644184.469   110355185.012        -631.903          45.000  
G15  23012892.577   120933664.093        2593.483          50.000  
R 8  21172185.584   113376206.673       -3758.175          44.000  
R20  21369694.919   114273441.449        -179.624          39.000  
R21  21340412.432   114196912.804        3066.212          44.000  
R10  21139470.775   112685333.367       -1526.898          44.000  
S20  37796574.896   198622355.738        -200.616          40.000  
> 2017 11 25 12 49 30.5989999  0 19                     
G 5  23704221.204   124566547.699       -2605.681          41.000  
G 7  24238031.461   127371756.749       -2600.060          42.000  
G13  20688203.293   108717412.463        1166.085          47.000  
R12  23685474.027   126523559.478        1748.159          32.000  
G17  20778600.970   109192480.068        1727.698          51.000  
G19  21940739.612   115299482.301        2413.104          43.000  
G20  24420380.652   128330131.598       -1050.634          39.000  
G28  20495382.086   107704126.295       -2425.964          49.000  
G30  21919213.756   115186407.438       -1774.000          46.000  
R 2  23570973.016   125779401.5142       2829.681          39.000  
S38  39309670.398   206573717.094        -271.257          43.000  
R11  20756042.026   110914188.155         514.449          47.000  
R 1  20644208.096   110355311.389        -631.970          45.000  
G15  23012793.809   120933145.396        2593.044          50.000  
R 8  21172325.919   113376958.376       -3758.347          43.000  
R20  21369701.655   114273477.432        -180.830          40.000  
R21  21340297.994   114196299.597        3065.867          44.000  
R10  21139528.221   112685638.777       -1527.091          44.000  
S20  37796582.540   198622395.852        -200.195          40.000  
> 2017 11 25 12 49 30.7989999  0 19                     
G 5  23704320.321   124567069.024       -2607.305          37.000  
G 7  24238130.543   127372276.674       -2599.457          42.000  
G13  20688158.795   108717179.298        1165.538          47.000  
R12  23685407.646   126523209.761        1748.541          38.000  
G17  20778535.078   109192134.555        1727.472          51.000  
G19  21940647.789   115298999.614        2413.520          43.000  
G20  24420420.648   128330341.821       -1051.358          39.000  
G28  20495474.468   107704611.506       -2426.318          49.000  
G30  21919281.463   115186762.282       -1774.300          47.000  
R 2  23570867.617   125778835.4322       2829.767          39.000  
S38  39309680.834   206573771.358        -271.452          44.000  
R11  20756022.796   110914085.298         514.014          47.000  
R 1  20644231.689   110355437.784        -632.117          47.000  
G15  23012695.285   120932626.769        2592.945          50.000  
R 8  21172466.323   113377710.003       -3758.286          43.000  
R20  21369708.600   114273513.462        -180.253          40.000  
R21  21340183.241   114195686.351        3066.156          44.000  
R10  21139585.423   112685944.183       -1527.300          43.000  
S20  37796590.183   198622435.888        -200.121          39.000  
> 2017 11 25 12 49 30.9989999  0 19                     
G 5  23704419.438   124567590.225       -2605.492          39.000  
G 7  24238229.451   127372796.618       -2599.506          41.000  
G13  20688114.541   108716946.157        1165.616          48.000  
R12  23685343.359   126522859.980        1748.713          40.000  
G17  20778469.151   109191789.042        1727.721          50.000  
G19  21940555.931   115298516.906        2413.755          43.000  
G20  24420460.749   128330552.041       -1051.442          39.000  
G28  20495566.709   107705096.748       -2426.245          49.000  
G30  21919349.170   115187117.115       -1774.192          47.000  
R 2  23570759.495   125778269.4402       2830.054          38.000  
S38  39309691.060   206573825.607        -271.207          44.000  
R11  20756003.566   110913982.481         513.967          47.000  
R 1  20644255.421   110355564.242        -632.275          47.000  
G15  23012596.517   120932108.181        2592.825          50.000  
R 8  21172606.658   113378461.613       -3757.733          42.000  
R20  21369715.231   114273549.569        -180.644          40.000  
R21  21340068.593   114195073.103        3066.435          44.000  
R10  21139642.729   112686249.684       -1527.562          43.000  
S20  37796597.861   198622475.938        -200.040          39.000  
> 2017 11 25 12 49 31.1989999  0 19                     
G 5  23704518.834   124568111.372       -2605.221          42.000  
G 7  24238328.220   127373316.555       -2599.403          40.000  
G13  20688070.287   108716713.082        1165.569          48.000  
R12  23685279.526   126522510.230        1749.197          40.000  
G17  20778403.189   109191443.523        1727.771          50.000  
G19  21940464.073   115298034.195        2413.663          43.000  
G20  24420500.780   128330762.270       -1050.903          39.000  
G28  20495659.126   107705582.053       -2426.508          49.000  
G30  21919416.772   115187471.974       -1774.073          47.000  
R 2  23570653.328   125777703.5802       2829.395          38.000  
S38  39309701.320   206573879.868        -270.884          44.000  
R11  20755984.266   110913879.709         514.156          47.000  
R 1  20644279.084   110355690.753        -632.617          47.000  
G15  23012497.818   120931589.651        2592.931          49.000  
R 8  21172746.888   113379213.209       -3757.569          42.000  
R20  21369722.002   114273585.731        -180.933          40.000  
R21  21339953.980   114194459.843        3066.395          44.000  
R10  21139700.001   112686555.222       -1527.755          43.000  
S20  37796605.504   198622515.951        -199.926          39.000  
> 2017 11 25 12 49 31.3989999  0 19                     
G 5  23704618.266   124568632.449       -2605.098          42.000  
G 7  24238427.197   127373836.524       -2600.361          40.000  
G13  20688025.998   108716480.011        1165.273          48.000  
R12  23685215.135   126522160.450        1748.991          40.000  
G17  20778337.227   109191098.009        1727.548          50.000  
G19  21940371.971   115297551.429        2413.792          43.000  
G20  24420540.706   128330972.490       -1051.028          39.000  
G28  20495751.437   107706067.401       -2427.118          49.000  
G30  21919484.444   115187826.883       -1774.718          47.000  
R 2  23570547.754   125777137.7152       2829.303          38.000  
S38  39309711.546   206573934.034        -270.577          44.000  
R11  20755965.106   110913776.953         513.733          46.000  
R 1  20644302.816   110355817.240        -632.507          47.000  
G15  23012399.085   120931071.128        2592.459          49.000  
R 8  21172887.013   113379964.728       -3757.516          42.000  
R20  21369728.703   114273621.926        -181.372          40.000  
R21  21339839.367   114193846.556        3066.276          44.000  
R10  21139757.272   112686860.771       -1527.878          43.000  
S20  37796613.043   198622555.925        -199.793          39.000  
> 2017 11 25 12 49 31.5989999  0 19                     
G 5  23704717.732   124569153.516       -2605.318          43.000  
G 7  24238526.105   127374356.475       -2600.109          42.000  
G13  20687981.710   108716246.945        1165.333          48.000  
R12  23685150.395   126521810.650        1748.890          41.000  
G17  20778271.405   109190752.489        1727.459          50.000  
G19  21940279.904   115297068.635        2414.059          43.000  
G20  24420580.597   128331182.679       -1050.796          39.000  
G28  20495843.749   107706552.775       -2427.118          48.000  
G30  21919552.046   115188181.789       -1774.889          47.000  
R 2  23570440.819   125776571.9662       2828.345          37.000  
S38  39309722.051   206573988.157        -270.478          45.000  
R11  20755945.806   110913674.213         513.601          46.000  
R 1  20644326.479   110355943.762        -632.568          48.000  
G15  23012300.386   120930552.633        2592.449          49.000  
R 8  21173027.347   113380716.214       -3757.382          43.000  
R20  21369735.403   114273658.202        -181.753          40.000  
R21  21339724.754   114193233.248        3066.338          44.000  
R10  21139814.509   112687166.370       -1528.193          43.000  
S20  37796620.616   198622595.913        -199.946          38.000  
> 2017 11 25 12 49 31.7989999  0 19                     
G 5  23704817.094   124569674.617       -2605.607          44.000  
G 7  24238625.083   127374876.478       -2600.160          42.000  
G13  20687937.386   108716013.951        1165.079          48.000  
R12  23685086.073   126521460.902        1748.693          41.000  
G17  20778205.443   109190407.016        1727.330          50.000  
G19  21940187.976   115296585.899        2413.629          43.000  
G20  24420620.523   128331392.970       -1051.441          39.000  
G28  20495935.956   107707038.222       -2427.124          48.000  
G30  21919619.683   115188536.750       -1774.746          47.000  
R 2  23570334.757   125776006.2512       2828.662          37.000  
S38  39309732.382   206574042.320        -270.626          45.000  
R11  20755926.611   110913571.528         513.404          46.000  
R 1  20644350.071   110356070.353        -633.099          48.000  
G15  23012201.653   120930034.201        2592.182          49.000  
R 8  21173167.717   113381467.752       -3757.682          43.000  
R20  21369742.139   114273694.542        -181.890          40.000  
R21  21339610.281   114192619.985        3066.217          44.000  
R10  21139871.955   112687472.025       -1528.288          43.000  
S20  37796628.189   198622635.888        -200.140          38.000  
> 2017 11 25 12 49 31.9989999  0 19                     
G 5  23704916.560   124570195.721       -2605.683          45.000  
G 7  24238723.956   127375396.470       -2600.112          42.000  
G13  20687893.028   108715780.946        1164.949          47.000  
R12  23685021.228   126521111.123        1749.043          42.000  
G17  20778139.586   109190061.576        1727.097          50.000  
G19  21940096.013   115296103.163        2413.416          43.000  
G20  24420660.519   128331603.205       -1051.253          41.000  
G28  20496028.268   107707523.645       -2427.130          48.000  
G30  21919687.390   115188891.694       -1774.777          46.000  
R 2  23570228.066   125775440.4852       2828.943          35.000  
S38  39309742.712   206574096.479        -270.774          45.000  
R11  20755907.345   110913468.802         513.818          45.000  
R 1  20644373.699   110356196.952        -633.002          48.000  
G15  23012103.094   120929515.738        2592.277          49.000  
R 8  21173308.087   113382219.314       -3758.094          43.000  
R20  21369748.945   114273730.877        -181.850          40.000  
R21  21339495.877   114192006.749        3065.861          44.000  
R10  21139929.297   112687777.622       -1528.099          43.000  
S20  37796635.763   198622675.889        -199.951          38.000  
> 2017 11 25 12 49 32.1989999  0 19                     
G 5  23705015.852   124570716.821       -2605.279          46.000  
G 7  24238822.863   127375916.490       -2599.698          42.000  
G13  20687848.600   108715547.976        1164.934          47.000  
R12  23684955.755   126520761.369        1748.733          42.000  
G17  20778073.973   109189716.174        1727.147          50.000  
G19  21940004.120   115295620.469        2413.861          44.000  
G20  24420700.445   128331813.483       -1051.072          41.000  
G28  20496120.544   107708009.092       -2427.179          47.000  
G30  21919754.957   115189246.667       -1774.596          46.000  
R 2  23570122.004   125774874.2731       2828.265          35.000  
S38  39309753.078   206574150.622        -270.708          45.000  
R11  20755888.080   110913366.088         513.668          45.000  
R 1  20644397.257   110356323.597        -633.118          48.000  
G15  23012004.396   120928997.287        2592.354          49.000  
R 8  21173448.247   113382970.899       -3757.788          43.000  
R20  21369755.820   114273767.300        -182.100          40.000  
R21  21339381.369   114191393.553        3066.388          44.000  
R10  21139986.498   112688083.243       -1527.825          43.000  
S20  37796643.476   198622715.939        -199.932          39.000  
> 2017 11 25 12 49 32.3989999  0 19                     
G 5  23705115.388   124571237.941       -2605.731          46.000  
G 7  24238921.806   127376436.523       -2600.101          42.000  
G13  20687804.206   108715315.033        1164.566          47.000  
R12  23684890.596   126520411.612        1748.489          42.000  
G17  20778008.186   109189370.794        1726.802          50.000  
G19  21939912.297   115295137.798        2413.089          44.000  
G20  24420740.406   128332023.797       -1051.718          43.000  
G28  20496212.926   107708494.565       -2427.441          47.000  
G30  21919822.420   115189601.672       -1775.203          45.000  
R 2  23570015.662   125774308.552        2828.363          35.000  
S38  39309763.303   206574204.772        -270.990          45.000  
R11  20755868.815   110913263.390         513.333          45.000  
R 1  20644420.850   110356450.280        -633.563          48.000  
G15  23011905.907   120928478.875        2592.004          50.000  
R 8  21173588.546   113383722.515       -3758.120          43.000  
R20  21369762.661   114273803.777        -182.802          40.000  
R21  21339266.825   114190780.398        3065.878          44.000  
R10  21140043.875   112688388.896       -1528.542          43.000  
S20  37796650.945   198622755.986        -200.343          39.000  
> 2017 11 25 12 49 32.5989999  0 19                     
G 5  23705214.644   124571758.999       -2605.247          46.000  
G 7  24239020.539   127376956.517       -2600.253          42.000  
G13  20687759.778   108715082.048        1164.772          47.000  
R12  23684825.262   126520061.801        1748.907          42.000  
G17  20777942.573   109189025.394        1726.738          50.000  
G19  21939820.439   115294655.084        2413.157          44.000  
G20  24420780.402   128332234.082       -1051.731          42.000  
G28  20496305.203   107708980.010       -2427.588          46.000  
G30  21919889.917   115189956.609       -1774.984          45.000  
R 2  23569909.251   125773742.850        2828.565          35.000  
S38  39309773.669   206574258.854        -270.494          45.000  
R11  20755849.306   110913160.640         513.577          45.000  
R 1  20644444.477   110356576.950        -633.594          48.000  
G15  23011807.313   120927960.426        2591.973          50.000  
R 8  21173728.811   113384474.097       -3758.325          43.000  
R20  21369769.466   114273840.205        -182.769          40.000  
R21  21339152.317   114190167.186        3065.630          45.000  
R10  21140101.146   112688694.477       -1528.387          44.000  
S20  37796658.623   198622795.962        -200.353          39.000  
> 2017 11 25 12 49 32.7989999  0 19                     
G 5  23705313.866   124572280.084       -2605.185          45.000  
G 7  24239119.482   127377476.512       -2599.585          42.000  
G13  20687715.210   108714849.103        1164.939          46.000  
R12  23684759.719   126519711.999        1749.349          42.000  
G17  20777876.716   109188680.034        1726.859          50.000  
G19  21939728.686   115294172.388        2413.693          44.000  
G20  24420820.433   128332444.368       -1051.223          43.000  
G28  20496397.514   107709465.455       -2426.904          46.000  
G30  21919957.415   115190311.566       -1774.552          45.000  
R 2  23569803.188   125773177.163        2828.790          34.000  
S38  39309783.930   206574312.951        -270.108          45.000  
R11  20755829.867   110913057.900         514.031          45.000  
R 1  20644468.070   110356703.653        -633.203          48.000  
G15  23011708.719   120927441.982        2592.529          50.000  
R 8  21173869.146   113385225.683       -3757.667          43.000  
R20  21369776.307   114273876.673        -182.135          40.000  
R21  21339037.879   114189554.001        3066.029          45.000  
R10  21140158.313   112689000.038       -1527.446          44.000  
S20  37796666.231   198622835.969        -199.843          39.000  
> 2017 11 25 12 49 32.9989999  0 19                     
G 5  23705413.053   124572801.109       -2605.346          45.000  
G 7  24239218.320   127377996.514       -2600.249          42.000  
G13  20687670.782   108714616.140        1164.516          44.000  
R12  23684694.351   126519362.156        1749.204          42.000  
G17  20777810.824   109188334.655        1726.569          50.000  
G19  21939636.933   115293689.701        2413.171          44.000  
G20  24420860.324   128332654.630       -1051.515          43.000  
G28  20496489.966   107709950.887       -2427.368          46.000  
G30  21920024.912   115190666.510       -1774.913          45.000  
R 2  23569697.161   125772611.430        2828.235          34.000  
S38  39309794.295   206574366.999        -270.576          44.000  
R11  20755810.497   110912955.137         513.678          46.000  
R 1  20644491.697   110356830.358        -633.539          48.000  
G15  23011610.160   120926923.526        2592.341          50.000  
R 8  21174009.516   113385977.288       -3758.289          44.000  
R20  21369783.008   114273913.165        -182.703          40.000  
R21  21338923.475   114188940.815        3065.792          46.000  
R10  21140215.410   112689305.603       -1527.848          45.000  
S20  37796673.874   198622875.939        -200.108          40.000  
> 2017 11 25 12 49 33.1989999  0 20                     
G 5  23705512.275   124573322.147       -2605.291          45.000  
G11  25309802.615                1      -1294.261          32.000  
G 7  24239317.228   127378516.459       -2599.712          43.000  
G13  20687626.214   108714383.177        1164.753          44.000  
R12  23684628.947   126519012.332        1748.875          43.000  
G17  20777744.967   109187989.293        1726.689          50.000  
G19  21939544.935   115293206.991        2413.118          44.000  
G20  24420900.425   128332864.918       -1051.558          43.000  
G28  20496582.312   107710436.339       -2427.386          45.000  
G30  21920092.480   115191021.446       -1774.723          45.000  
R 2  23569591.203   125772045.763        2828.046          34.000  
S38  39309804.521   206574421.033        -270.305          44.000  
R11  20755791.162   110912852.390         513.361          47.000  
R 1  20644515.430   110356957.099        -633.826          48.000  
G15  23011511.462   120926405.103        2591.789          49.000  
R 8  21174149.780   113386728.885       -3758.296          45.000  
R20  21369789.778   114273949.649        -182.487          40.000  
R21  21338809.071   114188327.633        3065.675          46.000  
R10  21140272.612   112689611.174       -1528.002          45.000  
S20  37796681.517   198622915.919        -200.152          40.000  
> 2017 11 25 12 49 33.3989999  0 20                     
G 5  23705611.393   124573843.266       -2605.578          45.000  
G11  25309848.788                1      -1294.261          32.000  
G 7  24239416.206   127379036.511       -2600.261          43.000  
G13  20687581.786   108714150.304        1164.523          44.000  
R12  23684563.509   126518662.546        1749.069          43.000  
G17  20777679.249   109187644.034        1726.111          50.000  
G19  21939452.973   115292724.371        2412.886          44.000  
G20  24420940.316   128333075.256       -1051.614          43.000  
G28  20496674.694   107710921.851       -2427.594          45.000  
G30  21920159.977   115191376.471       -1775.151          45.000  
R 2  23569485.106   125771480.126        2828.058          34.000  
S38  39309814.851   206574475.142        -270.623          44.000  
R11  20755772.071   110912749.669         513.731          47.000  
R 1  20644539.022   110357083.926        -634.125          48.000  
G15  23011412.903   120925886.705        2592.211          49.000  
R 8  21174290.255   113387480.552       -3758.428          45.000  
R20  21369796.514   114273986.291        -183.362          40.000  
R21  21338694.528   114187714.538        3065.427          46.000  
R10  21140329.988   112689916.793       -1528.142          45.000  
S20  37796689.091   198622955.958        -200.306          40.000  
> 2017 11 25 12 49 33.5989999  0 19                     
G 5  23705710.405   124574364.396       -2606.042          45.000  
G 7  24239515.323   127379556.525       -2600.222          43.000  
G13  20687537.427   108713917.458        1164.063          43.000  
R12  23684498.001   126518312.803        1748.504          43.000  
G17  20777613.671   109187298.766        1725.979          50.000  
G19  21939361.219   115292241.750        2412.787          44.000  
G20  24420980.416   128333285.642       -1052.190          43.000  
G28  20496767.145   107711407.383       -2427.820          45.000  
G30  21920227.474   115191731.470       -1775.135          46.000  
R 2  23569379.148   125770914.560        2827.417          35.000  
S38  39309825.007   206574529.260        -271.013          44.000  
R11  20755752.806   110912647.007         513.083          48.000  
R 1  20644562.615   110357210.816        -634.778          47.000  
G15  23011314.309   120925368.378        2591.452          49.000  
R 8  21174430.694   113388232.252       -3758.787          45.000  
R20  21369803.285   114274022.901        -183.463          40.000  
R21  21338580.159   114187101.444        3065.245          46.000  
R10  21140387.260   112690222.415       -1528.171          45.000  
S20  37796696.664   198622995.970        -200.119          40.000  
> 2017 11 25 12 49 33.7989999  0 19                     
G 5  23705809.453   124574885.550       -2605.563          45.000  
G 7  24239614.335   127380076.564       -2599.845          43.000  
G13  20687493.174   108713684.663        1163.845          43.000  
R12  23684432.563   126517963.059        1748.739          43.000  
G17  20777548.198   109186953.553        1726.188          50.000  
G19  21939269.431   115291759.161        2412.832          44.000  
G20  24421020.517   128333496.056       -1052.149          43.000  
G28  20496859.422   107711892.927       -2427.527          45.000  
G30  21920295.007   115192086.498       -1774.908          46.000  
R 2  23569273.225   125770348.993        2828.424          35.000  
S38  39309835.373   206574583.400        -270.765          44.000  
R11  20755733.716   110912544.332         513.318          48.000  
R 1  20644586.138   110357337.743        -634.717          46.000  
G15  23011215.716   120924850.055        2591.376          49.000  
R 8  21174571.064   113388983.988       -3758.695          45.000  
R20  21369809.951   114274059.571        -183.275          41.000  
R21  21338465.616   114186488.387        3065.157          46.000  
R10  21140444.636   112690528.049       -1528.270          45.000  
S20  37796704.342   198623036.034        -200.018          40.000  
> 2017 11 25 12 49 33.9989999  0 19                     
G 5  23705908.640   124575406.746       -2606.181          46.000  
G 7  24239713.313   127380596.575       -2600.052          44.000  
G13  20687448.780   108713451.905        1163.453          43.000  
R12  23684366.985   126517613.372        1748.249          42.000  
G17  20777482.481   109186608.356        1725.886          50.000  
G19  21939177.713   115291276.594        2412.879          45.000  
G20  24421060.618   128333706.534       -1052.615          43.000  
G28  20496951.838   107712378.477       -2427.753          45.000  
G30  21920362.469   115192441.509       -1775.018          47.000  
R 2  23569167.058   125769783.530        2827.643          35.000  
S38  39309845.878   206574637.597        -271.213          44.000  
R11  20755714.625   110912441.697         513.187          49.000  
R 1  20644609.731   110357464.742        -635.181          46.000  
G15  23011116.982   120924331.771        2591.249          49.000  
R 8  21174711.642   113389735.760       -3759.077          45.000  
R20  21369816.547   114274096.246        -183.511          41.000  
R21  21338351.108   114185875.313        3065.447          46.000  
R10  21140501.908   112690833.666       -1528.076          46.000  
S20  37796712.020   198623076.068        -200.297          40.000  
> 2017 11 25 12 49 34.1989999  0 19                     
G 5  23706007.687   124575928.021       -2606.664          46.000  
G 7  24239812.395   127381116.564       -2599.921          45.000  
G13  20687404.492   108713219.243        1163.122          43.000  
R12  23684301.372   126517263.759        1747.834          42.000  
G17  20777416.763   109186263.189        1725.804          50.000  
G19  21939085.925   115290794.082        2412.627          45.000  
G20  24421100.648   128333917.128       -1053.342          43.000  
G28  20497044.115   107712864.033       -2427.557          45.000  
G30  21920430.002   115192796.503       -1774.654          47.000  
R 2  23569061.100   125769218.096        2826.630          36.000  
S38  39309856.383   206574691.883        -271.588          45.000  
R11  20755695.465   110912339.139         512.479          49.000  
R 1  20644633.323   110357591.874        -635.938          46.000  
G15  23011018.493   120923813.585        2590.544          49.000  
R 8  21174852.012   113390487.597       -3759.269          45.000  
R20  21369823.283   114274132.924        -183.115          41.000  
R21  21338236.460   114185262.272        3065.185          46.000  
R10  21140559.214   112691139.295       -1528.053          46.000  
S20  37796719.489   198623116.088        -199.892          40.000  
> 2017 11 25 12 49 34.3989999  0 19                     
G 5  23706106.665   124576449.359       -2606.476          46.000  
G 7  24239911.513   127381636.471       -2599.420          45.000  
G13  20687360.412   108712986.601        1163.125          44.000  
R12  23684235.829   126516914.237        1747.661          41.000  
G17  20777351.011   109185918.009        1725.858          50.000  
G19  21938993.892   115290311.544        2412.600          45.000  
G20  24421140.749   128334127.805       -1053.371          43.000  
G28  20497136.391   107713349.579       -2427.850          45.000  
G30  21920497.464   115193151.445       -1774.693          47.000  
R 2  23568955.143   125768652.721        2826.288          35.000  
S38  39309866.888   206574746.224        -271.731          45.000  
R11  20755676.200   110912236.585         512.735          48.000  
R 1  20644657.091   110357719.071        -635.858          47.000  
G15  23010919.865   120923295.443        2590.674          49.000  
R 8  21174992.486   113391239.506       -3759.407          45.000  
R20  21369830.158   114274169.572        -183.307          42.000  
R21  21338121.742   114184649.163        3065.433          46.000  
R10  21140616.521   112691444.868       -1528.025          45.000  
S20  37796727.167   198623156.047        -199.692          40.000  
> 2017 11 25 12 49 34.5989999  0 19                     
G 5  23706205.852   124576970.754       -2607.138          46.000  
G 7  24240010.490   127382156.363       -2599.191          45.000  
G13  20687316.124   108712754.026        1162.715          44.000  
R12  23684170.251   126516564.760        1746.860          41.000  
G17  20777285.468   109185572.876        1725.690          50.000  
G19  21938901.860   115289829.026        2412.646          45.000  
G20  24421180.815   128334338.571       -1053.955          43.000  
G28  20497228.947   107713835.156       -2427.917          45.000  
G30  21920564.997   115193506.358       -1774.383          47.000  
R 2  23568849.220   125768087.420        2826.770          37.000  
S38  39309877.253   206574800.678        -272.441          44.000  
R11  20755657.109   110912134.087         512.564          49.000  
R 1  20644680.823   110357846.357        -636.682          47.000  
G15  23010821.376   120922777.387        2590.240          48.000  
R 8  21175133.030   113391991.518       -3760.228          44.000  
R20  21369837.138   114274206.253        -183.190          42.000  
R21  21338007.094   114184036.086        3065.271          46.000  
R10  21140673.688   112691750.432       -1527.378          45.000  
S20  37796734.601   198623195.958        -199.617          40.000  
> 2017 11 25 12 49 34.7989999  0 19                     
G 5  23706304.934   124577492.244       -2607.602          46.000  
G 7  24240109.363   127382676.198       -2599.001          45.000  
G13  20687271.975   108712521.530        1162.193          44.000  
R12  23684104.568   126516215.402        1746.850          41.000  
G17  20777219.820   109185227.745        1725.639          50.000  
G19  21938810.107   115289346.547        2412.202          45.000  
G20  24421220.950   128334549.410       -1054.346          43.000  
G28  20497321.468   107714320.725       -2427.692          46.000  
G30  21920632.494   115193861.281       -1774.415          47.000  
R 2  23568743.367   125767522.129        2826.190          38.000  
S38  39309887.584   206574855.168        -272.735          45.000  
R11  20755638.124   110912031.609         512.262          50.000  
R 1  20644704.485   110357973.783        -637.439          46.000  
G15  23010722.991   120922259.390        2589.953          48.000  
R 8  21175273.400   113392743.555       -3760.337          44.000  
R20  21369843.944   114274242.903        -183.520          42.000  
R21  21337892.551   114183422.980        3065.649          46.000  
R10  21140731.029   112692055.993       -1527.870          44.000  
S20  37796742.070   198623235.873        -199.635          40.000  
> 2017 11 25 12 49 34.9989999  0 19                     
G 5  23706404.226   124578013.759       -2608.039          46.000  
G 7  24240208.341   127383196.078       -2599.491          45.000  
G13  20687228.000   108712289.081        1161.799          44.000  
R12  23684039.200   126515866.106        1745.428          40.000  
G17  20777154.347   109184882.676        1725.211          51.000  
G19  21938718.388   115288864.114        2412.093          46.000  
G20  24421261.086   128334760.353       -1055.106          43.000  
G28  20497413.745   107714806.306       -2428.168          45.000  
G30  21920699.887   115194216.206       -1774.753          47.000  
R 2  23568637.653   125766956.942        2825.549          35.000  
S38  39309897.949   206574909.749        -273.126          44.000  
R11  20755618.963   110911929.216         511.597          49.000  
R 1  20644728.218   110358101.236        -637.885          47.000  
G15  23010624.398   120921741.477        2588.944          48.000  
R 8  21175413.944   113393495.659       -3760.710          44.000  
R20  21369850.854   114274279.652        -183.823          43.000  
R21  21337777.973   114182809.925        3065.267          46.000  
R10  21140788.336   112692361.587       -1528.298          44.000  
S20  37796749.643   198623275.773        -199.402          40.000  
> 2017 11 25 12 49 35.1989999  0 19                     
G 5  23706503.238   124578535.311       -2607.584          46.000  
G 7  24240307.004   127383715.814       -2598.759          45.000  
G13  20687183.781   108712056.682        1161.976          44.000  
R12  23683973.692   126515516.792        1746.718          41.000  
G17  20777088.664   109184537.550        1725.398          51.000  
G19  21938626.356   115288381.631        2412.489          45.000  
G20  24421301.256   128334971.358       -1055.141          43.000  
G28  20497506.127   107715291.925       -2428.162          45.000  
G30  21920767.559   115194571.048       -1774.221          47.000  
R 2  23568531.556   125766391.938        2826.007          32.000  
S38  39309908.140   206574964.424        -273.594          42.000  
R11  20755600.012   110911826.843         512.175          50.000  
R 1  20644752.159   110358228.808        -637.805          47.000  
G15  23010525.525   120921223.600        2589.628          47.000  
R 8  21175554.348   113394247.767       -3760.518          44.000  
R20  21369857.799   114274316.293        -183.403          43.000  
R21  21337663.430   114182196.865        3065.545          46.000  
R10  21140845.782   112692667.120       -1527.319          44.000  
S20  37796757.286   198623315.651        -199.539          40.000  
> 2017 11 25 12 49 35.3989999  0 19                     
G 5  23706602.251   124579056.971       -2608.289          45.000  
G 7  24240406.191   127384235.629       -2598.965          45.000  
G13  20687139.493   108711824.332        1161.505          44.000  
R12  23683908.114   126515167.574        1745.986          41.000  
G17  20777023.051   109184192.506        1725.172          51.000  
G19  21938534.707   115287899.196        2411.667          45.000  
G20  24421341.636   128335182.401       -1055.478          44.000  
G28  20497598.368   107715777.498       -2428.168          45.000  
G30  21920835.126   115194925.956       -1774.664          47.000  
R 2  23568425.947   125765826.878        2825.171          32.000  
S38  39309918.610   206575019.087        -273.810          43.000  
R11  20755580.887   110911724.508         510.936          49.000  
R 1  20644776.101   110358356.430        -638.702          47.000  
G15  23010426.722   120920705.806        2588.534          47.000  
R 8  21175694.858   113394999.945       -3760.980          44.000  
R20  21369864.675   114274353.026        -183.949          43.000  
R21  21337548.607   114181583.750        3064.876          45.000  
R10  21140903.158   112692972.672       -1528.044          43.000  
S20  37796764.790   198623355.527        -199.655          40.000  
> 2017 11 25 12 49 35.5989999  0 19                     
G 5  23706701.333   124579578.672       -2608.917          45.000  
G 7  24240505.099   127384755.334       -2597.797          44.000  
G13  20687095.134   108711592.038        1161.665          42.000  
R12  23683842.710   126514818.516        1745.940          39.000  
G17  20776957.369   109183847.449        1725.431          50.000  
G19  21938442.884   115287416.822        2412.362          45.000  
G20  24421381.771   128335393.597       -1055.596          44.000  
G28  20497690.924   107716263.149       -2427.997          45.000  
G30  21920902.623   115195280.773       -1773.866          46.000  
R 2  23568318.419   125765262.018        2822.827          32.000  
S38  39309928.906   206575073.868        -273.778          43.000  
R11  20755561.726   110911622.247         511.730          48.000  
R 1  20644800.008   110358484.164        -638.306          47.000  
G15  23010327.953   120920188.071        2588.608          47.000  
R 8  21175835.192   113395752.207       -3760.840          46.000  
R20  21369871.550   114274389.697        -182.688          42.000  
R21  21337434.169   114180970.670        3066.454          46.000  
R10  21140960.395   112693278.213       -1527.574          43.000  
S20  37796772.468   198623395.360        -198.395          40.000  
> 2017 11 25 12 49 35.7989999  0 19                     
G 5  23706800.625   124580100.381       -2608.882          46.000  
G 7  24240603.937   127385275.064       -2598.457          43.000  
G13  20687050.845   108711359.764        1161.043          43.000  
R12  23683777.342   126514469.429        1745.534          39.000  
G17  20776891.616   109183502.398        1725.000          50.000  
G19  21938351.061   115286934.419        2411.483          45.000  
G20  24421422.151   128335604.820       -1056.226          45.000  
G28  20497783.341   107716748.809       -2428.491          45.000  
G30  21920970.156   115195635.640       -1774.634          47.000  
R 2  23568208.483   125764697.072        2825.141          39.000  
S38  39309939.376   206575128.710        -274.393          43.000  
R11  20755542.706   110911519.980         511.101          49.000  
R 1  20644823.915   110358611.990        -639.270          47.000  
G15  23010229.464   120919670.345        2588.696          49.000  
R 8  21175975.701   113396504.552       -3762.744          44.000  
R20  21369878.460   114274426.473        -184.026          43.000  
R21  21337319.800   114180357.640        3064.507          47.000  
R10  21141017.771   112693583.804       -1528.113          43.000  
S20  37796780.041   198623435.231        -200.202          40.000  
> 2017 11 25 12 49 35.9989999  0 19                     
G 5  23706899.812   124580622.166       -2608.834          46.000  
G 7  24240702.845   127385794.730       -2598.219          44.000  
G13  20687006.731   108711127.568        1161.146          44.000  
R12  23683711.973   126514120.468        1744.712          37.000  
G17  20776825.829   109183157.395        1725.383          51.000  
G19  21938259.203   115286452.015        2411.754          45.000  
G20  24421462.461   128335816.092       -1056.418          45.000  
G28  20497875.618   107717234.437       -2427.899          45.000  
G30  21921037.653   115195990.443       -1773.764          46.000  
R 2  23568104.968   125764132.260        2824.548          41.000  
S38  39309949.776   206575183.544        -274.231          43.000  
R11  20755523.580   110911417.740         511.247          49.000  
R 1  20644847.891   110358739.901        -639.648          47.000  
G15  23010130.975   120919152.718        2588.521          49.000  
R 8  21176116.245   113397256.865       -3761.419          44.000  
R20  21369885.196   114274463.166        -183.659          42.000  
R21  21337205.361   114179744.541        3064.911          47.000  
R10  21141075.008   112693889.274       -1527.191          43.000  
S20  37796787.650   198623474.983        -198.271          40.000  
> 2017 11 25 12 49 36.1989999  0 19                     
G 5  23706999.139   124581143.889       -2608.208          46.000  
G 7  24240801.718   127386314.460       -2598.904          44.000  
G13  20686962.617   108710895.382        1160.897          43.000  
R12  23683646.430   126513771.499        1744.937          37.000  
G17  20776760.460   109182812.464        1724.057          51.000  
G19  21938167.520   115285969.644        2411.818          45.000  
G20  24421502.667   128336027.384       -1056.390          44.000  
G28  20497968.069   107717720.137       -2429.132          45.000  
G30  21921105.255   115196345.348       -1775.292          47.000  
R 2  23568003.478   125763567.419        2824.146          42.000  
S38  39309960.107   206575238.398        -273.321          42.000  
R11  20755504.699   110911315.567         511.144          50.000  
R 1  20644871.868   110358867.817        -639.813          47.000  
G15  23010032.521   120918635.089        2588.028          47.000  
R 8  21176256.789   113398009.244       -3761.641          44.000  
R20  21369892.037   114274499.978        -184.590          42.000  
R21  21337090.748   114179131.505        3064.539          46.000  
R10  21141132.280   112694194.871       -1528.104          44.000  
S20  37796795.223   198623514.858        -199.354          40.000  
> 2017 11 25 12 49 36.3989999  0 20                     
G 5  23707098.186   124581665.749       -2609.218          46.000  
G11  25310580.860                1      -1295.481          35.000  
G 7  24240900.696   127386834.274       -2599.053          44.000  
G13  20686918.328   108710663.304        1160.291          43.000  
R12  23683580.852   126513422.484        1743.639          39.000  
G17  20776695.022   109182467.541        1724.158          51.000  
G19  21938075.732   115285487.395        2410.999          45.000  
G20  24421543.011   128336238.733       -1057.210          44.000  
G28  20498060.450   107718205.933       -2429.498          45.000  
G30  21921172.822   115196700.268       -1774.771          47.000  
R 2  23567896.054   125763002.643        2824.207          42.000  
S38  39309970.368   206575293.345        -274.748          43.000  
R11  20755485.504   110911213.440         509.947          49.000  
R 1  20644895.844   110358995.803        -640.375          47.000  
G15  23009934.207   120918117.515        2587.792          47.000  
R 8  21176397.264   113398761.673       -3761.979          44.000  
R20  21369899.121   114274536.933        -184.736          42.000  
R21  21336976.170   114178518.579        3064.136          45.000  
R10  21141189.621   112694500.504       -1528.374          43.000  
S20  37796802.901   198623554.800        -200.262          40.000  
> 2017 11 25 12 49 36.5989999  0 20                     
G 5  23707197.617   124582187.554       -2608.927          46.000  
G11  25310631.186                1      -1295.481          35.000  
G 7  24240999.708   127387354.178       -2599.520          45.000  
G13  20686874.249   108710431.263        1160.138          43.000  
R12  23683515.449   126513073.464        1745.013          38.000  
G17  20776629.409   109182122.767        1724.375          50.000  
G19  21937983.734   115285005.223        2410.863          45.000  
G20  24421583.182   128336450.076       -1055.931          43.000  
G28  20498152.727   107718691.693       -2428.821          45.000  
G30  21921240.425   115197055.316       -1775.311          47.000  
R 2  23567786.327   125762437.913        2823.315          41.000  
S38  39309980.803   206575348.224        -274.300          43.000  
R11  20755466.518   110911111.247         511.016          49.000  
R 1  20644919.856   110359123.818        -639.478          47.000  
G15  23009835.683   120917599.932        2588.090          47.000  
R 8  21176537.773   113399514.187       -3761.962          44.000  
R20  21369905.997   114274573.962        -185.387          42.000  
R21  21336861.557   114177905.706        3064.974          44.000  
R10  21141246.893   112694806.155       -1528.705          44.000  
S20  37796810.509   198623594.783        -199.866          40.000  
> 2017 11 25 12 49 36.7989999  0 20                     
G 5  23707296.909   124582709.357       -2609.699          46.000  
G11  25310678.302                1      -1294.141          35.000  
G 7  24241098.651   127387874.054       -2599.089          45.000  
G13  20686830.100   108710199.184        1160.272          43.000  
R12  23683450.080   126512724.444        1744.183          39.000  
G17  20776563.552   109181777.985        1723.402          50.000  
G19  21937891.911   115284522.971        2411.179          45.000  
G20  24421623.352   128336661.428       -1056.742          43.000  
G28  20498245.492   107719177.525       -2429.181          46.000  
G30  21921308.027   115197410.318       -1775.392          47.000  
R 2  23567681.033   125761873.131        2823.401          41.000  
S38  39309991.203   206575403.125        -274.831          43.000  
R11  20755447.462   110911009.087         510.859          49.000  
R 1  20644943.728   110359251.870        -640.851          46.000  
G15  23009737.089   120917082.315        2587.634          47.000  
R 8  21176678.317   113400266.630       -3763.132          44.000  
R20  21369912.872   114274611.016        -185.459          42.000  
R21  21336746.944   114177292.861        3064.107          45.000  
R10  21141304.304   112695111.783       -1528.072          44.000  
S20  37796818.048   198623634.785        -200.304          40.000  
