     3.01           OBSERVATION DATA    M: Mixed            RINEX VERSION / TYPE
CONVBIN 2.4.3 Emlid                     20171125 153440 UTC PGM / RUN BY / DATE 
log: /home/reach/logs/rov_201711251257.ubx                  COMMENT             
format: u-blox                                              COMMENT             
                                                            MARKER NAME         
                                                            MARKER NUMBER       
                                                            MARKER TYPE         
                                                            OBSERVER / AGENCY   
                                                            REC # / TYPE / VERS 
                                                            ANT # / TYPE        
  3463722.8789 -4304293.5790 -3176347.0761                  APPROX POSITION XYZ 
        0.0000        0.0000        0.0000                  ANTENNA: DELTA H/E/N
G    4 C1C L1C D1C S1C                                      SYS / # / OBS TYPES 
R    4 C1C L1C D1C S1C                                      SYS / # / OBS TYPES 
E    4 C1C L1C D1C S1C                                      SYS / # / OBS TYPES 
J    4 C1C L1C D1C S1C                                      SYS / # / OBS TYPES 
S    4 C1C L1C D1C S1C                                      SYS / # / OBS TYPES 
C    4 C1I L1I D1I S1I                                      SYS / # / OBS TYPES 
  2017    11    25    12    57   13.9999999     GPS         TIME OF FIRST OBS   
  2017    11    25    12    59   35.3999998     GPS         TIME OF LAST OBS    
                                                            END OF HEADER       
> 2017 11 25 12 57 13.9999999  0 19                     
G 5  23936578.531   125787625.862       -2632.092          45.000  
G 7  24470288.275   128592243.791       -2638.993          42.000  
G13  20597198.662   108239212.820         924.627          45.000  
R12  23534822.842   125718873.581        1754.718          37.000  
G17  20639419.255   108461117.862        1454.430          51.000  
G19  21736268.082   114225015.360        2248.590          44.000  
G20  24521293.202   128860464.186       -1206.387          37.000  
G28  20716208.728   108864617.979       -2550.079          47.000  
G30  22080416.460   116033382.296       -1853.629          42.000  
R 2  23337117.867   124531284.786        2581.011          39.000  
S38  39334316.842   206703279.167        -259.625          41.000  
R11  20714204.745   110690654.755         481.061          48.000  
R 1  20716821.524   110743528.751       -1012.299          45.000  
G15  22792130.431   119773592.381        2437.130          48.000  
R 8  21506181.565   115164776.350       -3923.379          47.000  
R20  21403425.038   114453859.970        -569.089          39.000  
R21  21084485.166   112827376.731        2864.521          45.000  
R10  21273858.985   113401691.925       -1533.718          41.000  
S20  37814968.648   198719007.803        -188.417          40.000  
> 2017 11 25 12 57 14.3999999  0 19                     
G 5  23936778.824   125788678.724       -2631.964          45.000  
G 7  24470489.057   128593299.578       -2639.487          42.000  
G13  20597128.442   108238843.108         924.151          45.000  
R12  23534691.476   125718171.814        1754.517          38.000  
G17  20639308.760   108460536.248        1453.961          50.000  
G19  21736096.721   114224116.031        2248.218          43.000  
G20  24521385.026   128860946.908       -1206.876          37.000  
G28  20716402.775   108865638.023       -2550.232          48.000  
G30  22080557.457   116034123.756       -1853.611          41.000  
R 2  23336924.379   124530252.491        2580.629          39.000  
S38  39334336.386   206703382.994        -259.414          41.000  
R11  20714168.449   110690462.427         480.756          48.000  
R 1  20716897.676   110743933.822       -1012.940          45.000  
G15  22791945.144   119772617.551        2436.964          48.000  
R 8  21506474.659   115166345.747       -3923.380          47.000  
R20  21403467.617   114454087.756        -569.740          38.000  
R21  21084270.982   112826231.033        2864.368          44.000  
R10  21273974.401   113402305.446       -1533.943          41.000  
S20  37814982.992   198719083.261        -188.365          40.000  
> 2017 11 25 12 57 14.5999999  0 19                     
G 5  23936878.954   125789205.163       -2632.074          45.000  
G 7  24470589.396   128593827.457       -2639.214          42.000  
G13  20597093.298   108238658.269         924.249          45.000  
R12  23534625.864   125717820.929        1754.449          38.000  
G17  20639253.512   108460245.459        1453.960          50.000  
G19  21736011.005   114223666.367        2248.230          44.000  
G20  24521430.920   128861188.278       -1207.052          37.000  
G28  20716499.763   108866148.053       -2550.244          48.000  
G30  22080628.026   116034494.473       -1853.387          43.000  
R 2  23336827.600   124529736.364        2580.463          39.000  
S38  39334346.263   206703434.873        -259.247          41.000  
R11  20714150.580   110690366.252         480.847          49.000  
R 1  20716935.718   110744136.384       -1012.744          45.000  
G15  22791852.519   119772130.142        2437.002          48.000  
R 8  21506621.206   115167130.459       -3923.335          47.000  
R20  21403488.976   114454201.682        -569.348          38.000  
R21  21084164.047   112825658.215        2864.124          44.000  
R10  21274031.951   113402612.194       -1533.920          41.000  
S20  37814989.972   198719120.988        -188.645          40.000  
> 2017 11 25 12 57 14.7999999  0 19                     
G 5  23936979.048   125789731.610       -2632.123          45.000  
G 7  24470689.944   128594355.337       -2639.015          42.000  
G13  20597058.013   108238473.462         924.183          45.000  
R12  23534560.146   125717470.025        1754.745          38.000  
G17  20639198.125   108459954.710        1453.957          50.000  
G19  21735925.359   114223216.737        2248.311          44.000  
G20  24521476.918   128861429.666       -1206.718          37.000  
G28  20716596.716   108866658.093       -2549.915          48.000  
G30  22080698.630   116034865.249       -1853.885          42.000  
R 2  23336731.030   124529220.273        2580.411          39.000  
S38  39334356.105   206703486.778        -259.214          41.000  
R11  20714132.536   110690270.088         480.951          49.000  
R 1  20716973.655   110744339.017       -1013.037          45.000  
G15  22791759.683   119771642.764        2436.943          48.000  
R 8  21506767.857   115167915.200       -3923.419          47.000  
R20  21403510.265   114454315.688        -570.051          38.000  
R21  21084057.042   112825085.414        2864.109          44.000  
R10  21274089.502   113402918.962       -1533.819          41.000  
S20  37814997.126   198719158.685        -187.782          40.000  
> 2017 11 25 12 57 14.9999999  0 19                     
G 5  23937079.143   125790258.057       -2632.373          45.000  
G 7  24470790.492   128594883.248       -2639.492          42.000  
G13  20597022.799   108238288.684         923.926          44.000  
R12  23534494.498   125717119.146        1754.449          38.000  
G17  20639142.704   108459663.984        1453.544          50.000  
G19  21735839.714   114222767.130        2248.006          44.000  
G20  24521522.812   128861671.047       -1206.692          37.000  
G28  20716693.775   108867168.168       -2550.299          48.000  
G30  22080769.268   116035235.993       -1853.819          42.000  
R 2  23336634.286   124528704.185        2580.360          39.000  
S38  39334365.842   206703538.672        -259.127          41.000  
R11  20714114.388   110690173.927         480.872          49.000  
R 1  20717011.731   110744541.660       -1013.312          45.000  
G15  22791666.778   119771155.396        2436.963          48.000  
R 8  21506914.334   115168699.951       -3923.811          47.000  
R20  21403531.624   114454429.686        -570.171          38.000  
R21  21083950.037   112824512.627        2863.988          44.000  
R10  21274147.088   113403225.704       -1533.699          41.000  
S20  37815004.176   198719196.418        -188.534          40.000  
> 2017 11 25 12 57 15.1999999  0 19                     
G 5  23937179.202   125790784.500       -2632.404          45.000  
G 7  24470890.901   128595411.155       -2639.548          42.000  
G13  20596987.689   108238103.926         923.550          44.000  
R12  23534428.816   125716768.256        1754.801          38.000  
G17  20639087.351   108459373.289        1453.286          50.000  
G19  21735754.103   114222317.531        2248.087          44.000  
G20  24521568.811   128861912.467       -1206.805          37.000  
G28  20716790.972   108867678.240       -2550.421          48.000  
G30  22080839.802   116035606.764       -1853.828          42.000  
R 2  23336537.612   124528188.147        2580.086          39.000  
S38  39334375.719   206703590.561        -259.266          41.000  
R11  20714096.310   110690077.768         480.688          49.000  
R 1  20717049.947   110744744.341       -1013.513          45.000  
G15  22791573.943   119770668.049        2436.813          48.000  
R 8  21507060.846   115169484.717       -3923.909          47.000  
R20  21403552.913   114454543.707        -569.894          38.000  
R21  21083843.102   112823939.862        2863.947          45.000  
R10  21274204.569   113403532.459       -1533.750          41.000  
S20  37815011.226   198719234.130        -188.577          40.000  
> 2017 11 25 12 57 15.3999999  0 19                     
G 5  23937279.192   125791310.887       -2631.763          44.000  
G 7  24470991.275   128595938.984       -2639.020          42.000  
G13  20596952.370   108237919.131         924.017          44.000  
R12  23534363.238   125716417.361        1754.577          38.000  
G17  20639031.895   108459082.549        1453.785          50.000  
G19  21735668.492   114221867.890        2248.299          44.000  
G20  24521614.740   128862153.851       -1206.680          37.000  
G28  20716888.100   108868188.253       -2549.915          48.000  
G30  22080910.266   116035977.477       -1853.475          42.000  
R 2  23336440.903   124527672.046        2580.555          39.000  
S38  39334385.596   206703642.409        -259.034          41.000  
R11  20714078.266   110689981.541         481.354          48.000  
R 1  20717087.919   110744946.993       -1013.098          45.000  
G15  22791481.248   119770180.660        2436.866          48.000  
R 8  21507207.358   115170269.432       -3923.441          47.000  
R20  21403574.272   114454657.754        -569.816          38.000  
R21  21083736.132   112823367.070        2864.077          45.000  
R10  21274262.189   113403839.164       -1533.383          41.000  
S20  37815018.276   198719271.789        -188.066          40.000  
> 2017 11 25 12 57 15.5999999  0 19                     
G 5  23937379.252   125791837.304       -2632.233          45.000  
G 7  24471091.648   128596466.864       -2639.474          42.000  
G13  20596917.260   108237734.373         923.581          45.000  
R12  23534297.555   125716066.425        1754.360          38.000  
G17  20638976.577   108458791.866        1453.220          50.000  
G19  21735583.056   114221418.283        2247.930          44.000  
G20  24521660.844   128862395.250       -1207.288          37.000  
G28  20716985.158   108868698.300       -2550.360          48.000  
G30  22080980.730   116036348.220       -1853.890          43.000  
R 2  23336344.194   124527156.028        2580.139          38.000  
S38  39334395.472   206703694.253        -259.353          41.000  
R11  20714059.943   110689885.345         480.792          48.000  
R 1  20717125.960   110745149.707       -1013.763          45.000  
G15  22791388.517   119769693.287        2436.935          48.000  
R 8  21507354.010   115171054.172       -3923.848          47.000  
R20  21403595.771   114454771.826        -570.640          38.000  
R21  21083629.023   112822794.314        2863.471          45.000  
R10  21274319.671   113404145.892       -1533.738          41.000  
S20  37815025.465   198719309.466        -188.281          40.000  
> 2017 11 25 12 57 15.7999999  0 19                     
G 5  23937479.241   125792363.702       -2631.946          45.000  
G 7  24471192.127   128596994.736       -2639.414          42.000  
G13  20596882.150   108237549.633         923.563          45.000  
R12  23534231.803   125715715.489        1754.570          38.000  
G17  20638921.400   108458501.192        1453.085          50.000  
G19  21735497.445   114220968.697        2247.686          44.000  
G20  24521706.738   128862636.652       -1206.816          37.000  
G28  20717082.147   108869208.349       -2550.226          48.000  
G30  22081051.334   116036718.978       -1853.871          43.000  
R 2  23336247.485   124526640.007        2579.801          38.000  
S38  39334405.454   206703746.091        -259.370          41.000  
R11  20714041.970   110689789.136         480.859          48.000  
R 1  20717164.037   110745352.423       -1013.776          45.000  
G15  22791295.682   119769205.946        2436.670          48.000  
R 8  21507500.522   115171838.928       -3923.910          47.000  
R20  21403617.270   114454885.938        -570.988          38.000  
R21  21083521.948   112822221.550        2863.761          45.000  
R10  21274377.256   113404452.605       -1533.656          41.000  
S20  37815032.655   198719347.129        -188.207          40.000  
> 2017 11 25 12 57 15.9999999  0 19                     
G 5  23937579.440   125792890.121       -2632.019          45.000  
G 7  24471292.465   128597522.611       -2639.471          42.000  
G13  20596847.005   108237364.921         923.559          45.000  
R12  23534166.085   125715364.541        1754.965          38.000  
G17  20638866.083   108458210.551        1453.192          50.000  
G19  21735411.765   114220519.110        2247.950          44.000  
G20  24521752.702   128862878.086       -1206.704          37.000  
G28  20717179.414   108869718.431       -2550.366          47.000  
G30  22081121.902   116037089.732       -1854.003          42.000  
R 2  23336150.671   124526124.040        2579.523          38.000  
S38  39334415.226   206703797.955        -259.268          41.000  
R11  20714023.787   110689692.952         480.914          48.000  
R 1  20717202.218   110745555.186       -1013.605          45.000  
G15  22791203.126   119768718.619        2436.768          48.000  
R 8  21507646.964   115172623.705       -3923.881          46.000  
R20  21403638.524   114455000.071        -570.928          38.000  
R21  21083415.014   112821648.838        2863.542          45.000  
R10  21274434.877   113404759.330       -1533.509          41.000  
S20  37815039.914   198719384.786        -188.348          40.000  
> 2017 11 25 12 57 16.1999999  0 19                     
G 5  23937679.605   125793416.519       -2631.976          45.000  
G 7  24471392.874   128598050.471       -2639.353          42.000  
G13  20596811.756   108237180.202         923.534          45.000  
R12  23534100.298   125715013.592        1754.687          38.000  
G17  20638810.731   108457919.906        1453.204          50.000  
G19  21735326.363   114220069.532        2247.931          44.000  
G20  24521798.526   128863119.514       -1207.029          37.000  
G28  20717276.402   108870228.507       -2550.385          48.000  
G30  22081192.401   116037460.464       -1853.542          42.000  
R 2  23336053.822   124525608.059        2579.790          38.000  
S38  39334425.242   206703849.807        -259.452          41.000  
R11  20714005.743   110689596.745         481.042          48.000  
R 1  20717240.224   110745757.969       -1013.855          45.000  
G15  22791110.570   119768231.288        2436.482          48.000  
R 8  21507793.337   115173408.467       -3923.698          46.000  
R20  21403659.813   114455114.231        -570.850          38.000  
R21  21083308.183   112821076.118        2863.562          45.000  
R10  21274492.463   113405066.047       -1533.591          41.000  
S20  37815046.964   198719422.417        -188.053          40.000  
> 2017 11 25 12 57 16.3999999  0 19                     
G 5  23937779.699   125793942.905       -2631.799          45.000  
G 7  24471493.248   128598578.337       -2639.349          42.000  
G13  20596776.681   108236995.518         923.356          45.000  
R12  23534034.580   125714662.650        1754.644          38.000  
G17  20638755.378   108457629.311        1452.965          50.000  
G19  21735240.927   114219619.966        2247.764          44.000  
G20  24521844.455   128863360.934       -1207.075          37.000  
G28  20717373.426   108870738.568       -2550.403          48.000  
G30  22081263.040   116037831.212       -1853.833          42.000  
R 2  23335957.183   124525092.092        2579.840          40.000  
S38  39334435.119   206703901.650        -259.475          41.000  
R11  20713987.874   110689500.549         480.829          49.000  
R 1  20717278.405   110745960.796       -1014.032          46.000  
G15  22791017.840   119767743.965        2436.557          48.000  
R 8  21507939.884   115174193.255       -3924.003          47.000  
R20  21403681.207   114455228.425        -570.950          38.000  
R21  21083201.109   112820503.413        2863.442          45.000  
R10  21274549.909   113405372.741       -1533.498          41.000  
S20  37815054.084   198719460.056        -188.172          40.000  
> 2017 11 25 12 57 16.5999999  0 19                     
G 5  23937879.759   125794469.303       -2631.824          45.000  
G 7  24471593.621   128599106.196       -2639.117          42.000  
G13  20596741.501   108236810.843         923.549          45.000  
R12  23533968.828   125714311.692        1754.983          37.000  
G17  20638700.131   108457338.727        1452.831          50.000  
G19  21735155.351   114219170.415        2247.715          44.000  
G20  24521890.349   128863602.359       -1206.941          37.000  
G28  20717470.484   108871248.624       -2549.902          48.000  
G30  22081333.678   116038201.961       -1853.634          43.000  
R 2  23335860.544   124524576.156        2579.674          40.000  
S38  39334445.101   206703953.469        -259.142          41.000  
R11  20713969.831   110689404.336         481.073          49.000  
R 1  20717316.412   110746163.632       -1014.008          46.000  
G15  22790924.865   119767256.656        2436.635          48.000  
R 8  21508086.431   115174978.042       -3923.932          47.000  
R20  21403702.636   114455342.620        -570.786          38.000  
R21  21083094.174   112819930.724        2863.399          45.000  
R10  21274607.564   113405679.451       -1533.238          41.000  
S20  37815061.308   198719497.666        -187.881          40.000  
> 2017 11 25 12 57 16.7999999  0 19                     
G 5  23937979.993   125794995.725       -2632.208          45.000  
G 7  24471694.274   128599634.085       -2639.781          42.000  
G13  20596706.322   108236626.227         922.615          45.000  
R12  23533903.006   125713960.794        1754.302          37.000  
G17  20638644.814   108457048.184        1452.408          50.000  
G19  21735069.845   114218720.908        2247.219          44.000  
G20  24521936.278   128863843.853       -1207.102          36.000  
G28  20717567.437   108871758.757       -2550.684          47.000  
G30  22081404.317   116038572.751       -1854.123          43.000  
R 2  23335763.939   124524060.284        2578.953          40.000  
S38  39334454.978   206704005.320        -259.452          41.000  
R11  20713951.682   110689308.160         480.749          48.000  
R 1  20717354.488   110746366.544       -1014.606          45.000  
G15  22790832.065   119766769.393        2436.026          48.000  
R 8  21508233.082   115175762.879       -3924.491          47.000  
R20  21403723.925   114455456.919        -571.744          38.000  
R21  21082987.309   112819358.073        2862.972          45.000  
R10  21274665.220   113405986.162       -1533.879          41.000  
S20  37815068.358   198719535.329        -188.671          40.000  
> 2017 11 25 12 57 16.9999999  0 19                     
G 5  23938080.122   125795522.160       -2632.092          45.000  
G 7  24471794.718   128600161.986       -2639.419          42.000  
G13  20596671.072   108236441.626         923.072          45.000  
R12  23533837.288   125713609.881        1754.844          37.000  
G17  20638589.567   108456757.682        1452.348          50.000  
G19  21734984.269   114218271.422        2247.483          44.000  
G20  24521982.207   128864085.359       -1207.290          36.000  
G28  20717664.670   108872268.897       -2550.507          48.000  
G30  22081474.885   116038943.563       -1853.939          43.000  
R 2  23335667.230   124523544.436        2579.229          40.000  
S38  39334464.959   206704057.190        -259.244          41.000  
R11  20713933.569   110689212.002         480.865          48.000  
R 1  20717392.390   110746569.501       -1014.636          45.000  
G15  22790739.264   119766282.142        2436.160          48.000  
R 8  21508379.699   115176547.728       -3924.221          47.000  
R20  21403745.250   114455571.243        -571.637          38.000  
R21  21082880.199   112818785.452        2863.157          45.000  
R10  21274722.805   113406292.914       -1533.545          41.000  
S20  37815075.513   198719572.937        -188.013          40.000  
> 2017 11 25 12 57 17.1999999  0 19                     
G 5  23938180.356   125796048.549       -2631.995          45.000  
G 7  24471895.021   128600689.867       -2639.506          42.000  
G13  20596635.823   108236257.022         922.942          45.000  
R12  23533771.501   125713258.910        1754.784          37.000  
G17  20638534.180   108456467.151        1452.753          50.000  
G19  21734898.658   114217821.908        2247.612          44.000  
G20  24522028.101   128864326.857       -1207.550          36.000  
G28  20717761.658   108872778.994       -2550.751          48.000  
G30  22081545.419   116039314.332       -1853.892          43.000  
R 2  23335570.591   124523028.555        2579.355          40.000  
S38  39334474.766   206704108.983        -258.949          41.000  
R11  20713915.525   110689115.803         480.963          49.000  
R 1  20717430.292   110746772.437       -1014.722          45.000  
G15  22790646.464   119765794.863        2436.420          48.000  
R 8  21508526.316   115177332.545       -3924.156          47.000  
R20  21403766.539   114455685.570        -571.797          38.000  
R21  21082773.334   112818212.832        2862.944          45.000  
R10  21274780.461   113406599.635       -1533.925          41.000  
S20  37815082.632   198719610.522        -187.614          40.000  
> 2017 11 25 12 57 17.3999999  0 19                     
G 5  23938280.695   125796574.979       -2632.184          45.000  
G 7  24471995.500   128601217.750       -2639.440          42.000  
G13  20596600.643   108236072.446         922.932          45.000  
R12  23533705.748   125712907.978        1754.866          36.000  
G17  20638478.723   108456176.678        1452.146          50.000  
G19  21734813.083   114217372.431        2247.401          44.000  
G20  24522073.995   128864568.376       -1207.318          36.000  
G28  20717858.786   108873289.122       -2550.574          48.000  
G30  22081616.092   116039685.130       -1853.922          43.000  
R 2  23335473.952   124522512.731        2578.987          40.000  
S38  39334484.748   206704160.809        -258.994          41.000  
R11  20713897.482   110689019.629         480.725          49.000  
R 1  20717468.438   110746975.409       -1014.954          45.000  
G15  22790553.664   119765307.636        2436.102          48.000  
R 8  21508672.967   115178117.397       -3924.291          47.000  
R20  21403787.933   114455799.930        -571.902          38.000  
R21  21082666.329   112817640.236        2862.795          45.000  
R10  21274838.116   113406906.353       -1533.617          41.000  
S20  37815089.717   198719648.138        -187.991          40.000  
> 2017 11 25 12 57 17.5999999  0 19                     
G 5  23938380.859   125797101.424       -2632.068          44.000  
G 7  24472095.873   128601745.691       -2639.556          42.000  
G13  20596565.359   108235887.938         922.565          45.000  
R12  23533640.205   125712557.088        1754.215          36.000  
G17  20638423.440   108455886.260        1452.075          50.000  
G19  21734727.332   114216923.017        2247.042          44.000  
G20  24522119.819   128864809.942       -1208.256          36.000  
G28  20717955.879   108873799.305       -2550.757          48.000  
G30  22081686.731   116040055.975       -1854.059          43.000  
R 2  23335377.208   124521996.963        2578.869          40.000  
S38  39334494.694   206704212.656        -259.203          41.000  
R11  20713879.264   110688923.487         480.823          48.000  
R 1  20717506.724   110747178.479       -1015.503          45.000  
G15  22790460.864   119764820.447        2435.920          48.000  
R 8  21508819.584   115178902.303       -3924.398          47.000  
R20  21403809.292   114455914.387        -572.322          38.000  
R21  21082559.394   112817067.685        2862.939          45.000  
R10  21274895.667   113407213.098       -1533.875          41.000  
S20  37815096.697   198719685.785        -188.119          40.000  
> 2017 11 25 12 57 17.7999999  0 19                     
G 5  23938480.919   125797627.873       -2632.220          44.000  
G 7  24472196.247   128602273.622       -2639.672          42.000  
G13  20596530.214   108235703.439         922.200          45.000  
R12  23533574.488   125712206.185        1754.109          36.000  
G17  20638368.158   108455595.848        1451.779          50.000  
G19  21734641.652   114216473.576        2247.042          43.000  
G20  24522165.713   128865051.482       -1207.861          35.000  
G28  20718053.007   108874309.485       -2550.891          48.000  
G30  22081757.265   116040426.807       -1854.230          43.000  
R 2  23335280.498   124521481.197        2578.462          40.000  
S38  39334504.466   206704264.479        -259.266          41.000  
R11  20713861.220   110688827.343         480.670          48.000  
R 1  20717544.731   110747381.555       -1015.656          45.000  
G15  22790368.063   119764333.264        2435.696          47.000  
R 8  21508966.096   115179687.215       -3924.714          46.000  
R20  21403830.756   114456028.837        -572.269          38.000  
R21  21082452.390   112816495.164        2862.460          44.000  
R10  21274953.183   113407519.847       -1533.900          41.000  
S20  37815103.852   198719723.441        -188.269          40.000  
> 2017 11 25 12 57 17.9999999  0 19                     
G 5  23938581.083   125798154.361       -2632.452          44.000  
G 7  24472296.586   128602801.581       -2639.911          42.000  
G13  20596495.069   108235518.994         922.260          45.000  
R12  23533508.875   125711855.265        1754.540          36.000  
G17  20638312.806   108455305.504        1451.758          50.000  
G19  21734556.041   114216024.225        2246.695          43.000  
G20  24522211.573   128865293.117       -1207.765          35.000  
G28  20718150.309   108874819.721       -2551.398          48.000  
G30  22081827.868   116040797.688       -1854.386          43.000  
R 2  23335183.859   124520965.502        2578.637          40.000  
S38  39334514.273   206704316.329        -259.233          41.000  
R11  20713843.212   110688731.251         480.560          49.000  
R 1  20717582.772   110747584.701       -1015.888          45.000  
G15  22790275.298   119763846.136        2435.645          47.000  
R 8  21509112.538   115180472.177       -3924.707          46.000  
R20  21403852.115   114456143.380        -572.379          37.000  
R21  21082345.420   112815922.689        2862.201          44.000  
R10  21275010.804   113407826.631       -1533.802          41.000  
S20  37815111.006   198719761.133        -188.723          40.000  
> 2017 11 25 12 57 18.1999999  0 19                     
G 5  23938681.317   125798680.865       -2632.690          44.000  
G 7  24472397.134   128603329.578       -2640.116          42.000  
G13  20596459.960   108235334.598         921.793          45.000  
R12  23533443.158   125711504.404        1754.621          36.000  
G17  20638257.803   108455015.219        1451.212          50.000  
G19  21734470.500   114215574.892        2246.502          43.000  
G20  24522257.641   128865534.758       -1208.392          35.000  
G28  20718247.367   108875329.975       -2551.282          48.000  
G30  22081898.472   116041168.593       -1854.520          43.000  
R 2  23335087.220   124520449.870        2577.779          39.000  
S38  39334524.185   206704368.208        -259.520          41.000  
R11  20713825.168   110688635.181         480.048          49.000  
R 1  20717620.779   110747787.912       -1016.028          45.000  
G15  22790182.498   119763359.056        2435.343          47.000  
R 8  21509259.120   115181257.179       -3925.052          46.000  
R20  21403873.474   114456257.973        -572.961          37.000  
R21  21082238.380   112815350.256        2861.982          45.000  
R10  21275068.285   113408133.438       -1533.961          41.000  
S20  37815118.335   198719798.853        -188.728          40.000  
> 2017 11 25 12 57 18.3999999  0 19                     
G 5  23938781.621   125799207.403       -2632.678          44.000  
G 7  24472497.543   128603857.603       -2640.142          42.000  
G13  20596425.059   108235150.261         921.741          45.000  
R12  23533377.615   125711153.585        1754.627          36.000  
G17  20638202.346   108454724.985        1451.104          50.000  
G19  21734384.994   114215125.618        2246.406          44.000  
G20  24522303.570   128865776.470       -1208.677          35.000  
G28  20718344.600   108875840.285       -2551.678          48.000  
G30  22081969.075   116041539.547       -1854.702          43.000  
R 2  23334990.685   124519934.262        2578.007          40.000  
S38  39334534.062   206704420.085        -259.337          41.000  
R11  20713807.334   110688539.141         480.151          49.000  
R 1  20717658.750   110747991.196       -1016.577          45.000  
G15  22790089.837   119762872.002        2435.347          48.000  
R 8  21509405.667   115182042.223       -3925.277          46.000  
R20  21403894.972   114456372.657        -573.395          37.000  
R21  21082131.410   112814777.872        2861.976          45.000  
R10  21275125.905   113408440.292       -1534.312          41.000  
S20  37815125.385   198719836.602        -188.822          40.000  
> 2017 11 25 12 57 18.5999999  0 19                     
G 5  23938881.750   125799733.951       -2632.739          45.000  
G 7  24472598.091   128604385.649       -2640.200          42.000  
G13  20596389.914   108234965.930         921.741          45.000  
R12  23533311.827   125710802.754        1754.121          36.000  
G17  20638146.994   108454434.774        1451.031          50.000  
G19  21734299.453   114214676.345        2246.499          44.000  
G20  24522349.569   128866018.137       -1208.264          35.000  
G28  20718441.728   108876350.600       -2551.471          48.000  
G30  22082039.819   116041910.505       -1854.678          43.000  
R 2  23334894.081   124519418.693        2577.842          40.000  
S38  39334543.869   206704471.979        -259.093          42.000  
R11  20713789.430   110688443.111         480.298          49.000  
R 1  20717696.722   110748194.478       -1016.608          45.000  
G15  22789997.176   119762384.980        2435.118          48.000  
R 8  21509552.284   115182827.280       -3925.261          47.000  
R20  21403916.332   114456487.340        -573.678          37.000  
R21  21082024.441   112814205.512        2862.078          45.000  
R10  21275183.421   113408747.125       -1534.053          41.000  
S20  37815132.505   198719874.349        -188.861          40.000  
> 2017 11 25 12 57 18.7999999  0 19                     
G 5  23938981.880   125800260.512       -2632.684          45.000  
G 7  24472698.569   128604913.698       -2639.919          42.000  
G13  20596354.874   108234781.640         921.440          45.000  
R12  23533246.040   125710451.947        1753.971          36.000  
G17  20638091.642   108454144.605        1451.008          50.000  
G19  21734213.912   114214227.105        2246.407          44.000  
G20  24522395.603   128866259.901       -1208.599          35.000  
G28  20718538.716   108876860.928       -2551.801          48.000  
G30  22082110.317   116042281.479       -1854.663          43.000  
R 2  23334797.442   124518903.148        2577.896          40.000  
S38  39334553.816   206704523.929        -259.684          42.000  
R11  20713771.317   110688347.104         480.109          49.000  
R 1  20717734.659   110748397.822       -1016.748          45.000  
G15  22789904.551   119761897.980        2435.013          48.000  
R 8  21509698.796   115183612.365       -3925.309          47.000  
R20  21403937.900   114456602.088        -573.760          37.000  
R21  21081917.436   112813633.176        2861.885          45.000  
R10  21275240.868   113409053.997       -1534.165          41.000  
S20  37815139.729   198719912.116        -188.727          40.000  
> 2017 11 25 12 57 18.9999999  0 19                     
G 5  23939082.009   125800787.097       -2632.953          44.000  
G 7  24472798.978   128605441.770       -2640.540          42.000  
G13  20596319.730   108234597.392         921.135          44.000  
R12  23533180.392   125710101.163        1753.639          36.000  
G17  20638036.360   108453854.477        1450.400          49.000  
G19  21734128.441   114213777.922        2245.731          44.000  
G20  24522441.497   128866501.646       -1209.020          35.000  
G28  20718635.740   108877371.286       -2551.929          48.000  
G30  22082180.921   116042652.503       -1855.317          43.000  
R 2  23334700.872   124518387.648        2577.359          40.000  
S38  39334563.692   206704575.858        -260.096          42.000  
R11  20713753.343   110688251.103         479.913          48.000  
R 1  20717772.770   110748601.224       -1017.181          45.000  
G15  22789811.925   119761411.009        2434.788          48.000  
R 8  21509845.482   115184397.485       -3925.661          46.000  
R20  21403959.399   114456716.891        -574.048          37.000  
R21  21081810.536   112813060.900        2861.278          45.000  
R10  21275298.488   113409360.873       -1534.777          41.000  
S20  37815146.989   198719949.933        -189.108          40.000  
> 2017 11 25 12 57 19.1999999  0 19                     
G 5  23939182.173   125801313.709       -2633.160          45.000  
G 7  24472899.386   128605969.865       -2640.574          42.000  
G13  20596284.690   108234413.199         920.972          45.000  
R12  23533114.605   125709750.379        1754.065          36.000  
G17  20637981.182   108453564.393        1450.409          50.000  
G19  21734042.830   114213328.761        2245.582          44.000  
G20  24522487.460   128866743.452       -1209.247          35.000  
G28  20718733.007   108877881.693       -2552.197          48.000  
G30  22082251.629   116043023.538       -1855.295          43.000  
R 2  23334604.337   124517872.209        2577.001          40.000  
S38  39334573.674   206704627.821        -259.955          42.000  
R11  20713735.265   110688155.130         479.846          48.000  
R 1  20717810.742   110748804.673       -1017.334          45.000  
G15  22789719.404   119760924.072        2434.681          48.000  
R 8  21509992.099   115185182.641       -3925.825          47.000  
R20  21403980.897   114456831.738        -574.312          37.000  
R21  21081703.496   112812488.650        2861.223          45.000  
R10  21275356.179   113409667.789       -1534.505          41.000  
S20  37815154.283   198719987.749        -189.036          40.000  
> 2017 11 25 12 57 19.3999999  0 19                     
G 5  23939282.337   125801840.310       -2633.270          45.000  
G 7  24472999.864   128606497.961       -2640.568          42.000  
G13  20596249.650   108234229.030         920.522          45.000  
R12  23533048.992   125709399.598        1753.892          36.000  
G17  20637926.109   108453274.349        1449.898          50.000  
G19  21733957.289   114212879.606        2245.690          44.000  
G20  24522533.250   128866985.278       -1209.211          35.000  
G28  20718830.275   108878392.088       -2552.124          48.000  
G30  22082322.338   116043394.569       -1855.170          43.000  
R 2  23334507.698   124517356.752        2576.963          40.000  
S38  39334583.551   206704679.791        -260.127          42.000  
R11  20713717.291   110688059.169         479.541          48.000  
R 1  20717848.713   110749008.169       -1017.731          44.000  
G15  22789626.778   119760437.156        2434.405          48.000  
R 8  21510138.751   115185967.800       -3925.814          47.000  
R20  21404002.256   114456946.634        -574.644          37.000  
R21  21081596.457   112811916.436        2860.859          45.000  
R10  21275413.729   113409974.695       -1534.561          41.000  
S20  37815161.542   198720025.597        -189.250          40.000  
> 2017 11 25 12 57 19.5999999  0 19                     
G 5  23939382.641   125802366.967       -2633.374          45.000  
G 7  24473100.378   128607026.131       -2640.795          42.000  
G13  20596214.540   108234044.919         920.668          45.000  
R12  23532983.309   125709048.911        1754.043          36.000  
G17  20637870.862   108452984.356        1449.827          49.000  
G19  21733871.853   114212430.516        2245.471          44.000  
G20  24522579.353   128867227.162       -1209.402          35.000  
G28  20718927.542   108878902.571       -2552.301          47.000  
G30  22082392.976   116043765.685       -1855.643          42.000  
R 2  23334411.164   124516841.384        2576.555          40.000  
S38  39334593.393   206704731.825        -260.276          42.000  
R11  20713699.073   110687963.263         479.590          48.000  
R 1  20717886.860   110749211.751       -1018.030          44.000  
G15  22789534.048   119759950.303        2434.189          47.000  
R 8  21510285.472   115186753.036       -3926.305          46.000  
R20  21404023.615   114457061.604        -574.655          37.000  
R21  21081489.591   112811344.262        2860.867          45.000  
R10  21275471.280   113410281.639       -1534.782          41.000  
S20  37815168.732   198720063.464        -189.072          40.000  
> 2017 11 25 12 57 19.7999999  0 19                     
G 5  23939482.945   125802893.643       -2633.752          44.000  
G 7  24473200.856   128607554.313       -2641.045          42.000  
G13  20596179.604   108233860.855         920.139          45.000  
R12  23532917.906   125708698.201        1753.631          36.000  
G17  20637815.545   108452694.418        1449.441          49.000  
G19  21733786.207   114211981.479        2244.993          43.000  
G20  24522625.562   128867469.083       -1209.857          35.000  
G28  20719024.775   108879413.068       -2552.924          47.000  
G30  22082463.649   116044136.810       -1856.171          42.000  
R 2  23334314.524   124516326.044        2576.527          40.000  
S38  39334603.339   206704783.865        -260.510          42.000  
R11  20713681.134   110687867.374         479.083          48.000  
R 1  20717924.866   110749415.371       -1018.433          44.000  
G15  22789441.352   119759463.480        2433.809          47.000  
R 8  21510432.124   115187538.293       -3926.492          46.000  
R20  21404045.079   114457176.637        -575.696          37.000  
R21  21081382.587   112810772.153        2860.361          45.000  
R10  21275528.901   113410588.631       -1535.222          41.000  
S20  37815175.851   198720101.366        -189.640          40.000  
> 2017 11 25 12 57 19.9999999  0 19                     
G 5  23939583.284   125803420.344       -2633.459          44.000  
G 7  24473301.439   128608082.533       -2641.234          42.000  
G13  20596144.564   108233676.833         919.839          45.000  
R12  23532852.189   125708347.567        1753.203          36.000  
G17  20637760.402   108452404.529        1449.327          50.000  
G19  21733700.666   114211532.469        2244.838          43.000  
G20  24522671.700   128867711.029       -1210.105          35.000  
G28  20719121.903   108879923.597       -2552.832          48.000  
G30  22082534.323   116044507.970       -1856.067          43.000  
R 2  23334217.850   124515810.783        2576.212          40.000  
S38  39334613.321   206704835.949        -260.609          42.000  
R11  20713662.951   110687771.497         479.175          48.000  
R 1  20717962.977   110749619.056       -1018.622          44.000  
G15  22789348.796   119758976.715        2433.607          47.000  
R 8  21510578.671   115188323.593       -3926.605          46.000  
R20  21404066.578   114457291.731        -575.306          37.000  
R21  21081275.582   112810200.081        2860.246          44.000  
R10  21275586.661   113410895.651       -1535.425          41.000  
S20  37815183.146   198720139.290        -189.582          40.000  
> 2017 11 25 12 57 20.1999999  0 19                     
G 5  23939683.448   125803947.095       -2633.423          44.000  
G 7  24473401.987   128608610.788       -2641.118          42.000  
G13  20596109.594   108233492.889         919.979          45.000  
R12  23532786.576   125707996.935        1753.111          36.000  
G17  20637705.155   108452114.730        1449.086          50.000  
G19  21733615.230   114211083.528        2244.709          43.000  
G20  24522717.768   128867953.027       -1210.090          36.000  
G28  20719218.961   108880434.190       -2552.753          48.000  
G30  22082604.961   116044879.188       -1855.823          43.000  
R 2  23334121.315   124515295.575        2575.862          40.000  
S38  39334623.128   206704888.086        -260.642          42.000  
R11  20713645.187   110687675.693         479.114          48.000  
R 1  20718001.124   110749822.821       -1018.781          45.000  
G15  22789256.170   119758489.998        2433.566          48.000  
R 8  21510725.078   115189108.956       -3926.794          46.000  
R20  21404087.972   114457406.933        -575.945          37.000  
R21  21081168.717   112809628.083        2860.000          44.000  
R10  21275644.247   113411202.680       -1534.889          41.000  
S20  37815190.230   198720177.284        -189.855          40.000  
> 2017 11 25 12 57 20.3999999  0 19                     
G 5  23939783.612   125804473.865       -2633.716          45.000  
G 7  24473502.745   128609139.066       -2641.268          42.000  
G13  20596074.624   108233308.979         919.587          45.000  
R12  23532721.137   125707646.320        1753.007          36.000  
G17  20637650.047   108451824.940        1448.820          50.000  
G19  21733529.724   114210634.604        2244.680          44.000  
G20  24522763.837   128868195.037       -1210.038          36.000  
G28  20719315.914   108880944.802       -2553.125          48.000  
G30  22082675.600   116045250.416       -1856.012          43.000  
R 2  23334024.920   124514780.385        2575.972          40.000  
S38  39334633.144   206704940.225        -260.656          42.000  
R11  20713627.213   110687579.884         479.095          48.000  
R 1  20718039.095   110750026.637       -1019.049          45.000  
G15  22789163.545   119758003.311        2433.366          48.000  
R 8  21510871.625   115189894.336       -3927.002          46.000  
R20  21404109.540   114457522.122        -576.144          38.000  
R21  21081061.747   112809056.105        2859.884          44.000  
R10  21275701.832   113411509.766       -1535.059          41.000  
S20  37815197.525   198720215.241        -189.889          40.000  
> 2017 11 25 12 57 20.5999999  0 19                     
G 5  23939883.811   125805000.601       -2633.862          45.000  
G 7  24473603.223   128609667.317       -2641.414          42.000  
G13  20596039.619   108233125.053         919.301          45.000  
R12  23532655.594   125707295.664        1752.906          36.000  
G17  20637594.799   108451535.154        1448.740          50.000  
G19  21733444.218   114210185.678        2244.423          44.000  
G20  24522809.766   128868437.087       -1210.634          36.000  
G28  20719413.077   108881455.411       -2553.333          48.000  
G30  22082746.308   116045621.627       -1856.235          43.000  
R 2  23333928.456   124514265.207        2575.541          40.000  
S38  39334642.951   206704992.370        -260.891          42.000  
R11  20713609.239   110687484.065         478.876          48.000  
R 1  20718077.172   110750230.444       -1019.385          45.000  
G15  22789071.024   119757516.609        2433.185          49.000  
R 8  21511018.207   115190679.699       -3926.946          46.000  
R20  21404131.074   114457637.345        -576.392          38.000  
R21  21080954.777   112808484.123        2859.620          44.000  
R10  21275759.523   113411816.800       -1535.497          41.000  
S20  37815204.679   198720253.161        -189.795          40.000  
> 2017 11 25 12 57 20.7999999  0 19                     
G 5  23939984.080   125805527.347       -2633.777          45.000  
G 7  24473703.736   128610195.583       -2641.420          42.000  
G13  20596004.509   108232941.149         919.518          45.000  
R12  23532589.877   125706945.009        1753.202          37.000  
G17  20637539.552   108451245.404        1448.587          50.000  
G19  21733358.816   114209736.755        2244.575          44.000  
G20  24522855.625   128868679.098       -1210.020          36.000  
G28  20719510.030   108881965.998       -2552.966          48.000  
G30  22082817.051   116045992.847       -1856.230          43.000  
R 2  23333831.886   124513750.056        2575.355          40.000  
S38  39334652.828   206705044.519        -260.896          41.000  
R11  20713591.335   110687388.246         479.065          48.000  
R 1  20718115.178   110750434.293       -1019.647          45.000  
G15  22788978.398   119757029.913        2433.393          49.000  
R 8  21511164.823   115191465.079       -3926.977          46.000  
R20  21404152.573   114457752.607        -576.272          38.000  
R21  21080847.807   112807912.163        2859.743          44.000  
R10  21275817.213   113412123.840       -1535.298          41.000  
S20  37815211.973   198720291.098        -189.541          40.000  
> 2017 11 25 12 57 20.9999999  0 19                     
G 5  23940084.349   125806054.098       -2633.679          45.000  
G 7  24473804.250   128610723.850       -2641.128          42.000  
G13  20595969.678   108232757.288         919.287          45.000  
R12  23532524.369   125706594.363        1753.506          37.000  
G17  20637484.444   108450955.677        1448.670          49.000  
G19  21733273.345   114209287.883        2244.587          44.000  
G20  24522901.659   128868921.164       -1210.516          36.000  
G28  20719607.088   108882476.635       -2553.149          47.000  
G30  22082887.585   116046364.092       -1856.255          43.000  
R 2  23333735.317   124513234.919        2575.944          40.000  
S38  39334662.670   206705096.676        -260.833          41.000  
R11  20713573.362   110687292.443         478.912          48.000  
R 1  20718153.359   110750638.183       -1019.397          45.000  
G15  22788885.772   119756543.250        2433.433          48.000  
R 8  21511311.370   115192250.487       -3926.892          46.000  
R20  21404174.211   114457867.884        -576.100          38.000  
R21  21080740.733   112807340.230        2859.670          44.000  
R10  21275874.834   113412430.898       -1535.242          41.000  
S20  37815219.233   198720329.054        -189.565          40.000  
> 2017 11 25 12 57 21.1999999  0 19                     
G 5  23940184.514   125806580.851       -2633.936          44.000  
G 7  24473904.798   128611252.124       -2641.511          42.000  
G13  20595934.638   108232573.430         919.243          45.000  
R12  23532458.896   125706243.743        1753.318          37.000  
G17  20637429.441   108450665.979        1448.289          50.000  
G19  21733187.909   114208839.007        2244.161          44.000  
G20  24522947.588   128869163.227       -1210.624          36.000  
G28  20719704.321   108882987.269       -2553.381          48.000  
G30  22082958.398   116046735.338       -1856.454          43.000  
R 2  23333638.782   124512719.807        2575.343          40.000  
S38  39334672.442   206705148.823        -261.047          41.000  
R11  20713555.737   110687196.623         478.876          48.000  
R 1  20718191.191   110750842.100       -1019.751          44.000  
G15  22788793.042   119756056.597        2433.182          48.000  
R 8  21511458.022   115193035.900       -3927.264          46.000  
R20  21404195.779   114457983.233        -576.820          37.000  
R21  21080633.833   112806768.306        2859.752          44.000  
R10  21275932.245   113412737.922       -1535.178          41.000  
S20  37815226.527   198720366.991        -189.852          40.000  
> 2017 11 25 12 57 21.3999999  0 19                     
G 5  23940284.783   125807107.611       -2633.929          44.000  
G 7  24474005.381   128611780.382       -2641.372          42.000  
G13  20595899.633   108232389.606         918.986          45.000  
R12  23532393.178   125705893.112        1752.507          37.000  
G17  20637374.264   108450376.302        1448.178          50.000  
G19  21733102.507   114208390.149        2244.036          44.000  
G20  24522993.656   128869405.296       -1210.751          36.000  
G28  20719801.589   108883497.899       -2553.375          48.000  
G30  22083028.932   116047106.592       -1856.750          43.000  
R 2  23333542.247   124512204.727        2575.278          41.000  
S38  39334682.249   206705200.970        -260.983          41.000  
R11  20713537.798   110687100.810         478.876          48.000  
R 1  20718229.303   110751046.048       -1020.001          44.000  
G15  22788700.381   119755569.954        2433.064          48.000  
R 8  21511604.534   115193821.321       -3927.378          46.000  
R20  21404217.348   114458098.592        -577.045          38.000  
R21  21080526.968   112806196.421        2859.540          44.000  
R10  21275989.831   113413044.982       -1535.502          41.000  
S20  37815233.856   198720404.958        -189.776          40.000  
> 2017 11 25 12 57 21.5999999  0 19                     
G 5  23940384.842   125807634.388       -2634.064          44.000  
G 7  24474105.999   128612308.669       -2641.321          42.000  
G13  20595864.593   108232205.818         918.815          45.000  
R12  23532327.670   125705542.477        1752.790          37.000  
G17  20637319.051   108450086.665        1448.193          49.000  
G19  21733017.211   114207941.315        2244.141          44.000  
G20  24523039.760   128869647.388       -1210.504          36.000  
G28  20719898.647   108884008.577       -2553.394          47.000  
G30  22083099.431   116047477.852       -1856.320          42.000  
R 2  23333445.748   124511689.677        2575.449          41.000  
S38  39334692.126   206705253.137        -260.657          41.000  
R11  20713520.034   110687005.027         478.955          48.000  
R 1  20718267.658   110751250.045       -1020.178          44.000  
G15  22788607.895   119755083.354        2432.867          47.000  
R 8  21511751.186   115194606.785       -3927.288          46.000  
R20  21404238.951   114458214.001        -576.979          38.000  
R21  21080420.102   112805624.568        2859.230          44.000  
R10  21276047.312   113413352.053       -1535.553          41.000  
S20  37815241.045   198720442.918        -189.734          40.000  
> 2017 11 25 12 57 21.7999999  0 19                     
G 5  23940485.111   125808161.202       -2633.899          44.000  
G 7  24474206.547   128612837.037       -2641.661          42.000  
G13  20595829.693   108232022.089         918.894          45.000  
R12  23532262.022   125705191.919        1753.122          37.000  
G17  20637263.908   108449797.110        1447.957          49.000  
G19  21732931.705   114207492.559        2244.167          44.000  
G20  24523085.828   128869889.553       -1210.781          36.000  
G28  20719995.775   108884519.313       -2553.455          47.000  
G30  22083170.209   116047849.180       -1856.339          42.000  
R 2  23333349.353   124511174.746        2574.982          41.000  
S38  39334701.898   206705305.355        -260.824          41.000  
R11  20713501.990   110686909.294         478.912          48.000  
R 1  20718305.874   110751454.141       -1020.264          44.000  
G15  22788515.234   119754596.821        2432.879          48.000  
R 8  21511897.802   115195392.323       -3927.618          46.000  
R20  21404260.659   114458329.537        -577.799          37.000  
R21  21080313.133   112805052.782        2859.117          45.000  
R10  21276104.863   113413659.163       -1535.230          41.000  
S20  37815248.409   198720480.940        -189.770          40.000  
> 2017 11 25 12 57 21.9999999  0 19                     
G 5  23940585.206   125808687.996       -2634.021          44.000  
G 7  24474306.921   128613365.353       -2641.415          42.000  
G13  20595794.653   108231838.384         918.388          45.000  
R12  23532196.514   125704841.310        1753.084          37.000  
G17  20637208.801   108449507.542        1447.814          49.000  
G19  21732846.234   114207043.791        2243.587          44.000  
G20  24523131.932   128870131.720       -1210.494          35.000  
G28  20720092.868   108885030.016       -2553.552          47.000  
G30  22083240.882   116048220.505       -1856.528          42.000  
R 2  23333252.888   124510659.771        2574.567          41.000  
S38  39334711.950   206705357.523        -260.848          41.000  
R11  20713484.121   110686813.545         478.863          48.000  
R 1  20718343.811   110751658.239       -1020.551          44.000  
G15  22788422.713   119754110.264        2432.746          48.000  
R 8  21512044.419   115196177.835       -3927.822          46.000  
R20  21404282.193   114458445.030        -577.649          37.000  
R21  21080206.233   112804480.982        2859.067          45.000  
R10  21276162.483   113413966.249       -1535.326          41.000  
S20  37815255.669   198720518.952        -189.788          40.000  
> 2017 11 25 12 57 22.1999999  0 19                     
G 5  23940685.300   125809214.784       -2633.868          44.000  
G 7  24474407.434   128613893.672       -2641.492          42.000  
G13  20595759.647   108231654.668         918.566          45.000  
R12  23532131.006   125704490.693        1753.013          37.000  
G17  20637153.553   108449218.005        1447.619          49.000  
G19  21732760.728   114206595.015        2244.058          44.000  
G20  24523178.035   128870373.881       -1210.734          35.000  
G28  20720190.170   108885540.731       -2553.442          47.000  
G30  22083311.241   116048591.817       -1856.761          42.000  
R 2  23333156.388   124510144.822        2574.805          41.000  
S38  39334721.861   206705409.694        -260.637          41.000  
R11  20713466.531   110686717.796         478.815          48.000  
R 1  20718381.992   110751862.349       -1020.758          44.000  
G15  22788330.122   119753623.720        2432.681          48.000  
R 8  21512190.931   115196963.349       -3927.438          46.000  
R20  21404303.726   114458560.554        -577.478          37.000  
R21  21080099.402   112803909.205        2858.938          45.000  
R10  21276220.034   113414273.355       -1535.546          41.000  
S20  37815262.858   198720556.983        -189.910          39.000  
> 2017 11 25 12 57 22.3999999  0 19                     
G 5  23940785.604   125809741.569       -2633.923          44.000  
G 7  24474507.982   128614421.984       -2641.442          41.000  
G13  20595724.677   108231470.968         918.611          45.000  
R12  23532065.498   125704140.069        1753.458          37.000  
G17  20637098.341   108448928.461        1447.723          49.000  
G19  21732675.326   114206146.257        2243.967          43.000  
G20  24523224.104   128870616.037       -1210.358          35.000  
G28  20720287.368   108886051.455       -2553.821          47.000  
G30  22083381.880   116048963.110       -1856.403          42.000  
R 2  23333059.923   124509629.888        2574.601          41.000  
S38  39334731.738   206705461.851        -260.575          41.000  
R11  20713448.174   110686622.026         478.741          48.000  
R 1  20718419.929   110752066.483       -1020.605          45.000  
G15  22788237.671   119753137.174        2432.661          48.000  
R 8  21512337.653   115197748.872       -3927.590          46.000  
R20  21404325.085   114458676.116        -577.877          37.000  
R21  21079992.502   112803337.439        2858.829          45.000  
R10  21276277.620   113414580.404       -1535.114          41.000  
S20  37815269.978   198720594.976        -189.985          39.000  
> 2017 11 25 12 57 22.5999999  0 19                     
G 5  23940885.873   125810268.345       -2633.954          43.000  
G 7  24474608.356   128614950.294       -2641.620          40.000  
G13  20595689.567   108231287.273         918.401          43.000  
R12  23532000.129   125703789.431        1753.388          37.000  
G17  20637043.198   108448638.945        1447.577          48.000  
G19  21732589.925   114205697.501        2243.869          41.000  
G20  24523270.138   128870858.192       -1210.490          35.000  
G28  20720384.461   108886562.144       -2553.296          45.000  
G30  22083452.309   116049334.414       -1856.525          40.000  
R 2  23332963.598   124509114.963        2574.527          40.000  
S38  39334741.510   206705514.015        -260.725          40.000  
R11  20713430.130   110686526.236         478.967          47.000  
R 1  20718458.110   110752270.628       -1020.605          44.000  
G15  22788145.080   119752650.625        2432.746          46.000  
R 8  21512484.374   115198534.389       -3927.584          45.000  
R20  21404346.689   114458791.682        -577.727          37.000  
R21  21079885.637   112802765.664        2858.961          44.000  
R10  21276335.240   113414887.482       -1535.187          41.000  
S20  37815277.167   198720632.949        -189.960          38.000  
> 2017 11 25 12 57 22.7999999  0 19                     
G 5  23940986.281   125810795.142       -2633.850          43.000  
G 7  24474708.695   128615478.639       -2641.656          40.000  
G13  20595654.597   108231103.652         918.208          43.000  
R12  23531934.551   125703438.841        1753.144          37.000  
G17  20636988.160   108448349.489        1447.302          48.000  
G19  21732504.628   114205248.794        2243.624          43.000  
G20  24523316.102   128871100.418       -1211.316          35.000  
G28  20720481.449   108887072.920       -2553.662          46.000  
G30  22083522.913   116049705.769       -1856.688          41.000  
R 2  23332867.238   124508600.089        2574.364          40.000  
S38  39334751.492   206705566.205        -260.918          40.000  
R11  20713412.052   110686430.515         478.894          47.000  
R 1  20718496.361   110752474.875       -1021.356          44.000  
G15  22788052.350   119752164.138        2432.718          46.000  
R 8  21512631.061   115199319.972       -3927.962          45.000  
R20  21404368.362   114458907.351        -578.469          37.000  
R21  21079778.702   112802193.955        2858.572          44.000  
R10  21276392.966   113415194.577       -1535.426          41.000  
S20  37815284.392   198720670.962        -189.974          38.000  
> 2017 11 25 12 57 22.9999999  0 19                     
G 5  23941086.446   125811321.944       -2633.905          43.000  
G 7  24474809.068   128616006.991       -2641.958          40.000  
G13  20595619.557   108230920.038         918.066          43.000  
R12  23531869.113   125703088.231        1753.273          37.000  
G17  20636933.052   108448060.054        1447.106          48.000  
G19  21732419.262   114204800.099        2243.385          42.000  
G20  24523362.065   128871342.633       -1211.432          34.000  
G28  20720578.437   108887583.684       -2553.717          46.000  
G30  22083593.446   116050077.109       -1856.572          41.000  
R 2  23332770.878   124508085.248        2574.210          40.000  
S38  39334761.438   206705618.388        -260.758          40.000  
R11  20713393.904   110686334.785         478.674          47.000  
R 1  20718534.647   110752679.120       -1021.253          44.000  
G15  22787959.724   119751677.655        2432.466          46.000  
R 8  21512777.712   115200105.566       -3927.935          45.000  
R20  21404389.965   114459023.025        -578.409          37.000  
R21  21079671.698   112801622.259        2858.542          44.000  
R10  21276450.621   113415501.712       -1535.645          41.000  
S20  37815291.581   198720708.973        -190.172          38.000  
> 2017 11 25 12 57 23.1999999  0 19                     
G 5  23941186.610   125811848.716       -2634.070          44.000  
G 7  24474909.407   128616535.280       -2641.877          40.000  
G13  20595584.482   108230736.409         917.836          44.000  
R12  23531803.535   125702737.590        1753.154          37.000  
G17  20636877.875   108447770.592        1447.153          49.000  
G19  21732333.860   114204351.371        2243.411          43.000  
G20  24523408.099   128871584.833       -1211.461          34.000  
G28  20720675.461   108888094.422       -2554.047          46.000  
G30  22083663.980   116050448.435       -1856.876          41.000  
R 2  23332674.413   124507570.389        2574.185          40.000  
S38  39334771.315   206705670.560        -261.288          40.000  
R11  20713375.965   110686239.005         478.650          47.000  
R 1  20718572.583   110752883.366       -1021.484          44.000  
G15  22787867.098   119751191.148        2432.309          47.000  
R 8  21512924.434   115200891.118       -3927.972          45.000  
R20  21404411.708   114459138.697        -578.757          37.000  
R21  21079564.832   112801050.529        2858.658          44.000  
R10  21276508.277   113415808.751       -1535.594          41.000  
S20  37815298.736   198720746.930        -190.259          38.000  
> 2017 11 25 12 57 23.3999999  0 19                     
G 5  23941286.739   125812375.504       -2634.064          45.000  
G 7  24475009.885   128617063.613       -2641.846          42.000  
G13  20595549.407   108230552.808         917.893          45.000  
R12  23531737.992   125702386.989        1752.584          37.000  
G17  20636822.872   108447481.177        1447.039          50.000  
G19  21732248.389   114203902.688        2243.325          44.000  
G20  24523454.272   128871827.043       -1211.334          35.000  
G28  20720772.658   108888605.173       -2554.077          48.000  
G30  22083734.654   116050819.759       -1856.657          42.000  
R 2  23332577.948   124507055.587        2573.944          40.000  
S38  39334781.262   206705722.737        -261.233          41.000  
R11  20713357.886   110686143.244         478.766          47.000  
R 1  20718610.834   110753087.657       -1021.637          44.000  
G15  22787774.542   119750704.673        2432.341          48.000  
R 8  21513071.085   115201676.693       -3927.954          45.000  
R20  21404433.381   114459254.408        -579.153          37.000  
R21  21079457.897   112800478.870        2858.208          44.000  
R10  21276565.863   113416115.823       -1535.524          41.000  
S20  37815305.786   198720784.892        -189.983          40.000  
> 2017 11 25 12 57 23.5999999  0 19                     
G 5  23941386.938   125812902.304       -2634.113          44.000  
G 7  24475110.294   128617591.967       -2641.870          41.000  
G13  20595514.402   108230369.268         917.663          44.000  
R12  23531672.554   125702036.374        1752.872          37.000  
G17  20636767.694   108447191.821        1446.752          48.000  
G19  21732162.918   114203454.034        2243.309          43.000  
G20  24523500.376   128872069.325       -1211.793          35.000  
G28  20720869.786   108889115.957       -2553.839          47.000  
G30  22083805.292   116051191.147       -1857.028          42.000  
R 2  23332481.553   124506540.828        2573.743          40.000  
S38  39334791.208   206705774.951        -261.027          41.000  
R11  20713339.808   110686047.515         478.656          47.000  
R 1  20718649.260   110753292.009       -1021.954          44.000  
G15  22787681.916   119750218.242        2432.090          48.000  
R 8  21513217.737   115202462.329       -3928.108          45.000  
R20  21404455.159   114459370.167        -578.921          37.000  
R21  21079351.137   112799907.232        2858.005          43.000  
R10  21276623.483   113416422.904       -1535.293          41.000  
S20  37815313.045   198720822.832        -189.681          40.000  
> 2017 11 25 12 57 23.7999999  0 19                     
G 5  23941487.137   125813429.141       -2633.942          44.000  
G 7  24475210.702   128618120.375       -2642.191          41.000  
G13  20595479.397   108230185.770         917.511          44.000  
R12  23531607.046   125701685.804        1753.054          36.000  
G17  20636712.551   108446902.509        1446.551          49.000  
G19  21732077.586   114203005.440        2243.095          43.000  
G20  24523546.479   128872311.610       -1211.859          35.000  
G28  20720967.019   108889626.803       -2554.126          47.000  
G30  22083876.070   116051562.541       -1857.099          42.000  
R 2  23332385.123   124506026.117        2573.698          40.000  
S38  39334801.015   206705827.221        -261.378          41.000  
R11  20713321.695   110685951.829         478.613          47.000  
R 1  20718687.615   110753496.426       -1022.070          44.000  
G15  22787589.395   119749731.851        2431.919          48.000  
R 8  21513364.423   115203247.997       -3928.418          45.000  
R20  21404476.728   114459485.985        -578.854          37.000  
R21  21079244.237   112799335.635        2857.785          43.000  
R10  21276681.034   113416730.068       -1535.778          41.000  
S20  37815320.339   198720860.833        -189.560          40.000  
> 2017 11 25 12 57 23.9999999  0 19                     
G 5  23941587.302   125813955.988       -2634.271          44.000  
G 7  24475311.146   128618648.753       -2642.091          41.000  
G13  20595444.427   108230002.302         917.209          44.000  
R12  23531541.642   125701335.224        1752.992          36.000  
G17  20636657.548   108446613.225        1446.460          49.000  
G19  21731992.394   114202556.851        2242.981          43.000  
G20  24523592.513   128872553.921       -1211.593          35.000  
G28  20721064.217   108890137.651       -2554.187          47.000  
G30  22083946.674   116051933.964       -1857.118          42.000  
R 2  23332288.694   124505511.408        2573.689          40.000  
S38  39334810.927   206705879.453        -261.145          41.000  
R11  20713303.581   110685856.147         478.259          47.000  
R 1  20718725.657   110753700.872       -1022.327          44.000  
G15  22787496.944   119749245.480        2431.835          48.000  
R 8  21513511.110   115204033.662       -3928.513          45.000  
R20  21404498.331   114459601.859        -579.099          37.000  
R21  21079137.267   112798764.033        2858.086          43.000  
R10  21276738.689   113417037.181       -1535.493          41.000  
S20  37815327.598   198720898.818        -189.859          40.000  
> 2017 11 25 12 57 24.1999999  0 19                     
G 5  23941687.501   125814482.860       -2634.589          44.000  
G 7  24475411.659   128619177.183       -2642.201          42.000  
G13  20595409.282   108229818.869         916.898          44.000  
R12  23531476.134   125700984.670        1752.654          36.000  
G17  20636602.545   108446323.999        1445.872          49.000  
G19  21731906.993   114202108.305        2242.545          43.000  
G20  24523638.547   128872796.275       -1212.104          35.000  
G28  20721161.379   108890648.541       -2554.724          47.000  
G30  22084017.138   116052305.415       -1857.714          42.000  
R 2  23332192.438   124504996.786        2573.063          40.000  
S38  39334820.804   206705931.742        -261.588          41.000  
R11  20713285.363   110685760.475         478.113          47.000  
R 1  20718763.768   110753905.381       -1022.638          44.000  
G15  22787404.458   119748759.141        2431.424          48.000  
R 8  21513657.866   115204819.378       -3928.736          45.000  
R20  21404520.109   114459717.815        -579.878          37.000  
R21  21079030.332   112798192.524        2857.360          43.000  
R10  21276796.415   113417344.355       -1536.018          41.000  
S20  37815334.997   198720936.815        -189.996          40.000  
> 2017 11 25 12 57 24.3999999  0 19                     
G 5  23941787.805   125815009.688       -2634.155          44.000  
G 7  24475512.207   128619705.569       -2642.268          42.000  
G13  20595374.312   108229635.428         917.143          44.000  
R12  23531410.731   125700634.091        1752.855          37.000  
G17  20636547.298   108446034.735        1446.202          48.000  
G19  21731821.522   114201659.732        2242.726          43.000  
G20  24523684.615   128873038.623       -1211.973          35.000  
G28  20721258.647   108891159.374       -2554.382          47.000  
G30  22084087.776   116052676.813       -1857.088          42.000  
R 2  23332096.078   124504482.113        2573.507          40.000  
S38  39334830.855   206705983.999        -261.249          41.000  
R11  20713267.389   110685664.766         478.479          47.000  
R 1  20718802.089   110754109.880       -1022.760          44.000  
G15  22787311.797   119748272.769        2431.758          48.000  
R 8  21513804.588   115205605.061       -3928.501          45.000  
R20  21404541.712   114459833.747        -580.126          37.000  
R21  21078923.642   112797620.967        2857.521          43.000  
R10  21276854.105   113417651.464       -1535.593          41.000  
S20  37815342.187   198720974.776        -189.617          40.000  
> 2017 11 25 12 57 24.5999999  0 19                     
G 5  23941888.109   125815536.554       -2634.271          44.000  
G 7  24475612.651   128620233.982       -2641.968          42.000  
G13  20595339.376   108229452.038         916.845          44.000  
R12  23531345.153   125700283.519        1752.937          37.000  
G17  20636492.225   108445745.544        1446.052          49.000  
G19  21731736.121   114201211.216        2242.594          43.000  
G20  24523730.614   128873280.986       -1212.241          34.000  
G28  20721355.914   108891670.276       -2554.468          47.000  
G30  22084158.519   116053048.275       -1857.183          42.000  
R 2  23331999.858   124503967.520        2573.318          40.000  
S38  39334840.767   206706036.282        -261.499          41.000  
R11  20713249.416   110685569.100         478.406          47.000  
R 1  20718840.479   110754314.438       -1022.937          44.000  
G15  22787219.276   119747786.467        2431.323          48.000  
R 8  21513951.309   115206390.787       -3928.628          45.000  
R20  21404563.386   114459949.736        -580.365          37.000  
R21  21078816.637   112797049.455        2857.745          43.000  
R10  21276911.761   113417958.605       -1535.691          40.000  
S20  37815349.411   198721012.762        -189.822          40.000  
> 2017 11 25 12 57 24.7999999  0 19                     
G 5  23941988.447   125816063.406       -2634.326          44.000  
G 7  24475713.059   128620762.384       -2642.130          42.000  
G13  20595304.511   108229268.646         916.819          44.000  
R12  23531279.645   125699932.948        1752.788          37.000  
G17  20636437.117   108445456.356        1445.835          49.000  
G19  21731650.824   114200762.691        2242.465          44.000  
G20  24523776.752   128873523.339       -1211.533          34.000  
G28  20721453.182   108892181.162       -2554.572          47.000  
G30  22084229.262   116053419.725       -1857.370          42.000  
R 2  23331903.602   124503452.945        2572.500          40.000  
S38  39334850.539   206706088.553        -261.556          41.000  
R11  20713231.372   110685473.426         478.241          47.000  
R 1  20718878.974   110754519.008       -1023.071          44.000  
G15  22787126.790   119747300.146        2431.280          48.000  
R 8  21514097.996   115207176.510       -3928.759          45.000  
R20  21404584.989   114460065.748        -580.347          37.000  
R21  21078709.946   112796477.982        2857.062          43.000  
R10  21276969.277   113418265.740       -1535.693          41.000  
S20  37815356.601   198721050.735        -189.777          40.000  
> 2017 11 25 12 57 24.9999999  0 19                     
G 5  23942088.612   125816590.240       -2633.929          44.000  
G 7  24475813.503   128621290.780       -2641.753          42.000  
G13  20595269.471   108229085.270         916.864          44.000  
R12  23531214.137   125699582.370        1752.953          37.000  
G17  20636382.149   108445167.187        1445.997          49.000  
G19  21731565.597   114200314.162        2242.572          44.000  
G20  24523822.681   128873765.726       -1212.207          35.000  
G28  20721550.345   108892692.031       -2554.297          47.000  
G30  22084299.971   116053791.156       -1857.033          42.000  
R 2  23331807.242   124502938.344        2572.959          41.000  
S38  39334860.590   206706140.800        -260.938          41.000  
R11  20713213.364   110685377.730         478.528          47.000  
R 1  20718917.085   110754723.617       -1022.919          44.000  
G15  22787034.234   119746813.813        2431.829          48.000  
R 8  21514244.543   115207962.223       -3928.345          45.000  
R20  21404606.767   114460181.770        -579.702          37.000  
R21  21078602.942   112795906.483        2857.665          43.000  
R10  21277026.932   113418572.873       -1535.459          41.000  
S20  37815363.860   198721088.717        -189.906          39.000  
> 2017 11 25 12 57 25.1999999  0 19                     
G 5  23942188.915   125817117.115       -2634.363          44.000  
G 7  24475914.016   128621819.218       -2642.263          42.000  
G13  20595234.570   108228901.954         916.633          44.000  
R12  23531148.594   125699231.809        1752.925          37.000  
G17  20636326.936   108444878.069        1445.581          49.000  
G19  21731480.405   114199865.683        2242.378          44.000  
G20  24523868.785   128874008.129       -1211.904          35.000  
G28  20721647.438   108893202.964       -2554.572          47.000  
G30  22084370.609   116054162.642       -1857.526          43.000  
R 2  23331710.917   124502423.820        2572.751          41.000  
S38  39334870.502   206706193.107        -261.528          41.000  
R11  20713195.320   110685282.082         478.247          47.000  
R 1  20718955.371   110754928.281       -1023.297          44.000  
G15  22786941.678   119746327.550        2431.405          48.000  
R 8  21514391.264   115208748.008       -3928.861          45.000  
R20  21404628.405   114460297.851        -580.183          37.000  
R21  21078496.146   112795335.054        2857.185          43.000  
R10  21277084.483   113418880.034       -1535.749          41.000  
S20  37815371.084   198721126.710        -190.224          40.000  
> 2017 11 25 12 57 25.3999999  0 19                     
G 5  23942289.184   125817644.020       -2634.790          44.000  
G 7  24476014.355   128622347.686       -2642.379          42.000  
G13  20595199.670   108228718.675         916.382          44.000  
R12  23531083.051   125698881.254        1752.993          37.000  
G17  20636271.968   108444589.010        1445.133          49.000  
G19  21731395.283   114199417.263        2241.808          44.000  
G20  24523914.958   128874250.605       -1212.448          34.000  
G28  20721744.635   108893713.906       -2554.730          47.000  
G30  22084441.248   116054534.145       -1857.626          42.000  
R 2  23331614.557   124501909.333        2572.730          41.000  
S38  39334880.588   206706245.415        -261.573          41.000  
R11  20713177.381   110685186.447         478.259          47.000  
R 1  20718993.308   110755133.002       -1023.578          44.000  
G15  22786848.878   119745841.311        2431.158          48.000  
R 8  21514538.055   115209533.815       -3929.248          45.000  
R20  21404650.148   114460414.007        -580.538          37.000  
R21  21078389.246   112794763.686        2856.549          43.000  
R10  21277142.139   113419187.217       -1535.780          41.000  
S20  37815378.239   198721164.725        -190.105          39.000  
> 2017 11 25 12 57 25.5999999  0 19                     
G 5  23942389.209   125818171.006       -2635.095          44.000  
G 7  24476114.903   128622876.165       -2642.377          42.000  
G13  20595164.804   108228535.403         916.264          45.000  
R12  23531017.403   125698530.710        1753.185          37.000  
G17  20636217.000   108444300.017        1444.710          49.000  
G19  21731309.916   114198968.920        2241.551          44.000  
G20  24523961.027   128874493.072       -1212.362          34.000  
G28  20721841.868   108894224.830       -2554.736          48.000  
G30  22084511.712   116054905.675       -1857.798          42.000  
R 2  23331518.301   124501394.823        2572.345          41.000  
S38  39334890.535   206706297.757        -261.655          41.000  
R11  20713159.547   110685090.773         478.198          47.000  
R 1  20719031.733   110755337.766       -1024.036          44.000  
G15  22786756.357   119745355.062        2431.108          48.000  
R 8  21514684.812   115210319.709       -3929.671          45.000  
R20  21404671.717   114460530.161        -580.709          37.000  
R21  21078282.207   112794192.365        2856.397          43.000  
R10  21277199.759   113419494.362       -1535.658          41.000  
S20  37815385.498   198721202.799        -190.306          40.000  
> 2017 11 25 12 57 25.7999999  0 19                     
G 5  23942489.443   125818698.061       -2635.522          44.000  
G 7  24476215.591   128623404.677       -2642.427          42.000  
G13  20595129.939   108228352.169         916.327          44.000  
R12  23530951.650   125698180.130        1752.977          37.000  
G17  20636162.102   108444011.069        1444.663          50.000  
G19  21731224.829   114198520.644        2241.384          44.000  
G20  24524006.956   128874735.557       -1212.341          34.000  
G28  20721939.170   108894735.761       -2554.529          48.000  
G30  22084582.385   116055277.199       -1857.513          42.000  
R 2  23331421.941   124500880.289        2572.758          41.000  
S38  39334900.447   206706350.144        -261.992          41.000  
R11  20713141.783   110684995.102         478.406          48.000  
R 1  20719070.298   110755542.573       -1024.170          44.000  
G15  22786663.661   119744868.819        2431.423          48.000  
R 8  21514831.673   115211105.676       -3930.033          46.000  
R20  21404693.494   114460646.368        -580.889          37.000  
R21  21078175.167   112793621.180        2855.742          42.000  
R10  21277257.310   113419801.506       -1535.798          41.000  
S20  37815392.758   198721240.933        -190.766          40.000  
> 2017 11 25 12 57 25.9999999  0 19                     
G 5  23942590.061   125819225.187       -2635.358          45.000  
G 7  24476316.243   128623933.241       -2642.549          42.000  
G13  20595095.073   108228168.981         916.089          43.000  
R12  23530885.968   125697829.594        1752.932          37.000  
G17  20636107.273   108443722.217        1444.367          50.000  
G19  21731139.812   114198072.468        2241.073          44.000  
G20  24524053.199   128874978.134       -1212.731          35.000  
G28  20722036.194   108895246.704       -2554.480          48.000  
G30  22084653.128   116055648.767       -1857.707          42.000  
R 2  23331325.616   124500365.750        2572.945          40.000  
S38  39334910.393   206706402.548        -261.592          41.000  
R11  20713124.193   110684899.443         478.644          48.000  
R 1  20719108.479   110755747.452       -1024.133          44.000  
G15  22786571.105   119744382.583        2431.458          48.000  
R 8  21514978.464   115211891.767       -3930.229          46.000  
R20  21404715.098   114460762.642        -581.569          37.000  
R21  21078068.372   112793049.992        2856.003          43.000  
R10  21277314.826   113420108.607       -1535.408          39.000  
S20  37815400.052   198721279.129        -190.699          40.000  
> 2017 11 25 12 57 26.1999999  0 19                     
G 5  23942690.330   125819752.355       -2635.986          45.000  
G 7  24476417.001   128624461.864       -2643.169          42.000  
G13  20595060.103   108227985.834         915.797          44.000  
R12  23530820.250   125697479.132        1752.529          37.000  
G17  20636052.340   108443433.437        1443.767          50.000  
G19  21731054.585   114197624.383        2239.973          44.000  
G20  24524099.407   128875220.673       -1212.083          35.000  
G28  20722133.217   108895757.590       -2553.839          47.000  
G30  22084724.011   116056020.330       -1857.750          43.000  
R 2  23331229.256   124499851.222        2573.151          40.000  
S38  39334920.584   206706455.008        -262.399          41.000  
R11  20713106.289   110684803.732         478.998          48.000  
R 1  20719146.940   110755952.384       -1024.811          44.000  
G15  22786478.549   119743896.367        2431.105          48.000  
R 8  21515125.325   115212677.924       -3931.038          46.000  
R20  21404736.806   114460878.913        -581.008          38.000  
R21  21077961.681   112792478.876        2855.334          44.000  
R10  21277372.447   113420415.700       -1535.760          39.000  
S20  37815407.276   198721317.389        -191.365          40.000  
> 2017 11 25 12 57 26.3999999  0 19                     
G 5  23942790.773   125820279.603       -2635.956          45.000  
G 7  24476517.828   128624990.521       -2643.517          42.000  
G13  20595025.203   108227802.748         915.189          44.000  
R12  23530754.498   125697128.678        1752.054          36.000  
G17  20635997.651   108443144.714        1443.208          50.000  
G19  21730969.358   114197176.322        2240.135          44.000  
G20  24524145.615   128875463.290       -1213.569          35.000  
G28  20722230.589   108896268.542       -2555.103          48.000  
G30  22084794.929   116056391.955       -1858.463          43.000  
R 2  23331132.826   124499336.644        2572.775          40.000  
S38  39334930.496   206706507.507        -263.083          41.000  
R11  20713088.420   110684708.027         478.094          48.000  
R 1  20719185.260   110756157.406       -1025.324          44.000  
G15  22786385.889   119743410.149        2430.738          47.000  
R 8  21515272.116   115213464.152       -3931.450          47.000  
R20  21404758.654   114460995.179        -581.669          38.000  
R21  21077854.990   112791907.892        2854.345          45.000  
R10  21277430.102   113420722.812       -1535.636          40.000  
S20  37815414.570   198721355.681        -191.785          40.000  
> 2017 11 25 12 57 26.5999999  0 19                     
G 5  23942891.182   125820806.952       -2637.726          43.000  
G 7  24476618.342   128625519.156       -2643.391          41.000  
G13  20594990.267   108227619.636         915.557          43.000  
R12  23530688.885   125696778.204        1752.456          36.000  
G17  20635942.717   108442856.102        1442.764          50.000  
G19  21730884.096   114196728.437        2239.053          43.000  
G20  24524191.753   128875705.987       -1213.309          35.000  
G28  20722328.031   108896779.461       -2555.011          48.000  
G30  22084865.986   116056763.614       -1858.293          44.000  
R 2  23331036.466   124498822.125        2573.028          40.000  
S38  39334940.582   206706560.089        -263.143          43.000  
R11  20713070.516   110684612.310         478.760          48.000  
R 1  20719223.616   110756362.455       -1025.305          44.000  
G15  22786293.507   119742923.955        2430.512          48.000  
R 8  21515418.907   115214250.507       -3932.081          46.000  
R20  21404780.501   114461111.553        -581.990          38.000  
R21  21077748.369   112791336.973        2854.258          46.000  
R10  21277487.723   113421029.896       -1536.136          40.000  
S20  37815421.865   198721394.030        -191.907          40.000  
> 2017 11 25 12 57 26.7999999  0 19                     
G 5  23942991.625   125821334.370       -2636.786          45.000  
G 7  24476719.134   128626047.947       -2644.012          42.000  
G13  20594955.576   108227436.702         914.544          45.000  
R12  23530623.133   125696427.778        1751.659          36.000  
G17  20635888.133   108442567.600        1442.579          51.000  
G19  21730798.939   114196280.635        2238.834          44.000  
G20  24524237.857   128875948.752       -1213.805          35.000  
G28  20722425.403   108897290.452       -2554.736          48.000  
G30  22084936.904   116057135.340       -1858.298          43.000  
R 2  23330940.001   124498307.669        2571.889          40.000  
S38  39334950.773   206706612.758        -263.196          44.000  
R11  20713052.577   110684516.676         478.149          48.000  
R 1  20719262.181   110756567.645       -1026.550          44.000  
G15  22786200.917   119742437.790        2431.458          47.000  
R 8  21515565.733   115215036.980       -3932.322          47.000  
R20  21404802.454   114461228.007        -582.281          38.000  
R21  21077641.644   112790766.219        2854.243          47.000  
R10  21277545.378   113421336.985       -1534.577          40.000  
S20  37815429.124   198721432.522        -192.159          40.000  
> 2017 11 25 12 57 26.9999999  0 19                     
G 5  23943092.139   125821861.897       -2637.097          45.000  
G 7  24476820.136   128626576.778       -2643.867          41.000  
G13  20594920.606   108227253.703         914.847          44.000  
R12  23530557.450   125696077.391        1752.998          36.000  
G17  20635833.095   108442279.189        1441.887          50.000  
G19  21730713.677   114195832.929        2238.488          44.000  
G20  24524284.030   128876191.472       -1214.453          35.000  
G28  20722522.706   108897801.444       -2554.736          48.000  
G30  22085007.472   116057507.082       -1858.687          42.000  
R 2  23330843.571   124497793.191        2571.346          39.000  
S38  39334960.580   206706665.475        -263.818          42.000  
R11  20713034.708   110684421.013         478.546          48.000  
R 1  20719300.711   110756772.857       -1025.751          45.000  
G15  22786108.535   119741951.726        2430.597          48.000  
R 8  21515712.595   115215823.556       -3933.134          46.000  
R20  21404824.197   114461344.546        -582.073          37.000  
R21  21077534.883   112790195.553        2853.275          46.000  
R10  21277603.034   113421644.156       -1535.605          41.000  
S20  37815436.348   198721471.048        -192.758          39.000  
> 2017 11 25 12 57 27.1999999  0 19                     
G 5  23943192.512   125822389.486       -2637.646          46.000  
G 7  24476920.754   128627105.593       -2644.291          42.000  
G13  20594885.706   108227070.833         914.678          44.000  
R12  23530491.872   125695727.002        1752.008          36.000  
G17  20635778.406   108441990.804        1441.691          50.000  
G19  21730628.485   114195385.296        2238.262          44.000  
G20  24524330.343   128876434.349       -1214.386          35.000  
G28  20722619.903   108898312.446       -2554.974          48.000  
G30  22085078.250   116057878.904       -1859.191          44.000  
R 2  23330747.037   124497278.710        2570.465          38.000  
S38  39334970.666   206706718.158        -263.218          42.000  
R11  20713016.700   110684325.327         478.894          48.000  
R 1  20719339.102   110756978.157       -1026.971          45.000  
G15  22786016.084   119741465.612        2429.677          49.000  
R 8  21515859.490   115216610.162       -3933.253          46.000  
R20  21404846.044   114461461.083        -583.435          39.000  
R21  21077428.123   112789624.897        2853.225          45.000  
R10  21277660.724   113421951.248       -1536.094          41.000  
S20  37815443.608   198721509.600        -193.036          38.000  
> 2017 11 25 12 57 27.3999999  0 19                     
G 5  23943292.886   125822917.105       -2638.989          44.000  
G 7  24477021.511   128627634.512       -2644.994          41.000  
G13  20594850.945   108226887.940         913.792          45.000  
R12  23530426.189   125695376.614        1751.633          33.000  
G17  20635723.403   108441702.477        1441.145          50.000  
G19  21730543.293   114194937.699        2237.646          44.000  
G20  24524376.586   128876677.063       -1213.058          32.000  
G28  20722717.206   108898823.506       -2554.968          48.000  
G30  22085149.029   116058250.675       -1858.929          44.000  
R 2  23330650.607   124496764.250        2570.315          37.000  
S38  39334980.822   206706770.920        -263.972          42.000  
R11  20712998.900   110684229.732         478.223          48.000  
R 1  20719377.632   110757183.502       -1026.611          45.000  
G15  22785923.772   119740979.506        2430.717          48.000  
R 8  21516006.421   115217396.802       -3933.151          46.000  
R20  21404867.822   114461577.649        -583.049          39.000  
R21  21077321.537   112789054.293        2852.082          45.000  
R10  21277718.415   113422258.376       -1535.171          40.000  
S20  37815450.902   198721548.171        -193.351          39.000  
> 2017 11 25 12 57 27.5999999  0 19                     
G 5  23943393.190   125823444.681       -2638.733          44.000  
G 7  24477122.060   128628163.302       -2643.312          39.000  
G13  20594816.079   108226705.143         914.119          44.000  
R12  23530360.507   125695026.324        1751.898          36.000  
G17  20635668.400   108441414.188        1441.491          50.000  
G19  21730458.032   114194490.135        2237.070          43.000  
G20  24524422.829   128876920.111       -1216.102          33.000  
G28  20722814.404   108899334.600       -2555.865          48.000  
G30  22085219.981   116058622.535       -1859.531          42.000  
R 2  23330554.212   124496249.901        2569.704          37.000  
S38  39334990.769   206706823.712        -264.130          43.000  
R11  20712981.031   110684134.140         477.094          48.000  
R 1  20719415.917   110757388.902       -1027.356          44.000  
G15  22785831.495   119740493.499        2430.289          49.000  
R 8  21516153.317   115218183.483       -3933.437          46.000  
R20  21404889.670   114461694.336        -584.249          38.000  
R21  21077214.881   112788483.688        2852.883          47.000  
R10  21277776.140   113422565.632       -1536.352          40.000  
S20  37815458.405   198721586.805        -192.568          38.000  
> 2017 11 25 12 57 27.7999999  0 19                     
G 5  23943493.703   125823972.288       -2637.402          44.000  
G 7  24477223.027   128628692.374       -2645.828          41.000  
G13  20594781.249   108226522.381         912.856          44.000  
R12  23530294.929   125694675.952        1750.822          36.000  
G17  20635613.502   108441125.960        1440.797          50.000  
G19  21730372.630   114194042.556        2237.452          43.000  
G20  24524468.898   128877162.934       -1213.389          35.000  
G28  20722911.880   108899845.694       -2555.438          49.000  
G30  22085290.655   116058994.454       -1859.552          43.000  
R 2  23330457.887   124495735.512        2570.006          37.000  
S38  39335001.065   206706876.516        -264.264          44.000  
R11  20712963.232   110684038.528         477.570          49.000  
R 1  20719454.413   110757594.339       -1027.161          44.000  
G15  22785738.974   119740007.505        2430.064          49.000  
R 8  21516300.248   115218970.197       -3933.783          46.000  
R20  21404911.343   114461811.017        -582.993          38.000  
R21  21077108.191   112787913.206        2852.905          47.000  
R10  21277833.726   113422872.831       -1536.536          40.000  
S20  37815465.874   198721625.522        -194.114          38.000  
> 2017 11 25 12 57 27.9999999  0 19                     
G 5  23943594.077   125824499.991       -2637.872          44.000  
G 7  24477323.819   128629221.260       -2643.910          41.000  
G13  20594746.592   108226339.614         914.230          44.000  
R12  23530229.281   125694325.666        1751.817          36.000  
G17  20635558.743   108440837.796        1440.727          50.000  
G19  21730287.473   114193595.026        2238.151          44.000  
G20  24524515.106   128877405.954       -1216.863          35.000  
G28  20723009.357   108900356.843       -2555.914          48.000  
G30  22085361.328   116059366.343       -1859.408          43.000  
R 2  23330360.968   124495221.0701       2573.758          31.000  
S38  39335011.116   206706929.384        -263.833          44.000  
R11  20712945.503   110683942.990         477.600          48.000  
R 1  20719493.047   110757799.859       -1027.741          44.000  
G15  22785646.488   119739521.572        2429.220          49.000  
R 8  21516447.109   115219756.958       -3933.841          46.000  
R20  21404933.400   114461927.850        -584.771          39.000  
R21  21077001.605   112787342.764        2852.267          46.000  
R10  21277891.451   113423180.050       -1536.352          40.000  
S20  37815473.203   198721664.154        -193.524          40.000  
> 2017 11 25 12 57 28.1999999  0 20                     
G 5  23943694.311   125825027.660       -2638.983          44.000  
G11  25436829.102                1      -1481.965          24.000  
G 7  24477424.402   128629750.312       -2645.135          40.000  
G13  20594711.936   108226156.969         913.084          44.000  
R12  23530163.738   125693975.430        1750.990          36.000  
G17  20635503.879   108440549.652        1440.593          50.000  
G19  21730202.177   114193147.574        2237.627          45.000  
G20  24524561.349   128877648.914       -1214.062          35.000  
G28  20723106.346   108900868.049       -2556.268          47.000  
G30  22085432.211   116059738.306       -1859.931          44.000  
R 2  23330264.817   124494706.9601       2572.823          32.000  
S38  39335021.307   206706982.265        -264.656          43.000  
R11  20712927.704   110683847.493         477.545          48.000  
R 1  20719531.508   110758005.426       -1027.759          44.000  
G15  22785553.828   119739035.671        2429.246          48.000  
R 8  21516594.145   115220543.759       -3934.019          46.000  
R20  21404955.108   114462044.655        -585.028          38.000  
R21  21076894.809   112786772.319        2851.983          46.000  
R10  21277949.072   113423487.313       -1536.396          41.000  
S20  37815480.532   198721702.907        -193.423          40.000  
> 2017 11 25 12 57 28.3999999  0 20                     
G 5  23943794.615   125825555.273       -2638.153          44.000  
G11  25436893.354                1      -1481.965          24.000  
G 7  24477525.195   128630279.235       -2644.763          42.000  
G13  20594677.141   108225974.269         913.118          44.000  
R12  23530098.230   125693625.153        1749.928          33.000  
G17  20635449.156   108440261.537        1440.329          50.000  
G19  21730117.089   114192700.132        2236.880          46.000  
G20  24524607.522   128877891.899       -1216.038          35.000  
G28  20723203.509   108901379.241       -2556.128          47.000  
G30  22085502.989   116060110.241       -1860.049          43.000  
R 2  23330166.922   124494192.7941       2570.596          32.000  
S38  39335031.358   206707035.115        -264.836          43.000  
R11  20712909.625   110683751.967         477.509          48.000  
R 1  20719569.863   110758211.047       -1028.894          44.000  
G15  22785461.167   119738549.752        2429.732          46.000  
R 8  21516741.041   115221330.552       -3934.236          46.000  
R20  21404976.886   114462161.511        -584.396          38.000  
R21  21076788.189   112786201.888        2851.702          46.000  
R10  21278006.867   113423794.567       -1536.596          41.000  
S20  37815487.931   198721741.598        -193.343          40.000  
> 2017 11 25 12 57 28.5999999  0 20                     
G 5  23943894.953   125826083.017       -2638.477          45.000  
G11  25436938.271                1      -1481.965          25.000  
G 7  24477625.778   128630808.271       -2645.635          41.000  
G13  20594642.275   108225791.644         913.202          44.000  
R12  23530032.617   125693274.896        1751.298          36.000  
G17  20635394.362   108439973.473        1439.647          50.000  
G19  21730031.897   114192252.734        2236.272          46.000  
G20  24524653.835   128878134.935       -1213.694          34.000  
G28  20723300.671   108901890.416       -2556.000          47.000  
G30  22085574.046   116060482.171       -1859.821          44.000  
R 2  23330069.131   124493678.538        2571.877          32.000  
S38  39335041.514   206707087.995        -264.471          43.000  
R11  20712891.651   110683656.428         477.710          48.000  
R 1  20719608.254   110758416.653       -1028.058          44.000  
G15  22785368.960   119738063.905        2429.091          48.000  
R 8  21516888.041   115222117.414       -3934.562          47.000  
R20  21404998.699   114462278.414        -584.414          38.000  
R21  21076681.638   112785631.514        2851.505          46.000  
R10  21278064.417   113424101.793       -1536.239          41.000  
S20  37815495.155   198721780.316        -194.174          40.000  
> 2017 11 25 12 57 28.7999999  0 20                     
G 5  23943995.327   125826610.748       -2638.141          45.000  
G11  25436986.852                1      -1481.965          25.000  
G 7  24477726.256   128631337.233       -2644.784          41.000  
G13  20594607.375   108225609.012         913.621          43.000  
R12  23529967.039   125692924.537        1752.102          36.000  
G17  20635339.394   108439685.406        1440.349          50.000  
G19  21729946.705   114191805.369        2236.872          45.000  
G20  24524700.113   128878378.002       -1215.638          34.000  
G28  20723397.974   108902401.577       -2555.389          49.000  
G30  22085644.929   116060854.146       -1859.836          43.000  
R 2  23329971.654   124493164.454        2571.442          35.000  
S38  39335051.635   206707140.901        -263.813          43.000  
R11  20712873.782   110683560.848         478.583          48.000  
R 1  20719646.749   110758622.335       -1028.333          44.000  
G15  22785276.369   119737577.990        2429.469          48.000  
R 8  21517034.902   115222904.317       -3934.402          47.000  
R20  21405020.407   114462395.351        -584.292          38.000  
R21  21076575.017   112785061.200        2852.051          46.000  
R10  21278122.038   113424409.018       -1535.606          39.000  
S20  37815502.589   198721819.026        -193.551          40.000  
> 2017 11 25 12 57 28.9999999  0 20                     
G 5  23944095.666   125827138.470       -2638.416          44.000  
G11  25437049.987                1      -1481.965          25.000  
G 7  24477827.188   128631866.269       -2645.121          43.000  
G13  20594572.579   108225426.407         912.938          44.000  
R12  23529901.496   125692574.342        1751.737          36.000  
G17  20635284.565   108439397.378        1440.185          50.000  
G19  21729861.513   114191357.990        2236.638          44.000  
G20  24524746.321   128878621.032       -1213.213          31.000  
G28  20723495.241   108902912.806       -2555.994          49.000  
G30  22085715.567   116061226.124       -1860.131          43.000  
R 2  23329871.699   124492650.267        2570.396          35.000  
S38  39335061.826   206707193.799        -264.788          43.000  
R11  20712856.018   110683465.347         477.673          48.000  
R 1  20719685.174   110758828.000       -1027.869          44.000  
G15  22785183.674   119737092.110        2429.227          48.000  
R 8  21517181.798   115223691.176       -3934.299          47.000  
R20  21405042.254   114462512.362        -585.936          38.000  
R21  21076468.396   112784490.851        2851.770          45.000  
R10  21278179.659   113424716.303       -1536.272          39.000  
S20  37815509.953   198721857.721        -192.804          40.000  
> 2017 11 25 12 57 29.1999999  0 20                     
G 5  23944196.074   125827666.220       -2639.227          43.000  
G11  25437108.585                1      -1481.965          25.000  
G 7  24477927.806   128632395.343       -2644.904          42.000  
G13  20594537.783   108225243.884         912.381          44.000  
R12  23529835.849   125692224.157        1750.496          36.000  
G17  20635229.771   108439109.459        1439.495          51.000  
G19  21729776.217   114190910.650        2236.176          44.000  
G20  24524792.599   128878864.219       -1216.517          34.000  
G28  20723592.544   108903424.088       -2556.622          48.000  
G30  22085786.345   116061598.176       -1860.254          43.000  
R 2  23329774.641   124492136.241        2571.021          37.000  
S38  39335071.808   206707246.673        -264.187          43.000  
R11  20712838.149   110683369.903         476.959          48.000  
R 1  20719723.809   110759033.809       -1029.675          44.000  
G15  22785091.118   119736606.336        2429.127          48.000  
R 8  21517328.729   115224478.114       -3935.028          46.000  
R20  21405064.102   114462629.348        -585.222          38.000  
R21  21076361.670   112783920.574        2851.221          45.000  
R10  21278237.279   113425023.612       -1536.151          41.000  
S20  37815517.213   198721896.512        -194.441          38.000  
> 2017 11 25 12 57 29.3999999  0 20                     
G 5  23944296.483   125828194.030       -2639.661          43.000  
G11  25437172.418                1      -1481.965          25.000  
G 7  24478028.424   128632924.462       -2645.862          42.000  
G13  20594503.127   108225061.477         912.339          44.000  
R12  23529770.166   125691873.986        1749.761          35.000  
G17  20635175.152   108438821.629        1439.056          50.000  
G19  21729691.095   114190463.447        2235.967          44.000  
G20  24524838.842   128879107.379       -1215.156          34.000  
G28  20723689.741   108903935.454       -2556.323          47.000  
G30  22085857.089   116061970.289       -1860.389          43.000  
R 2  23329678.315   124491622.306        2570.360          37.000  
S38  39335081.964   206707299.696        -265.463          43.000  
R11  20712820.315   110683274.519         476.782          48.000  
R 1  20719762.339   110759239.710       -1029.279          44.000  
G15  22784998.806   119736120.623        2428.547          48.000  
R 8  21517475.660   115225265.139       -3935.509          46.000  
R20  21405086.159   114462746.523        -584.630          38.000  
R21  21076255.189   112783350.426        2850.494          45.000  
R10  21278295.040   113425331.003       -1536.822          42.000  
S20  37815524.507   198721935.303        -194.450          38.000  
> 2017 11 25 12 57 29.5999999  0 19                     
G 5  23944396.961   125828721.915       -2639.789          44.000  
G 7  24478129.356   128633453.669       -2645.988          44.000  
G13  20594468.366   108224879.101         911.156          44.000  
R12  23529704.588   125691523.827        1752.133          35.000  
G17  20635120.359   108438533.808        1438.643          50.000  
G19  21729606.182   114190016.281        2235.401          44.000  
G20  24524885.260   128879350.617       -1216.428          35.000  
G28  20723787.009   108904446.818       -2556.879          47.000  
G30  22085928.006   116062342.368       -1860.564          44.000  
R 2  23329582.235   124491108.317        2569.778          37.000  
S38  39335092.050   206707352.712        -265.881          43.000  
R11  20712802.481   110683179.102         476.703          49.000  
R 1  20719800.939   110759445.643       -1030.267          45.000  
G15  22784906.390   119735634.903        2428.267          48.000  
R 8  21517622.695   115226052.223       -3936.093          46.000  
R20  21405108.042   114462863.750        -586.212          38.000  
R21  21076148.638   112782780.292        2849.762          46.000  
R10  21278352.695   113425638.319       -1536.545          42.000  
S20  37815531.801   198721974.106        -193.989          38.000  
> 2017 11 25 12 57 29.7999999  0 19                     
G 5  23944497.440   125829249.804       -2639.136          45.000  
G 7  24478230.044   128633982.733       -2645.853          42.000  
G13  20594433.466   108224696.700         912.115          44.000  
R12  23529639.010   125691173.769        1749.776          38.000  
G17  20635065.530   108438246.053        1438.924          50.000  
G19  21729521.234   114189569.081        2236.447          44.000  
G20  24524931.608   128879593.903       -1216.628          34.000  
G28  20723884.172   108904958.252       -2557.263          48.000  
G30  22085998.819   116062714.567       -1861.376          44.000  
R 2  23329487.271   124490594.500        2569.576          37.000  
S38  39335102.067   206707405.679        -264.890          43.000  
R11  20712784.786   110683083.789         476.221          49.000  
R 1  20719839.504   110759651.665       -1030.438          44.000  
G15  22784814.008   119735149.290        2427.715          48.000  
R 8  21517769.487   115226839.286       -3935.385          46.000  
R20  21405130.064   114462981.018        -586.378          38.000  
R21  21076042.227   112782210.165        2850.897          47.000  
R10  21278410.490   113425945.769       -1537.197          42.000  
S20  37815539.235   198722012.936        -193.797          39.000  
> 2017 11 25 12 57 29.9999999  0 19                     
G 5  23944597.953   125829777.731       -2639.764          46.000  
G 7  24478330.906   128634512.043       -2646.204          42.000  
G13  20594398.914   108224514.510         910.882          45.000  
R12  23529573.328   125690823.622        1750.052          35.000  
G17  20635010.841   108437958.367        1438.174          50.000  
G19  21729436.007   114189121.984        2235.482          44.000  
G20  24524978.095   128879837.260       -1217.181          37.000  
G28  20723981.544   108905469.788       -2557.404          48.000  
G30  22086069.877   116063086.774       -1860.677          44.000  
R 2  23329394.086   124490080.784        2568.189          37.000  
S38  39335112.013   206707458.771        -265.109          43.000  
R11  20712767.161   110682988.542         476.404          49.000  
R 1  20719878.104   110759857.761       -1030.560          45.000  
G15  22784721.592   119734663.788        2427.496          47.000  
R 8  21517916.452   115227626.388       -3935.508          47.000  
R20  21405151.912   114463098.423        -587.283          38.000  
R21  21075935.780   112781640.181        2849.876          47.000  
R10  21278468.146   113426253.325       -1537.970          40.000  
S20  37815546.669   198722051.835        -194.915          39.000  
> 2017 11 25 12 57 30.1999999  0 19                     
G 5  23944698.501   125830305.604       -2639.636          45.000  
G 7  24478431.698   128635041.319       -2646.379          41.000  
G13  20594364.153   108224332.268         911.033          44.000  
R12  23529507.750   125690473.682        1749.929          35.000  
G17  20634955.838   108437670.700        1438.292          50.000  
G19  21729350.746   114188674.869        2235.294          44.000  
G20  24525024.268   128880080.578       -1216.575          34.000  
G28  20724078.986   108905981.365       -2558.374          48.000  
G30  22086140.899   116063459.065       -1861.837          44.000  
R 2  23329299.785   124489567.065        2568.025          37.000  
S38  39335122.239   206707511.808        -265.750          44.000  
R11  20712749.432   110682893.347         475.989          48.000  
R 1  20719916.634   110760063.863       -1030.750          44.000  
G15  22784629.106   119734178.285        2427.210          48.000  
R 8  21518063.244   115228413.509       -3935.692          47.000  
R20  21405173.794   114463215.855        -587.111          38.000  
R21  21075829.090   112781070.173        2849.715          47.000  
R10  21278525.906   113426560.858       -1538.208          40.000  
S20  37815554.207   198722090.719        -194.580          39.000  
> 2017 11 25 12 57 30.3999999  0 19                     
G 5  23944799.119   125830833.567       -2639.258          44.000  
G 7  24478532.386   128635570.659       -2647.032          41.000  
G13  20594329.602   108224150.136         910.971          44.000  
R12  23529442.207   125690123.649        1749.942          37.000  
G17  20634901.149   108437383.147        1437.663          50.000  
G19  21729265.728   114188227.880        2234.573          44.000  
G20  24525070.686   128880324.106       -1217.899          34.000  
G28  20724176.428   108906492.940       -2558.380          49.000  
G30  22086211.712   116063831.397       -1861.437          44.000  
R 2  23329199.831   124489053.382        2568.703          37.000  
S38  39335132.430   206707564.950        -265.442          43.000  
R11  20712731.598   110682798.167         476.172          49.000  
R 1  20719955.129   110760270.083       -1031.220          44.000  
G15  22784536.724   119733692.811        2427.504          48.000  
R 8  21518210.139   115229200.752       -3936.272          47.000  
R20  21405195.851   114463333.402        -587.870          38.000  
R21  21075722.574   112780500.282        2849.690          46.000  
R10  21278583.596   113426868.431       -1538.178          39.000  
S20  37815561.711   198722129.707        -194.752          39.000  
> 2017 11 25 12 57 30.5999999  0 19                     
G 5  23944899.562   125831361.584       -2639.850          42.000  
G 7  24478633.109   128636100.069       -2646.711          42.000  
G13  20594294.911   108223968.034         910.355          44.000  
R12  23529376.489   125689773.667        1750.345          38.000  
G17  20634846.634   108437095.666        1437.544          50.000  
G19  21729180.676   114187780.974        2234.353          45.000  
G20  24525116.894   128880567.507       -1217.115          34.000  
G28  20724273.870   108907004.577       -2557.751          48.000  
G30  22086282.595   116064203.787       -1862.215          44.000  
R 2  23329108.112   124488539.844        2567.987          35.000  
S38  39335142.551   206707618.087        -265.542          43.000  
R11  20712713.764   110682703.029         475.861          48.000  
R 1  20719993.694   110760476.373       -1030.902          44.000  
G15  22784444.447   119733207.392        2427.631          48.000  
R 8  21518357.245   115229988.042       -3936.403          46.000  
R20  21405217.734   114463451.005        -588.398          38.000  
R21  21075616.023   112779930.466        2848.725          45.000  
R10  21278641.287   113427176.063       -1537.360          40.000  
S20  37815569.319   198722168.720        -195.026          39.000  
> 2017 11 25 12 57 30.7999999  0 19                     
G 5  23944999.971   125831889.672       -2640.558          43.000  
G 7  24478733.866   128636629.474       -2647.324          41.000  
G13  20594260.429   108223785.988         909.865          45.000  
R12  23529310.946   125689423.751        1749.746          39.000  
G17  20634791.911   108436808.231        1436.590          50.000  
G19  21729095.693   114187334.093        2234.061          45.000  
G20  24525163.277   128880811.164       -1217.466          33.000  
G28  20724371.207   108907516.229       -2558.325          48.000  
G30  22086353.163   116064576.140       -1861.273          42.000  
R 2  23329011.717   124488026.296        2567.377          35.000  
S38  39335152.672   206707671.314        -266.306          43.000  
R11  20712696.034   110682607.893         475.201          49.000  
R 1  20720032.189   110760682.718       -1032.062          44.000  
G15  22784351.996   119732722.026        2426.566          48.000  
R 8  21518504.211   115230775.414       -3937.027          46.000  
R20  21405239.791   114463568.602        -588.124          38.000  
R21  21075509.716   112779360.642        2849.183          46.000  
R10  21278698.977   113427483.701       -1538.534          40.000  
S20  37815576.648   198722207.760        -195.483          39.000  
> 2017 11 25 12 57 30.9999999  0 19                     
G 5  23945100.310   125832417.770       -2640.814          44.000  
G 7  24478834.624   128637158.964       -2647.968          43.000  
G13  20594225.878   108223603.926         910.529          44.000  
R12  23529245.229   125689073.775        1749.263          37.000  
G17  20634737.291   108436520.850        1436.667          50.000  
G19  21729010.641   114186887.302        2233.871          45.000  
G20  24525209.729   128881054.556       -1218.029          36.000  
G28  20724468.335   108908027.919       -2558.142          48.000  
G30  22086424.256   116064948.637       -1862.674          44.000  
R 2  23328914.729   124487512.772        2567.796          31.000  
S38  39335162.933   206707724.514        -265.588          44.000  
R11  20712678.165   110682512.751         476.025          49.000  
R 1  20720070.754   110760889.102       -1032.141          43.000  
G15  22784259.510   119732236.631        2427.232          48.000  
R 8  21518651.386   115231562.800       -3937.322          46.000  
R20  21405261.813   114463686.316        -588.116          38.000  
R21  21075403.374   112778790.984        2848.264          45.000  
R10  21278756.668   113427791.342       -1538.404          42.000  
S20  37815584.326   198722246.888        -195.726          39.000  
> 2017 11 25 12 57 31.1999999  0 19                     
G 5  23945200.683   125832945.869       -2640.509          45.000  
G 7  24478935.416   128637688.419       -2647.134          43.000  
G13  20594191.082   108223422.027         909.326          44.000  
R12  23529179.790   125688723.944        1749.565          37.000  
G17  20634682.777   108436233.496        1436.971          51.000  
G19  21728925.728   114186440.466        2234.690          44.000  
G20  24525256.147   128881298.164       -1217.617          34.000  
G28  20724565.847   108908539.689       -2559.119          48.000  
G30  22086494.894   116065321.095       -1862.279          42.000  
R 2  23328816.554   124486999.354        2565.189          31.000  
S38  39335172.984   206707777.803        -266.371          42.000  
R11  20712660.401   110682417.714         474.548          49.000  
R 1  20720109.389   110761095.606       -1032.465          44.000  
G15  22784167.303   119731751.378        2425.855          48.000  
R 8  21518798.317   115232350.200       -3936.577          46.000  
R20  21405283.835   114463804.115        -588.839          38.000  
R21  21075296.858   112778221.241        2848.101          45.000  
R10  21278814.323   113428099.040       -1539.073          41.000  
S20  37815591.795   198722285.954        -195.789          39.000  
> 2017 11 25 12 57 31.3999999  0 19                     
G 5  23945301.301   125833474.033       -2641.034          45.000  
G 7  24479036.104   128638217.882       -2648.368          41.000  
G13  20594156.566   108223240.139         909.195          44.000  
R12  23529114.282   125688374.115        1748.856          39.000  
G17  20634628.262   108435946.225        1436.087          51.000  
G19  21728840.641   114185993.723        2232.892          44.000  
G20  24525302.530   128881541.880       -1217.454          34.000  
G28  20724663.289   108909051.492       -2558.929          47.000  
G30  22086565.916   116065693.614       -1862.900          44.000  
R 2  23328719.775   124486485.857        2567.026          31.000  
S38  39335183.175   206707831.098        -266.863          43.000  
R11  20712642.567   110682322.683         475.519          49.000  
R 1  20720147.989   110761302.083       -1032.245          43.000  
G15  22784075.026   119731266.115        2426.379          48.000  
R 8  21518945.352   115233137.669       -3937.606          46.000  
R20  21405305.823   114463921.966        -590.527          36.000  
R21  21075190.307   112777651.577        2847.818          46.000  
R10  21278871.944   113428406.735       -1538.865          41.000  
S20  37815599.229   198722325.039        -195.461          39.000  
> 2017 11 25 12 57 31.5999999  0 19                     
G 5  23945401.815   125834002.158       -2640.259          45.000  
G 7  24479137.106   128638747.354       -2646.243          43.000  
G13  20594121.840   108223058.214         909.823          44.000  
R12  23529048.565   125688024.208        1748.832          39.000  
G17  20634573.434   108435658.914        1436.627          50.000  
G19  21728755.519   114185546.871        2234.405          44.000  
G20  24525348.842   128881785.557       -1218.840          36.000  
G28  20724760.731   108909563.249       -2558.875          48.000  
G30  22086636.625   116066066.061       -1861.820          41.000  
R 2  23328624.392   124485972.540        2565.999          35.000  
S38  39335193.261   206707884.334        -266.024          44.000  
R11  20712624.768   110682227.644         475.085          48.000  
R 1  20720186.659   110761508.694       -1033.240          45.000  
G15  22783982.750   119730780.879        2426.188          48.000  
R 8  21519092.388   115233925.094       -3936.861          46.000  
R20  21405327.845   114464039.796        -588.793          36.000  
R21  21075083.651   112777081.881        2848.839          46.000  
R10  21278929.634   113428714.396       -1538.004          41.000  
S20  37815606.593   198722364.136        -195.119          39.000  
> 2017 11 25 12 57 31.7999999  0 19                     
G 5  23945502.293   125834530.361       -2641.071          45.000  
G 7  24479237.654   128639276.893       -2648.490          40.000  
G13  20594087.288   108222876.410         908.657          44.000  
R12  23528983.126   125687674.421        1748.789          39.000  
G17  20634518.675   108435371.682        1435.577          50.000  
G19  21728670.536   114185100.186        2233.152          45.000  
G20  24525395.190   128882029.145       -1218.473          34.000  
G28  20724858.278   108910075.034       -2558.966          48.000  
G30  22086707.473   116066438.623       -1863.083          44.000  
R 2  23328530.405   124485459.246        2566.005          37.000  
S38  39335203.208   206707937.740        -267.109          43.000  
R11  20712606.968   110682132.637         475.201          48.000  
R 1  20720225.293   110761715.291       -1033.215          45.000  
G15  22783890.368   119730295.686        2425.967          48.000  
R 8  21519239.423   115234712.643       -3938.480          46.000  
R20  21405349.902   114464157.721        -590.464          36.000  
R21  21074977.135   112776512.293        2848.031          46.000  
R10  21278987.325   113429022.106       -1538.809          41.000  
S20  37815613.957   198722403.254        -196.439          39.000  
> 2017 11 25 12 57 31.9999999  0 19                     
G 5  23945602.911   125835058.555       -2641.101          45.000  
G 7  24479338.516   128639806.398       -2647.656          43.000  
G13  20594052.807   108222694.586         909.008          44.000  
R12  23528917.548   125687324.617        1748.931          37.000  
G17  20634463.951   108435084.512        1435.932          50.000  
G19  21728585.658   114184653.496        2233.831          45.000  
G20  24525441.817   128882272.913       -1218.495          36.000  
G28  20724955.685   108910586.905       -2559.503          48.000  
G30  22086778.181   116066811.131       -1862.998          43.000  
R 2  23328432.719   124484945.991        2565.097          37.000  
S38  39335213.399   206707991.038        -267.098          43.000  
R11  20712589.239   110682037.670         474.707          47.000  
R 1  20720263.823   110761921.991       -1033.862          44.000  
G15  22783797.847   119729810.537        2425.237          48.000  
R 8  21519386.494   115235500.161       -3937.851          46.000  
R20  21405372.029   114464275.656        -590.098          39.000  
R21  21074870.619   112775942.751        2847.627          45.000  
R10  21279045.120   113429329.875       -1538.571          39.000  
S20  37815621.251   198722442.326        -195.070          38.000  
> 2017 11 25 12 57 32.3999999  0 19                     
G 5  23945804.007   125836114.971       -2640.826          45.000  
G 7  24479540.311   128640865.537       -2648.319          43.000  
G13  20593983.564   108222331.089         908.602          44.000  
R12  23528786.707   125686625.002        1748.638          39.000  
G17  20634354.817   108434510.252        1435.606          51.000  
G19  21728415.554   114183760.239        2233.419          44.000  
G20  24525534.618   128882760.393       -1218.451          36.000  
G28  20725150.604   108911610.636       -2559.424          48.000  
G30  22086920.086   116067556.341       -1863.508          43.000  
R 2  23328240.383   124483919.467        2564.911          34.000  
S38  39335233.571   206708097.732        -266.300          42.000  
R11  20712553.710   110681847.729         474.738          48.000  
R 1  20720341.198   110762335.409       -1034.003          45.000  
G15  22783613.189   119728840.243        2425.473          49.000  
R 8  21519680.774   115237075.308       -3937.879          46.000  
R20  21405416.317   114464511.685        -589.342          39.000  
R21  21074657.796   112774803.650        2848.123          46.000  
R10  21279160.780   113429945.442       -1538.486          39.000  
S20  37815636.188   198722520.618        -195.281          39.000  
> 2017 11 25 12 57 32.5999999  0 19                     
G 5  23945904.555   125836643.202       -2641.412          46.000  
G 7  24479641.068   128641395.083       -2647.441          43.000  
G13  20593948.908   108222149.368         908.637          45.000  
R12  23528721.268   125686275.235        1747.969          37.000  
G17  20634300.094   108434223.175        1435.253          50.000  
G19  21728330.501   114183313.652        2232.626          44.000  
G20  24525580.930   128883004.201       -1219.209          36.000  
G28  20725247.976   108912122.530       -2559.650          48.000  
G30  22086990.794   116067928.884       -1862.485          43.000  
R 2  23328142.347   124483406.222        2565.217          31.000  
S38  39335243.518   206708151.118        -267.589          41.000  
R11  20712535.911   110681752.733         474.359          49.000  
R 1  20720379.937   110762542.221       -1033.997          45.000  
G15  22783520.807   119728355.101        2425.445          48.000  
R 8  21519827.740   115237862.906       -3938.473          46.000  
R20  21405438.444   114464629.756        -590.525          39.000  
R21  21074551.315   112774234.187        2847.608          46.000  
R10  21279218.435   113430253.188       -1538.737          40.000  
S20  37815643.587   198722559.773        -196.065          39.000  
> 2017 11 25 12 57 32.7999999  0 19                     
G 5  23946005.034   125837171.401       -2640.845          46.000  
G 7  24479741.651   128641924.692       -2648.118          43.000  
G13  20593914.357   108221967.705         907.980          44.000  
R12  23528655.760   125685925.422        1750.036          37.000  
G17  20634245.579   108433936.079        1435.263          50.000  
G19  21728245.379   114182867.030        2232.754          44.000  
G20  24525627.313   128883247.940       -1219.058          36.000  
G28  20725345.348   108912634.466       -2560.431          48.000  
G30  22087061.991   116068301.543       -1863.236          44.000  
R 2  23328046.615   124482892.9861       2565.722          30.000  
S38  39335253.604   206708204.362        -266.396          42.000  
R11  20712518.182   110681657.779         474.347          48.000  
R 1  20720418.642   110762748.996       -1033.966          44.000  
G15  22783428.566   119727870.032        2425.620          48.000  
R 8  21519974.950   115238650.470       -3937.389          46.000  
R20  21405460.536   114464747.903        -591.365          39.000  
R21  21074444.834   112773664.676        2847.622          45.000  
R10  21279276.195   113430561.006       -1539.399          41.000  
S20  37815650.881   198722598.890        -195.678          39.000  
> 2017 11 25 12 57 32.9999999  0 19                     
G 5  23946105.547   125837699.586       -2641.699          45.000  
G 7  24479842.583   128642454.227       -2647.751          43.000  
G13  20593879.875   108221785.993         908.519          44.000  
R12  23528590.287   125685575.620        1748.578          39.000  
G17  20634190.890   108433649.008        1435.147          50.000  
G19  21728160.606   114182420.378        2232.500          45.000  
G20  24525673.800   128883491.699       -1219.000          36.000  
G28  20725442.720   108913146.348       -2559.564          48.000  
G30  22087132.909   116068674.090       -1863.041          42.000  
R 2  23327951.407   124482379.8931       2566.413          30.000  
S38  39335263.795   206708257.701        -266.777          41.000  
R11  20712500.383   110681562.803         474.933          48.000  
R 1  20720457.312   110762955.867       -1034.766          44.000  
G15  22783336.324   119727384.977        2425.310          48.000  
R 8  21520121.985   115239438.068       -3938.033          46.000  
R20  21405482.523   114464866.041        -591.094          38.000  
R21  21074338.422   112773095.184        2847.349          45.000  
R10  21279333.816   113430868.756       -1539.031          41.000  
S20  37815658.455   198722637.978        -195.737          39.000  
> 2017 11 25 12 57 33.1999999  0 19                     
G 5  23946206.025   125838227.775       -2640.350          45.000  
G 7  24479943.132   128642983.873       -2648.397          42.000  
G13  20593845.393   108221604.382         908.477          44.000  
R12  23528524.814   125685225.836        1748.395          39.000  
G17  20634136.480   108433362.019        1435.393          51.000  
G19  21728075.728   114181973.827        2232.950          45.000  
G20  24525720.148   128883735.570       -1219.285          36.000  
G28  20725540.197   108913658.315       -2559.894          48.000  
G30  22087204.001   116069046.791       -1863.021          43.000  
R 2  23327856.932                1       2565.266          30.000  
S38  39335273.986   206708311.006        -266.732          41.000  
R11  20712482.758   110681467.889         475.165          48.000  
R 1  20720496.121   110763162.756       -1033.826          44.000  
G15  22783243.977   119726899.926        2424.955          48.000  
R 8  21520269.021   115240225.732       -3938.241          46.000  
R20  21405504.720   114464984.255        -590.399          38.000  
R21  21074231.941   112772525.791        2846.357          45.000  
R10  21279391.472   113431176.554       -1538.948          41.000  
S20  37815665.819   198722677.114        -196.079          39.000  
> 2017 11 25 12 57 33.3999999  0 19                     
G 5  23946306.574   125838756.065       -2640.729          46.000  
G 7  24480044.203   128643513.465       -2648.372          44.000  
G13  20593810.912   108221422.794         907.441          44.000  
R12  23528459.166   125684876.068        1749.914          37.000  
G17  20634081.826   108433075.088        1434.520          50.000  
G19  21727990.815   114181527.334        2232.684          44.000  
G20  24525766.566   128883979.403       -1219.548          36.000  
G28  20725637.674   108914170.276       -2560.364          48.000  
G30  22087274.849   116069419.470       -1863.985          44.000  
R 2  23327762.945                1       2565.506          30.000  
S38  39335284.247   206708364.363        -267.020          42.000  
R11  20712465.063   110681372.966         473.993          48.000  
R 1  20720534.721   110763369.678       -1034.845          44.000  
G15  22783151.526   119726414.875        2425.126          46.000  
R 8  21520416.161   115241013.421       -3939.125          46.000  
R20  21405526.812   114465102.559        -592.343          38.000  
R21  21074125.460   112771956.368        2847.275          45.000  
R10  21279449.127   113431484.362       -1538.909          41.000  
S20  37815673.183   198722716.255        -195.693          39.000  
> 2017 11 25 12 57 33.5999999  0 19                     
G 5  23946407.017   125839284.308       -2641.364          45.000  
G 7  24480144.821   128644043.083       -2648.069          41.000  
G13  20593776.395   108221241.187         907.864          44.000  
R12  23528393.763   125684526.285        1748.929          39.000  
G17  20634026.998   108432788.111        1434.553          50.000  
G19  21727905.763   114181080.793        2233.169          43.000  
G20  24525812.948   128884223.271       -1219.850          36.000  
G28  20725735.221   108914682.238       -2560.034          48.000  
G30  22087345.906   116069792.095       -1862.972          43.000  
R 2  23327664.595                1       2567.301          30.000  
S38  39335294.438   206708417.634        -266.305          43.000  
R11  20712447.369   110681278.017         474.298          48.000  
R 1  20720573.565   110763576.678       -1034.943          45.000  
G15  22783059.040   119725929.893        2424.798          46.000  
R 8  21520563.232   115241801.046       -3938.088          46.000  
R20  21405548.869   114465220.840        -592.469          38.000  
R21  21074018.944   112771386.996        2847.119          46.000  
R10  21279507.027   113431792.207       -1539.365          41.000  
S20  37815680.721   198722755.452        -195.785          40.000  
> 2017 11 25 12 57 33.7999999  0 19                     
G 5  23946507.321   125839812.491       -2641.718          45.000  
G 7  24480245.509   128644572.689       -2647.834          43.000  
G13  20593741.914   108221059.612         907.812          44.000  
R12  23528328.150   125684176.464        1748.641          38.000  
G17  20633972.553   108432501.189        1434.970          51.000  
G19  21727820.745   114180634.308        2232.231          44.000  
G20  24525859.122   128884467.071       -1218.611          36.000  
G28  20725832.489   108915194.212       -2559.821          48.000  
G30  22087416.580   116070164.777       -1863.483          43.000  
R 2  23327570.155                1       2565.920          34.000  
S38  39335304.594   206708470.929        -266.631          42.000  
R11  20712429.639   110681183.052         475.140          48.000  
R 1  20720612.444   110763783.607       -1034.766          44.000  
G15  22782966.554   119725444.856        2425.553          46.000  
R 8  21520710.232   115242588.700       -3937.987          46.000  
R20  21405570.926   114465339.117        -591.389          38.000  
R21  21073912.463   112770817.638        2846.349          46.000  
R10  21279564.717   113432099.978       -1539.062          42.000  
S20  37815688.155   198722794.624        -196.889          40.000  
> 2017 11 25 12 57 33.9999999  0 19                     
G 5  23946607.834   125840340.706       -2641.064          46.000  
G 7  24480346.127   128645102.276       -2647.314          43.000  
G13  20593707.223   108220878.065         907.733          44.000  
R12  23528262.642   125683826.673        1749.239          38.000  
G17  20633917.759   108432214.305        1434.523          51.000  
G19  21727735.553   114180187.812        2231.795          44.000  
G20  24525905.470   128884711.035       -1219.935          36.000  
G28  20725930.000   108915706.235       -2560.516          48.000  
G30  22087487.428   116070537.448       -1863.211          43.000  
R 2  23327473.166   124479814.4891       2565.350          34.000  
S38  39335314.785   206708524.255        -266.403          43.000  
R11  20712411.805   110681088.162         474.683          49.000  
R 1  20720651.218   110763990.647       -1035.602          45.000  
G15  22782874.382   119724959.917        2424.455          48.000  
R 8  21520857.303   115243376.435       -3938.333          46.000  
R20  21405593.088   114465457.495        -591.478          38.000  
R21  21073806.086   112770248.292        2847.192          46.000  
R10  21279622.512   113432407.806       -1538.745          42.000  
S20  37815695.624   198722833.720        -195.302          40.000  
> 2017 11 25 12 57 34.1999999  0 19                     
G 5  23946708.347   125840868.962       -2640.796          46.000  
G 7  24480447.024   128645631.995       -2649.352          40.000  
G13  20593672.671   108220696.581         907.329          44.000  
R12  23528197.168   125683476.920        1748.699          38.000  
G17  20633863.140   108431927.428        1434.517          50.000  
G19  21727650.536   114179741.332        2232.097          44.000  
G20  24525951.922   128884954.886       -1219.424          36.000  
G28  20726027.512   108916218.230       -2559.894          48.000  
G30  22087558.275   116070910.157       -1863.639          43.000  
R 2  23327376.387   124479301.511        2564.947          35.000  
S38  39335324.871   206708577.546        -266.394          43.000  
R11  20712393.936   110680993.240         475.104          49.000  
R 1  20720689.993   110764197.705       -1034.888          44.000  
G15  22782782.035   119724474.925        2424.905          48.000  
R 8  21521004.478   115244164.172       -3938.866          46.000  
R20  21405615.110   114465575.907        -592.137          38.000  
R21  21073699.779   112769679.034        2846.730          46.000  
R10  21279680.238   113432715.641       -1539.045          42.000  
S20  37815703.092   198722872.939        -196.053          40.000  
> 2017 11 25 12 57 34.3999999  0 19                     
G 5  23946808.721   125841397.271       -2641.711          45.000  
G 7  24480547.886   128646161.517       -2647.551          42.000  
G13  20593638.120   108220515.053         907.480          44.000  
R12  23528131.591   125683127.207        1748.336          34.000  
G17  20633808.521   108431640.604        1433.673          50.000  
G19  21727565.658   114179294.862        2232.172          45.000  
G20  24525998.235   128885198.851       -1219.305          36.000  
G28  20726124.919   108916730.232       -2560.443          48.000  
G30  22087629.228   116071282.794       -1863.722          44.000  
R 2  23327274.653   124478788.464        2564.965          35.000  
S38  39335335.167   206708630.883        -266.978          43.000  
R11  20712375.963   110680898.338         474.335          48.000  
R 1  20720728.627   110764404.822       -1035.986          44.000  
G15  22782689.898   119723989.996        2424.321          48.000  
R 8  21521151.548   115244951.912       -3938.932          46.000  
R20  21405637.237   114465694.238        -592.190          40.000  
R21  21073593.577   112769109.731        2845.680          45.000  
R10  21279737.858   113433023.421       -1539.695          42.000  
S20  37815710.456   198722912.113        -196.746          40.000  
> 2017 11 25 12 57 34.5999999  0 19                     
G 5  23946909.164   125841925.500       -2640.906          45.000  
G 7  24480648.609   128646691.203       -2648.239          43.000  
G13  20593603.533   108220333.571         907.693          44.000  
R12  23528066.292   125682777.416        1749.833          36.000  
G17  20633754.006   108431353.731        1434.337          49.000  
G19  21727480.571   114178848.415        2232.816          44.000  
G20  24526044.792   128885442.672       -1218.976          36.000  
G28  20726222.291   108917242.187       -2560.162          48.000  
G30  22087700.076   116071655.465       -1863.230          42.000  
R 2  23327176.094   124478275.456        2564.583          35.000  
S38  39335345.288   206708684.178        -266.100          42.000  
R11  20712358.268   110680803.402         474.158          48.000  
R 1  20720767.472   110764611.944       -1035.278          44.000  
G15  22782597.447   119723505.007        2425.349          48.000  
R 8  21521298.688   115245739.618       -3937.948          46.000  
R20  21405659.469   114465812.608        -591.550          38.000  
R21  21073486.922   112768540.407        2846.796          45.000  
R10  21279795.688   113433331.192       -1539.420          42.000  
S20  37815718.030   198722951.233        -195.447          39.000  
> 2017 11 25 12 57 34.7999999  0 19                     
G 5  23947009.643   125842453.792       -2641.077          45.000  
G 7  24480749.611   128647220.782       -2647.958          42.000  
G13  20593568.773   108220152.167         907.075          43.000  
R12  23528000.819   125682427.674        1748.280          37.000  
G17  20633699.352   108431066.968        1434.060          50.000  
G19  21727395.553   114178402.021        2232.499          44.000  
G20  24526091.245   128885686.733       -1220.856          33.000  
G28  20726319.594   108917754.238       -2559.802          47.000  
G30  22087771.133   116072028.188       -1863.484          44.000  
R 2  23327081.863   124477762.582        2564.895          37.000  
S38  39335355.374   206708737.501        -266.639          42.000  
R11  20712340.399   110680708.522         474.585          48.000  
R 1  20720806.281   110764819.174       -1036.304          44.000  
G15  22782505.240   119723020.134        2424.817          49.000  
R 8  21521445.794   115246527.425       -3938.230          46.000  
R20  21405681.665   114465931.129        -592.273          36.000  
R21  21073380.580   112767971.181        2845.886          45.000  
R10  21279853.518   113433639.021       -1539.599          43.000  
S20  37815725.498   198722990.473        -195.648          38.000  
> 2017 11 25 12 57 34.9999999  0 19                     
G 5  23947110.191   125842982.037       -2642.175          45.000  
G 7  24480850.194   128647750.490       -2649.114          40.000  
G13  20593534.256   108219970.742         906.988          44.000  
R12  23527935.415   125682077.894        1748.549          38.000  
G17  20633644.873   108430780.195        1433.313          50.000  
G19  21727310.745   114177955.637        2231.300          44.000  
G20  24526137.488   128885930.690       -1219.906          34.000  
G28  20726416.827   108918266.326       -2560.626          47.000  
G30  22087841.911   116072400.905       -1863.935          42.000  
R 2  23326985.503   124477249.732        2563.215          36.000  
S38  39335365.565   206708790.791        -266.881          42.000  
R11  20712322.670   110680613.666         474.121          48.000  
R 1  20720844.951   110765026.356       -1036.462          44.000  
G15  22782413.033   119722535.232        2424.247          49.000  
R 8  21521592.725   115247315.245       -3939.792          46.000  
R20  21405703.897   114466049.707        -592.931          38.000  
R21  21073274.273   112767401.940        2845.907          46.000  
R10  21279911.348   113433946.831       -1539.258          43.000  
S20  37815732.967   198723029.657        -195.956          38.000  
> 2017 11 25 12 57 35.1999999  0 19                     
G 5  23947210.704   125843510.262       -2641.486          45.000  
G 7  24480951.126   128648280.143       -2648.008          44.000  
G13  20593499.565   108219789.337         906.729          44.000  
R12  23527869.942   125681728.155        1748.631          38.000  
G17  20633590.358   108430493.469        1433.889          51.000  
G19  21727225.763   114177509.235        2231.391          45.000  
G20  24526183.835   128886174.590       -1219.447          34.000  
G28  20726514.373   108918778.364       -2560.193          47.000  
G30  22087912.759   116072773.660       -1863.256          42.000  
R 2  23326888.863   124476736.784        2564.153          30.000  
S38  39335375.895   206708844.108        -266.243          44.000  
R11  20712304.801   110680518.769         474.774          48.000  
R 1  20720883.655   110765233.582       -1035.736          45.000  
G15  22782320.965   119722050.341        2424.524          48.000  
R 8  21521739.795   115248103.043       -3940.182          46.000  
R20  21405725.954   114466168.217        -592.567          38.000  
R21  21073167.862   112766832.768        2846.216          46.000  
R10  21279969.074   113434254.629       -1538.531          42.000  
S20  37815740.261   198723068.897        -196.576          38.000  
> 2017 11 25 12 57 35.3999999  0 20                     
G 5  23947311.322   125844038.569       -2641.205          46.000  
G11  25438913.740                1      -1495.221          21.000  
G 7  24481051.604   128648809.873       -2649.404          41.000  
G13  20593465.048   108219607.997         907.096          44.000  
R12  23527804.504   125681378.416        1748.792          38.000  
G17  20633535.565   108430206.801        1432.960          50.000  
G19  21727140.710   114177062.898        2231.924          45.000  
G20  24526230.358   128886418.631       -1221.183          35.000  
G28  20726611.676   108919290.485       -2560.571          47.000  
G30  22087983.607   116073146.415       -1864.565          44.000  
R 2  23326792.503   124476223.998        2563.187          30.000  
S38  39335385.807   206708897.434        -267.690          43.000  
R11  20712287.176   110680423.938         473.749          48.000  
R 1  20720922.430   110765440.886       -1037.164          45.000  
G15  22782228.479   119721565.524        2423.891          48.000  
R 8  21521886.935   115248890.841       -3939.503          47.000  
R20  21405748.255   114466286.952        -593.687          37.000  
R21  21073061.590   112766263.672        2845.251          46.000  
R10  21280026.904   113434562.542       -1539.640          42.000  
S20  37815747.695   198723108.134        -196.675          38.000  
> 2017 11 25 12 57 35.5999999  0 20                     
G 5  23947411.870   125844566.930       -2641.119          47.000  
G11  25438965.358                1      -1495.221          22.000  
G 7  24481152.536   128649339.542       -2648.654          42.000  
G13  20593430.567   108219426.734         905.755          45.000  
R12  23527738.996   125681028.781        1747.780          38.000  
G17  20633481.120   108429920.167        1433.419          51.000  
G19  21727055.693   114176616.668        2231.210          44.000  
G20  24526276.705   128886662.714       -1220.183          35.000  
G28  20726709.048   108919802.646       -2561.035          48.000  
G30  22088054.560   116073519.240       -1863.696          43.000  
R 2  23326698.726   124475711.150        2564.807          30.000  
S38  39335395.893   206708950.807        -266.501          45.000  
R11  20712269.411   110680329.063         474.261          49.000  
R 1  20720961.099   110765648.261       -1037.170          43.000  
G15  22782136.098   119721080.730        2424.240          48.000  
R 8  21522033.971   115249678.735       -3939.193          47.000  
R20  21405770.557   114466405.590        -593.108          38.000  
R21  21072955.109   112765694.596        2844.991          45.000  
R10  21280084.559   113434870.410       -1539.635          42.000  
S20  37815755.234   198723147.447        -196.243          39.000  
> 2017 11 25 12 57 35.7999999  0 20                     
G 5  23947512.453   125845095.265       -2642.078          46.000  
G11  25439020.535                1      -1495.221          22.000  
G 7  24481253.329   128649869.304       -2648.076          42.000  
G13  20593395.876   108219245.429         906.523          44.000  
R12  23527673.453   125680679.020        1748.303          38.000  
G17  20633426.501   108429633.621        1432.548          50.000  
G19  21726970.885   114176170.391        2230.231          44.000  
G20  24526323.088   128886906.743       -1220.277          37.000  
G28  20726806.385   108920314.808       -2561.011          48.000  
G30  22088125.652   116073892.090       -1864.570          44.000  
R 2  23326603.343   124475198.3731       2564.700          30.000  
S38  39335406.119   206709004.182        -266.886          43.000  
R11  20712251.717   110680234.272         474.011          49.000  
R 1  20720999.909   110765855.626       -1036.682          45.000  
G15  22782043.821   119720595.977        2423.555          48.000  
R 8  21522181.111   115250466.627       -3939.361          46.000  
R20  21405792.928   114466524.338        -593.673          39.000  
R21  21072848.628   112765125.502        2845.195          45.000  
R10  21280142.215   113435178.315       -1539.468          42.000  
S20  37815762.737   198723186.733        -196.396          39.000  
> 2017 11 25 12 57 35.9999999  0 20                     
G 5  23947613.071   125845623.609       -2641.949          46.000  
G11  25439077.737                1      -1495.221          22.000  
G 7  24481354.086   128650399.084       -2649.391          42.000  
G13  20593361.499   108219064.233         906.320          44.000  
R12  23527607.979   125680329.329        1748.849          38.000  
G17  20633371.951   108429347.038        1432.693          51.000  
G19  21726885.937   114175724.124        2231.280          45.000  
G20  24526369.506   128887150.904       -1221.263          35.000  
G28  20726903.897   108920827.003       -2560.785          48.000  
G30  22088196.430   116074264.886       -1863.528          42.000  
R 2  23326506.250   124474685.7841       2563.107          30.000  
S38  39335416.205   206709057.498        -266.947          43.000  
R11  20712233.988   110680139.483         473.566          49.000  
R 1  20721038.648   110766063.107       -1037.732          44.000  
G15  22781951.579   119720111.234        2423.239          48.000  
R 8  21522328.321   115251254.578       -3939.846          46.000  
R20  21405814.985   114466643.113        -594.463          39.000  
R21  21072742.391   112764556.477        2845.865          46.000  
R10  21280199.835   113435486.224       -1539.389          42.000  
S20  37815770.171   198723226.022        -196.629          39.000  
> 2017 11 25 12 57 36.3999999  0 20                     
G 5  23947814.307   125846680.393       -2642.322          44.000  
G11  25439191.059                1      -1495.221          22.000  
G 7  24481555.636   128651458.635       -2648.944          43.000  
G13  20593292.571   108218701.880         906.254          44.000  
R12  23527476.998   125679630.077        1747.880          35.000  
G17  20633263.306   108428774.071        1432.194          50.000  
G19  21726716.286   114174831.802        2230.464          44.000  
G20  24526462.446   128887639.209       -1220.739          35.000  
G28  20727098.956   108921851.425       -2561.157          48.000  
G30  22088338.126   116075010.658       -1864.834          43.000  
R 2  23326310.179   124473660.4001       2564.961          34.000  
S38  39335436.587   206709164.338        -266.979          44.000  
R11  20712198.459   110679949.970         473.969          48.000  
R 1  20721116.371   110766478.196       -1037.720          43.000  
G15  22781767.060   119719141.848        2424.054          47.000  
R 8  21522622.636   115252830.515       -3940.038          46.000  
R20  21405859.448   114466880.791        -594.034          37.000  
R21  21072529.707   112763418.548        2843.911          44.000  
R10  21280315.356   113436102.082       -1539.742          42.000  
S20  37815785.038   198723304.606        -196.253          39.000  
> 2017 11 25 12 57 36.5999999  0 20                     
G 5  23947914.786   125847208.742       -2641.919          44.000  
G11  25439250.494                1      -1495.221          21.000  
G 7  24481656.603   128651988.389       -2649.407          42.000  
G13  20593257.984   108218520.805         905.254          44.000  
R12  23527411.595   125679280.500        1748.590          38.000  
G17  20633208.757   108428487.616        1432.299          50.000  
G19  21726631.443   114174385.607        2231.225          44.000  
G20  24526508.828   128887883.413       -1220.936          34.000  
G28  20727196.363   108922363.709       -2561.316          48.000  
G30  22088409.323   116075383.564       -1863.975          44.000  
R 2  23326216.541   124473147.961        2562.166          36.000  
S38  39335446.639   206709217.743        -266.820          42.000  
R11  20712180.695   110679855.265         473.145          48.000  
R 1  20721155.006   110766685.743       -1037.994          45.000  
G15  22781674.958   119718657.276        2422.286          48.000  
R 8  21522769.637   115253618.468       -3939.368          46.000  
R20  21405881.715   114466999.755        -595.668          37.000  
R21  21072423.331   112762849.537        2845.265          45.000  
R10  21280373.116   113436410.069       -1539.980          41.000  
S20  37815792.472   198723343.930        -196.673          39.000  
> 2017 11 25 12 57 36.7999999  0 20                     
G 5  23948015.334   125847737.158       -2641.998          45.000  
G11  25439307.138                1      -1495.221          21.000  
G 7  24481757.326   128652518.219       -2648.807          39.000  
G13  20593223.328   108218339.795         904.746          44.000  
R12  23527346.191   125678930.938        1747.062          37.000  
G17  20633154.243   108428201.190        1431.845          50.000  
G19  21726546.426   114173939.408        2230.960          44.000  
G20  24526555.246   128888127.777       -1222.623          34.000  
G28  20727293.944   108922876.061       -2562.323          48.000  
G30  22088480.205   116075756.468       -1864.986          44.000  
R 2  23326119.309   124472635.483        2561.017          37.000  
S38  39335456.830   206709271.163        -267.377          43.000  
R11  20712163.035   110679760.646         472.992          47.000  
R 1  20721193.850   110766893.460       -1039.105          43.000  
G15  22781582.612   119718172.704        2422.720          48.000  
R 8  21522916.847   115254406.505       -3940.154          47.000  
R20  21405903.981   114467118.733        -594.918          37.000  
R21  21072317.024   112762280.586        2844.720          46.000  
R10  21280430.911   113436718.123       -1540.891          41.000  
S20  37815799.976   198723383.143        -196.319          39.000  
> 2017 11 25 12 57 36.9999999  0 20                     
G 5  23948115.952   125848265.499       -2642.334          45.000  
G11  25439359.453                1      -1495.221          21.000  
G 7  24481858.293   128653047.943       -2647.802          42.000  
G13  20593188.881   108218158.841         904.613          45.000  
R12  23527280.683   125678581.453        1746.919          35.000  
G17  20633099.693   108427914.772        1432.086          50.000  
G19  21726461.339   114173493.183        2231.242          42.000  
G20  24526601.663   128888372.088       -1222.019          34.000  
G28  20727391.247   108923388.475       -2561.908          47.000  
G30  22088551.018   116076129.440       -1864.401          44.000  
R 2  23326022.285   124472123.168        2561.259          37.000  
S38  39335466.951   206709324.636        -267.892          43.000  
R11  20712145.306   110679666.146         471.991          47.000  
R 1  20721232.555   110767101.246       -1039.172          43.000  
G15  22781490.754   119717688.311        2421.714          49.000  
R 8  21523063.987   115255194.462       -3940.487          46.000  
R20  21405926.143   114467237.902        -595.039          37.000  
R21  21072210.613   112761711.612        2844.893          46.000  
R10  21280488.671   113437026.222       -1540.436          41.000  
S20  37815807.445   198723422.398        -195.874          39.000  
> 2017 11 25 12 57 37.1999999  0 20                     
G 5  23948216.500   125848793.898       -2641.913          45.000  
G11  25439417.493                1      -1495.221          21.000  
G 7  24481959.330   128653577.754       -2649.349          42.000  
G13  20593154.679   108217977.955         904.011          46.000  
R12  23527215.314   125678232.054        1747.224          35.000  
G17  20633045.109   108427628.387        1431.729          50.000  
G19  21726376.321   114173046.968        2230.874          42.000  
G20  24526648.360   128888616.465       -1221.591          37.000  
G28  20727488.724   108923901.011       -2562.909          48.000  
G30  22088621.866   116076502.467       -1865.366          44.000  
R 2  23325926.937   124471611.025        2560.414          37.000  
S38  39335477.176   206709378.101        -267.117          44.000  
R11  20712127.681   110679571.703         472.021          47.000  
R 1  20721271.469   110767309.091       -1039.612          45.000  
G15  22781398.547   119717203.965        2421.443          49.000  
R 8  21523211.197   115255982.426       -3939.558          46.000  
R20  21405948.479   114467357.084        -596.396          37.000  
R21  21072104.271   112761142.670        2844.753          46.000  
R10  21280546.467   113437334.423       -1541.283          42.000  
S20  37815814.948   198723461.700        -196.490          39.000  
> 2017 11 25 12 57 37.3999999  0 20                     
G 5  23948317.362   125849322.250       -2641.974          46.000  
G11  25439466.912                1      -1495.221          22.000  
G 7  24482059.948   128654107.585       -2649.476          38.000  
G13  20593120.232   108217797.157         903.669          46.000  
R12  23527149.946   125677882.769        1746.181          32.000  
G17  20632990.385   108427342.028        1431.687          50.000  
G19  21726291.339   114172600.749        2231.015          44.000  
G20  24526694.778   128888860.930       -1223.048          36.000  
G28  20727586.270   108924413.618       -2563.104          48.000  
G30  22088692.923   116076875.524       -1865.216          44.000  
R 2  23325830.124   124471098.944        2560.243          36.000  
S38  39335487.437   206709431.584        -267.561          44.000  
R11  20712109.916   110679477.355         471.686          46.000  
R 1  20721310.243   110767517.008       -1040.125          44.000  
G15  22781306.549   119716719.723        2420.901          49.000  
R 8  21523358.303   115256770.437       -3940.311          45.000  
R20  21405970.711   114467476.356        -596.813          37.000  
R21  21071997.929   112760573.724        2844.804          46.000  
R10  21280604.366   113437642.712       -1541.653          42.000  
S20  37815822.452   198723500.949        -196.207          39.000  
> 2017 11 25 12 57 37.5999999  0 20                     
G 5  23948417.945   125849850.606       -2641.467          45.000  
G11  25439518.530                1      -1495.221          22.000  
G 7  24482160.496   128654637.461       -2648.724          35.000  
G13  20593085.681   108217616.405         903.747          46.000  
R12  23527084.263   125677533.456        1746.785          32.000  
G17  20632935.696   108427055.715        1431.549          50.000  
G19  21726206.321   114172154.570        2230.942          43.000  
G20  24526741.300   128889105.382       -1222.439          36.000  
G28  20727683.817   108924926.284       -2563.599          48.000  
G30  22088763.806   116077248.628       -1865.652          45.000  
R 2  23325735.648   124470587.064        2559.564          36.000  
S38  39335497.768   206709485.072        -267.224          44.000  
R11  20712092.117   110679383.075         471.106          46.000  
R 1  20721348.913   110767724.985       -1039.777          45.000  
G15  22781214.342   119716235.553        2420.850          48.000  
R 8  21523505.443   115257558.407       -3939.457          45.000  
R20  21405993.082   114467595.739        -596.829          38.000  
R21  21071891.692   112760004.791        2844.687          45.000  
R10  21280662.196   113437951.046       -1541.602          41.000  
S20  37815830.060   198723540.187        -196.109          39.000  
> 2017 11 25 12 57 37.7999999  0 20                     
G 5  23948518.354   125850378.980       -2641.376          45.000  
G11  25439578.942                1      -1495.221          22.000  
G 7  24482261.219   128655167.412       -2650.033          37.000  
G13  20593051.234   108217435.727         903.579          46.000  
R12  23527018.860   125677184.192        1746.511          32.000  
G17  20632881.216   108426769.451        1431.392          50.000  
G19  21726121.234   114171708.410        2230.952          44.000  
G20  24526787.787   128889349.936       -1222.911          36.000  
G28  20727781.573   108925439.004       -2563.403          49.000  
G30  22088834.794   116077621.769       -1865.825          45.000  
R 2  23325641.766   124470075.248        2558.691          36.000  
S38  39335507.749   206709538.615        -267.158          43.000  
R11  20712074.283   110679288.834         471.313          46.000  
R 1  20721387.757   110767933.034       -1040.204          46.000  
G15  22781122.170   119715751.446        2420.586          48.000  
R 8  21523652.688   115258346.376       -3939.464          45.000  
R20  21406015.453   114467715.194        -597.548          38.000  
R21  21071785.316   112759435.855        2844.755          44.000  
R10  21280719.957   113438259.439       -1542.407          41.000  
S20  37815837.529   198723579.439        -196.284          38.000  
> 2017 11 25 12 57 37.9999999  0 20                     
G 5  23948618.832   125850907.268       -2641.565          45.000  
G11  25439631.258                1      -1495.221          22.000  
G 7  24482361.871   128655697.262       -2649.819          38.000  
G13  20593016.822   108217255.043         903.091          46.000  
R12  23526953.561   125676834.878        1746.243          33.000  
G17  20632827.051   108426483.167        1431.261          50.000  
G19  21726036.181   114171262.218        2230.786          45.000  
G20  24526834.275   128889594.457       -1222.559          33.000  
G28  20727879.190   108925951.764       -2564.075          48.000  
G30  22088905.677   116077994.916       -1866.119          45.000  
R 2  23325546.907   124469563.389        2558.923          34.000  
S38  39335517.696   206709592.102        -267.621          43.000  
R11  20712056.484   110679194.618         470.685          44.000  
R 1  20721426.636   110768141.083       -1040.595          46.000  
G15  22781029.928   119715267.344        2420.043          48.000  
R 8  21523799.898   115259134.285       -3939.703          45.000  
R20  21406037.650   114467834.628        -597.781          38.000  
R21  21071678.939   112758866.927        2844.285          44.000  
R10  21280777.926   113438567.835       -1542.313          41.000  
S20  37815844.788   198723618.647        -196.461          38.000  
> 2017 11 25 12 57 38.3999999  0 20                     
G 5  23948819.998   125851963.736       -2641.028          45.000  
G11  25439740.461                1      -1495.221          24.000  
G 7  24482563.317   128656757.105       -2650.084          42.000  
G13  20592947.964   108216893.780         903.082          46.000  
R12  23526822.894   125676136.253        1746.963          34.000  
G17  20632718.790   108425910.663        1430.893          50.000  
G19  21725866.181   114170369.811        2230.800          45.000  
G20  24526927.215   128890083.570       -1223.146          34.000  
G28  20728074.248   108926977.424       -2564.337          49.000  
G30  22089047.407   116078741.290       -1866.318          45.000  
R 2  23325356.350   124468539.928        2557.878          34.000  
S38  39335537.903   206709698.988        -267.175          44.000  
R11  20712020.851   110679006.253         470.691          45.000  
R 1  20721504.464   110768557.287       -1040.649          48.000  
G15  22780845.654   119714299.278        2419.830          48.000  
R 8  21524094.178   115260710.053       -3939.505          44.000  
R20  21406082.113   114468073.807        -598.232          38.000  
R21  21071466.186   112757729.132        2844.014          44.000  
R10  21280893.866   113439184.813       -1542.848          41.000  
S20  37815859.481   198723697.024        -196.289          38.000  
> 2017 11 25 12 57 38.5999999  0 20                     
G 5  23948920.407   125852491.957       -2641.211          45.000  
G11  25439793.720                1      -1495.221          24.000  
G 7  24482663.935   128657287.043       -2649.949          42.000  
G13  20592913.691   108216713.197         902.553          45.000  
R12  23526757.456   125675786.957        1746.824          36.000  
G17  20632664.589   108425624.456        1431.030          50.000  
G19  21725781.164   114169923.627        2231.016          45.000  
G20  24526973.702   128890328.109       -1223.069          37.000  
G28  20728171.935   108927490.290       -2564.282          49.000  
G30  22089118.430   116079114.525       -1866.058          45.000  
R 2  23325261.107   124468028.198        2558.666          34.000  
S38  39335547.955   206709752.436        -267.427          44.000  
R11  20712003.086   110678912.075         470.837          44.000  
R 1  20721543.308   110768765.419       -1041.113          48.000  
G15  22780753.552   119713815.239        2419.829          49.000  
R 8  21524241.354   115261497.941       -3939.555          43.000  
R20  21406104.310   114468193.443        -597.808          38.000  
R21  21071359.880   112757160.267        2844.220          44.000  
R10  21280951.765   113439493.297       -1542.370          41.000  
S20  37815867.124   198723736.210        -195.875          38.000  
> 2017 11 25 12 57 38.7999999  0 19                     
G 5  23949020.990   125853020.238       -2641.626          44.000  
G 7  24482764.762   128657817.056       -2650.563          42.000  
G13  20592879.314   108216532.666         902.390          45.000  
R12  23526692.087   125675437.741        1745.908          36.000  
G17  20632610.319   108425338.346        1430.307          50.000  
G19  21725696.356   114169477.539        2230.013          45.000  
G20  24527020.085   128890572.743       -1222.992          36.000  
G28  20728269.551   108928003.223       -2564.978          48.000  
G30  22089189.277   116079487.823       -1866.853          45.000  
R 2  23325167.190   124467516.551        2557.963          34.000  
S38  39335557.831   206709805.938        -267.673          44.000  
R11  20711985.322   110678817.954         470.593          44.000  
R 1  20721582.257   110768973.644       -1041.162          48.000  
G15  22780661.589   119713331.294        2419.782          49.000  
R 8  21524388.459   115262285.922       -3940.076          43.000  
R20  21406126.506   114468313.246        -599.187          38.000  
R21  21071253.643   112756591.500        2843.650          44.000  
R10  21281009.526   113439801.887       -1542.911          41.000  
S20  37815874.628   198723775.470        -196.567          38.000  
> 2017 11 25 12 57 38.9999999  0 19                     
G 5  23949121.573   125853548.538       -2641.461          43.000  
G 7  24482865.485   128658347.077       -2650.487          43.000  
G13  20592844.938   108216352.192         902.220          44.000  
R12  23526626.579   125675088.519        1745.778          36.000  
G17  20632555.944   108425052.260        1430.148          50.000  
G19  21725611.478   114169031.450        2230.146          45.000  
G20  24527066.467   128890817.438       -1223.483          37.000  
G28  20728367.168   108928516.199       -2565.118          48.000  
G30  22089260.370   116079861.144       -1866.934          45.000  
R 2  23325069.085   124467004.989        2558.005          34.000  
S38  39335568.022   206709859.487        -267.675          44.000  
R11  20711967.558   110678723.889         470.197          44.000  
R 1  20721621.276   110769181.959       -1041.925          48.000  
G15  22780569.627   119712847.430        2419.135          50.000  
R 8  21524535.599   115263073.941       -3940.243          43.000  
R20  21406148.808   114468433.086        -599.760          38.000  
R21  21071147.336   112756022.768        2843.156          44.000  
R10  21281067.321   113440110.483       -1543.146          41.000  
S20  37815882.097   198723814.728        -196.974          39.000  
> 2017 11 25 12 57 39.1999999  0 20                     
G 5  23949222.191   125854076.803       -2641.699          43.000  
G11  25439965.360                1      -1500.898          26.000  
G 7  24482966.312   128658877.118       -2650.323          43.000  
G13  20592810.665   108216171.712         902.355          43.000  
R12  23526561.245   125674739.253        1746.677          37.000  
G17  20632501.395   108424766.184        1430.260          50.000  
G19  21725526.495   114168585.382        2230.206          45.000  
G20  24527112.885   128891062.069       -1222.928          37.000  
G28  20728464.784   108929029.179       -2564.923          47.000  
G30  22089331.567   116080234.458       -1866.632          45.000  
R 2  23324973.283   124466493.439        2557.818          35.000  
S38  39335577.969   206709913.000        -267.650          44.000  
R11  20711950.003   110678629.791         470.563          44.000  
R 1  20721660.295   110769390.234       -1041.510          48.000  
G15  22780477.489   119712363.507        2419.539          50.000  
R 8  21524682.809   115263861.936       -3940.139          43.000  
R20  21406171.039   114468552.926        -599.764          38.000  
R21  21071040.959   112755453.997        2843.435          44.000  
R10  21281125.081   113440419.066       -1543.012          43.000  
S20  37815889.530   198723853.943        -196.198          39.000  
> 2017 11 25 12 57 39.3999999  0 20                     
G 5  23949322.704   125854605.085       -2641.461          43.000  
G11  25440020.503                1      -1499.515          26.000  
G 7  24483067.139   128659407.100       -2650.164          43.000  
G13  20592776.219   108215991.250         902.190          42.000  
R12  23526495.877   125674390.069        1745.830          37.000  
G17  20632446.811   108424480.120        1430.106          50.000  
G19  21725441.548   114168139.297        2230.221          45.000  
G20  24527159.442   128891306.754       -1223.383          37.000  
G28  20728562.401   108929542.140       -2564.923          46.000  
G30  22089402.554   116080607.761       -1866.620          45.000  
R 2  23324875.771   124465981.898        2557.677          35.000  
S38  39335587.950   206709966.528        -267.715          44.000  
R11  20711932.587   110678535.722         470.380          45.000  
R 1  20721699.174   110769598.587       -1041.748          48.000  
G15  22780385.282   119711879.638        2419.418          50.000  
R 8  21524829.984   115264649.940       -3940.028          43.000  
R20  21406193.306   114468672.771        -599.313          38.000  
R21  21070934.548   112754885.261        2843.490          44.000  
R10  21281182.981   113440727.626       -1543.127          43.000  
S20  37815897.208   198723893.186        -196.518          40.000  
> 2017 11 25 12 57 39.5999999  0 20                     
G 5  23949423.043   125855133.354       -2641.193          43.000  
G11  25440077.565                1      -1501.471          25.000  
G 7  24483167.932   128659937.150       -2649.854          43.000  
G13  20592741.981   108215810.836         902.248          42.000  
R12  23526430.578   125674040.851        1745.798          37.000  
G17  20632392.296   108424194.115        1430.196          50.000  
G19  21725356.635   114167693.253        2230.444          45.000  
G20  24527205.860   128891551.446       -1223.625          39.000  
G28  20728660.087   108930055.190       -2565.479          45.000  
G30  22089473.576   116080981.116       -1866.721          45.000  
R 2  23324781.540   124465470.398        2557.836          35.000  
S38  39335597.967   206710020.049        -267.805          43.000  
R11  20711915.102   110678441.664         470.178          45.000  
R 1  20721738.157   110769806.953       -1041.925          48.000  
G15  22780293.041   119711395.774        2419.253          49.000  
R 8  21524976.880   115265437.960       -3939.943          43.000  
R20  21406215.712   114468792.742        -599.828          38.000  
R21  21070828.241   112754316.575        2843.668          44.000  
R10  21281240.846   113441036.234       -1543.005          44.000  
S20  37815904.677   198723932.441        -196.282          40.000  
> 2017 11 25 12 57 39.7999999  0 19                     
G 5  23949523.347   125855661.640       -2641.766          43.000  
G 7  24483268.864   128660467.242       -2650.455          43.000  
G13  20592707.569   108215630.431         901.599          41.000  
R12  23526365.279   125673691.618        1745.851          38.000  
G17  20632337.817   108423908.147        1429.698          50.000  
G19  21725271.757   114167247.245        2229.897          45.000  
G20  24527252.347   128891796.119       -1223.517          39.000  
G28  20728757.669   108930568.206       -2565.253          44.000  
G30  22089544.599   116081354.489       -1866.925          44.000  
R 2  23324684.656   124464958.965        2556.681          35.000  
S38  39335607.983   206710073.544        -267.819          43.000  
R11  20711897.478   110678347.589         470.160          46.000  
R 1  20721777.037   110770015.353       -1042.212          47.000  
G15  22780200.799   119710911.920        2419.183          49.000  
R 8  21525123.986   115266225.999       -3940.284          43.000  
R20  21406238.013   114468912.738        -600.420          38.000  
R21  21070721.969   112753747.928        2843.310          45.000  
R10  21281298.641   113441344.833       -1543.329          44.000  
S20  37815912.285   198723971.751        -196.591          40.000  
> 2017 11 25 12 57 39.9999999  0 19                     
G 5  23949623.790   125856190.002       -2642.047          43.000  
G 7  24483369.726   128660997.315       -2650.734          43.000  
G13  20592673.053   108215450.051         901.867          41.000  
R12  23526299.841   125673342.423        1745.823          38.000  
G17  20632283.267   108423622.232        1429.182          50.000  
G19  21725187.054   114166801.297        2229.357          46.000  
G20  24527298.904   128892040.893       -1224.010          39.000  
G28  20728855.215   108931081.281       -2565.631          43.000  
G30  22089615.586   116081727.876       -1867.292          44.000  
R 2  23324588.785   124464447.519        2556.969          35.000  
S38  39335618.035   206710127.114        -267.994          43.000  
R11  20711879.992   110678253.568         470.007          47.000  
R 1  20721816.090   110770223.842       -1042.651          47.000  
G15  22780108.662   119710428.121        2418.840          49.000  
R 8  21525271.056   115267014.132       -3940.695          43.000  
R20  21406260.454   114469032.719        -600.309          40.000  
R21  21070615.837   112753179.368        2842.360          46.000  
R10  21281356.436   113441653.438       -1543.147          44.000  
S20  37815919.684   198724011.099        -197.498          40.000  
> 2017 11 25 12 57 40.3999999  0 19                     
G 5  23949824.747   125857246.827       -2642.255          44.000  
G 7  24483571.590   128662057.546       -2650.931          43.000  
G13  20592604.474   108215089.527         900.861          41.000  
R12  23526168.895   125672644.192        1745.729          40.000  
G17  20632174.238   108423050.535        1428.959          50.000  
G19  21725017.752   114165909.486        2229.312          46.000  
G20  24527392.193   128892530.552       -1224.558          39.000  
G28  20729050.553   108932107.535       -2565.912          41.000  
G30  22089757.910   116082474.755       -1867.606          45.000  
R 2  23324395.751   124463424.891        2556.451          36.000  
S38  39335638.416   206710234.332        -267.957          43.000  
R11  20711845.127   110678065.653         469.910          47.000  
R 1  20721893.988   110770641.006       -1043.182          45.000  
G15  22779924.527   119709460.679        2418.482          49.000  
R 8  21525565.406   115268590.461       -3940.822          43.000  
R20  21406305.336   114469272.941        -600.802          40.000  
R21  21070403.503   112752042.289        2842.417          45.000  
R10  21281472.236   113442270.771       -1543.551          44.000  
S20  37815934.901   198724089.897        -197.258          40.000  
> 2017 11 25 12 57 40.5999999  0 19                     
G 5  23949925.330   125857775.342       -2642.871          45.000  
G 7  24483672.453   128662587.659       -2650.728          43.000  
G13  20592570.166   108214909.368         900.646          41.000  
R12  23526103.701   125672295.173        1744.699          40.000  
G17  20632119.689   108422764.764        1428.382          50.000  
G19  21724933.048   114165463.662        2228.514          46.000  
G20  24527438.750   128892775.499       -1225.386          39.000  
G28  20729148.309   108932620.686       -2566.296          42.000  
G30  22089829.212   116082848.217       -1867.742          45.000  
R 2  23324300.856   124462913.669        2555.768          36.000  
S38  39335648.782   206710288.079        -269.296          43.000  
R11  20711827.572   110677971.777         469.189          48.000  
R 1  20721933.076   110770849.731       -1043.994          46.000  
G15  22779832.460   119708977.073        2417.739          49.000  
R 8  21525712.686   115269378.751       -3942.183          43.000  
R20  21406327.777   114469393.113        -600.950          41.000  
R21  21070297.301   112751473.811        2841.948          45.000  
R10  21281530.066   113442579.476       -1543.480          44.000  
S20  37815942.439   198724129.304        -197.291          40.000  
> 2017 11 25 12 57 40.7999999  0 19                     
G 5  23950026.087   125858303.897       -2642.853          45.000  
G 7  24483773.350   128663117.768       -2650.244          43.000  
G13  20592535.964   108214729.317         900.089          42.000  
R12  23526038.332   125671946.192        1744.279          40.000  
G17  20632065.209   108422479.021        1429.037          50.000  
G19  21724848.380   114165017.865        2229.229          47.000  
G20  24527485.447   128893020.526       -1225.264          39.000  
G28  20729245.926   108933133.836       -2565.234          42.000  
G30  22089900.444   116083221.669       -1867.105          45.000  
R 2  23324206.311   124462402.521        2555.990          36.000  
S38  39335659.182   206710341.854        -269.121          43.000  
R11  20711810.122   110677877.911         469.189          48.000  
R 1  20721972.165   110771058.554       -1044.171          46.000  
G15  22779740.427   119708493.522        2417.589          50.000  
R 8  21525859.826   115270167.089       -3941.545          42.000  
R20  21406350.253   114469513.311        -601.090          41.000  
R21  21070190.994   112750905.332        2842.543          45.000  
R10  21281587.965   113442888.169       -1543.556          44.000  
S20  37815949.978   198724168.692        -196.529          40.000  
> 2017 11 25 12 57 40.9999999  0 19                     
G 5  23950126.950   125858832.527       -2643.121          46.000  
G 7  24483874.317   128663647.826       -2650.295          44.000  
G13  20592501.727   108214549.249         900.193          42.000  
R12  23525973.033   125671597.295        1744.736          40.000  
G17  20632010.730   108422193.311        1428.409          50.000  
G19  21724763.746   114164572.112        2228.818          47.000  
G20  24527532.353   128893265.631       -1225.375          39.000  
G28  20729343.437   108933647.039       -2565.845          42.000  
G30  22089971.710   116083595.091       -1867.054          45.000  
R 2  23324113.476   124461891.394        2555.770          38.000  
S38  39335669.408   206710395.730        -269.357          44.000  
R11  20711792.602   110677784.099         469.336          49.000  
R 1  20722011.149   110771267.486       -1044.958          46.000  
G15  22779648.709   119708010.034        2417.507          50.000  
R 8  21526006.897   115270955.525       -3942.422          42.000  
R20  21406372.729   114469633.502        -601.331          42.000  
R21  21070084.618   112750336.863        2842.277          45.000  
R10  21281645.935   113443196.814       -1543.410          44.000  
S20  37815957.516   198724208.069        -196.922          40.000  
> 2017 11 25 12 57 41.1999999  0 19                     
G 5  23950227.603   125859361.258       -2644.012          45.000  
G 7  24483975.214   128664177.898       -2650.160          44.000  
G13  20592467.280   108214369.314         899.775          42.000  
R12  23525907.700   125671248.557        1743.189          40.000  
G17  20631956.355   108421907.656        1428.178          50.000  
G19  21724678.973   114164126.411        2228.274          46.000  
G20  24527578.911   128893510.931       -1227.242          37.000  
G28  20729441.019   108934160.246       -2566.272          42.000  
G30  22090042.698   116083968.521       -1866.852          45.000  
R 2  23324018.477   124461380.362        2554.925          36.000  
S38  39335679.599   206710449.714        -270.352          44.000  
R11  20711775.186   110677690.378         468.298          48.000  
R 1  20722050.202   110771476.498       -1045.361          46.000  
G15  22779556.816   119707526.665        2416.597          50.000  
R 8  21526154.142   115271744.021       -3942.390          44.000  
R20  21406395.240   114469753.752        -601.086          42.000  
R21  21069978.451   112749768.454        2841.884          46.000  
R10  21281703.625   113443505.515       -1543.304          44.000  
S20  37815965.125   198724247.456        -196.501          40.000  
> 2017 11 25 12 57 41.3999999  0 19                     
G 5  23950328.186   125859890.002       -2643.396          45.000  
G 7  24484076.320   128664707.942       -2650.165          46.000  
G13  20592432.798   108214189.404         899.202          42.000  
R12  23525842.401   125670899.816        1743.584          39.000  
G17  20631901.980   108421621.981        1428.560          50.000  
G19  21724594.095   114163680.658        2229.041          46.000  
G20  24527625.677   128893756.209       -1226.113          38.000  
G28  20729538.601   108934673.448       -2565.497          42.000  
G30  22090113.790   116084341.898       -1866.926          45.000  
R 2  23323921.558   124460869.511        2554.836          33.000  
S38  39335689.895   206710503.694        -269.658          44.000  
R11  20711757.806   110677596.660         468.701          48.000  
R 1  20722089.291   110771685.596       -1045.502          46.000  
G15  22779464.888   119707043.332        2416.628          50.000  
R 8  21526301.561   115272532.520       -3942.414          44.000  
R20  21406417.646   114469873.935        -600.942          42.000  
R21  21069871.969   112749199.962        2843.081          46.000  
R10  21281761.490   113443814.138       -1543.512          44.000  
S20  37815972.698   198724286.755        -196.065          40.000  
> 2017 11 25 12 57 41.5999999  0 19                     
G 5  23950428.804   125860418.854       -2644.586          45.000  
G 7  24484177.148   128665237.903       -2649.421          44.000  
G13  20592398.421   108214009.560         899.033          42.000  
R12  23525777.137   125670551.106        1743.535          39.000  
G17  20631847.431   108421336.357        1428.014          50.000  
G19  21724509.322   114163234.991        2228.015          47.000  
G20  24527672.479   128894001.593       -1227.206          38.000  
G28  20729636.217   108935186.690       -2566.626          42.000  
G30  22090184.917   116084715.309       -1866.895          45.000  
R 2  23323826.350   124460358.493        2554.881          34.000  
S38  39335700.155   206710557.854        -271.156          42.000  
R11  20711740.216   110677502.975         468.353          48.000  
R 1  20722128.309   110771894.780       -1045.996          46.000  
G15  22779372.995   119706560.036        2416.215          50.000  
R 8  21526448.841   115273321.147       -3943.395          44.000  
R20  21406440.087   114469994.183        -601.273          42.000  
R21  21069765.698   112748631.553        2841.646          46.000  
R10  21281819.425   113444122.772       -1542.891          45.000  
S20  37815980.272   198724326.101        -196.715          40.000  
> 2017 11 25 12 57 41.7999999  0 19                     
G 5  23950529.317   125860947.696       -2644.220          46.000  
G 7  24484278.150   128665767.961       -2650.140          44.000  
G13  20592364.149   108213829.814         898.595          42.000  
R12  23525711.804   125670202.523        1743.223          39.000  
G17  20631793.056   108421050.776        1427.732          50.000  
G19  21724424.444   114162789.335        2228.453          47.000  
G20  24527719.350   128894247.043       -1227.361          38.000  
G28  20729733.729   108935699.878       -2566.205          42.000  
G30  22090256.079   116085088.702       -1866.960          45.000  
R 2  23323730.199   124459847.658        2552.874          34.000  
S38  39335710.486   206710611.952        -270.834          44.000  
R11  20711722.661   110677409.343         468.073          48.000  
R 1  20722167.503   110772104.064       -1046.930          46.000  
G15  22779280.963   119706076.857        2415.805          49.000  
R 8  21526596.156   115274109.787       -3943.198          44.000  
R20  21406462.667   114470114.485        -601.667          42.000  
R21  21069659.426   112748063.094        2842.686          46.000  
R10  21281877.255   113444431.433       -1543.351          45.000  
S20  37815987.810   198724365.392        -196.172          40.000  
> 2017 11 25 12 57 41.9999999  0 19                     
G 5  23950630.074   125861476.659       -2645.404          45.000  
G 7  24484379.151   128666297.945       -2651.044          44.000  
G13  20592330.017   108213650.119         898.079          42.000  
R12  23525646.680   125669854.001        1742.338          40.000  
G17  20631738.541   108420765.199        1427.702          50.000  
G19  21724339.567   114162343.711        2227.747          46.000  
G20  24527766.151   128894492.688       -1228.534          38.000  
G28  20729831.380   108936213.176       -2566.809          41.000  
G30  22090327.067   116085462.071       -1866.856          44.000  
R 2  23323633.874   124459336.887        2554.212          34.000  
S38  39335720.991   206710666.196        -271.412          44.000  
R11  20711705.071   110677315.784         467.444          47.000  
R 1  20722206.696   110772313.483       -1047.522          46.000  
G15  22779188.965   119705593.750        2415.190          49.000  
R 8  21526743.505   115274898.564       -3944.389          43.000  
R20  21406485.353   114470234.734        -601.315          42.000  
R21  21069553.259   112747494.752        2841.481          46.000  
R10  21281935.155   113444740.096       -1543.756          45.000  
S20  37815995.314   198724404.704        -196.914          40.000  
> 2017 11 25 12 57 42.3999999  0 19                     
G 5  23950831.310   125862534.668       -2644.684          46.000  
G 7  24484581.085   128667357.585       -2649.185          45.000  
G13  20592261.647   108213290.842         897.905          42.000  
R12  23525516.326   125669157.192        1742.146          40.000  
G17  20631630.071   108420194.012        1427.894          50.000  
G19  21724169.985   114161452.449        2227.853          47.000  
G20  24527859.894   128894984.048       -1228.352          38.000  
G28  20730026.858   108937239.603       -2566.510          44.000  
G30  22090469.181   116086208.662       -1866.937          45.000  
R 2  23323441.887   124458315.636        2552.945          36.000  
S38  39335741.792   206710774.840        -271.021          43.000  
R11  20711670.066   110677128.774         467.383          48.000  
R 1  20722285.222   110772732.565       -1047.882          46.000  
G15  22779004.970   119704627.735        2414.537          49.000  
R 8  21527038.309   115276476.084       -3943.555          43.000  
R20  21406530.374   114470475.251        -601.774          43.000  
R21  21069340.855   112746357.711        2842.924          46.000  
R10  21282051.059   113445357.244       -1542.621          45.000  
S20  37816010.286   198724483.150        -196.542          40.000  
> 2017 11 25 12 57 42.5999999  0 19                     
G 5  23950931.963   125863063.783       -2646.039          45.000  
G 7  24484682.087   128667887.458       -2650.033          46.000  
G13  20592227.374   108213111.299         897.328          42.000  
R12  23525450.993   125668808.873        1741.287          40.000  
G17  20631575.731   108419908.515        1427.045          50.000  
G19  21724085.177   114161006.860        2227.710          47.000  
G20  24527906.661   128895229.817       -1228.652          39.000  
G28  20730124.614   108937752.888       -2566.827          43.000  
G30  22090540.064   116086581.993       -1866.866          44.000  
R 2  23323347.202   124457805.223        2552.595          33.000  
S38  39335752.087   206710829.288        -271.893          43.000  
R11  20711652.616   110677035.348         466.876          48.000  
R 1  20722324.345   110772942.232       -1048.737          45.000  
G15  22778913.042   119704144.827        2414.178          48.000  
R 8  21527185.694   115277264.975       -3944.806          43.000  
R20  21406553.059   114470595.561        -601.854          43.000  
R21  21069234.618   112745789.363        2841.616          46.000  
R10  21282108.924   113445665.911       -1543.443          45.000  
S20  37816017.580   198724522.399        -196.811          40.000  
> 2017 11 25 12 57 42.7999999  0 19                     
G 5  23951032.756   125863592.847       -2646.027          45.000  
G 7  24484782.880   128668417.400       -2649.154          46.000  
G13  20592193.242   108212931.812         897.424          44.000  
R12  23525385.694   125668460.571        1741.150          40.000  
G17  20631521.356   108419623.066        1427.245          50.000  
G19  21724000.544   114160561.321        2227.986          47.000  
G20  24527953.567   128895475.660       -1228.916          38.000  
G28  20730222.126   108938266.185       -2566.534          43.000  
G30  22090610.772   116086955.376       -1866.379          43.000  
R 2  23323251.226   124457294.887        2551.090          33.000  
S38  39335762.522   206710883.688        -272.229          43.000  
R11  20711635.061   110676941.945         467.316          48.000  
R 1  20722363.573   110773151.931       -1049.072          45.000  
G15  22778821.080   119703661.928        2414.897          49.000  
R 8  21527332.939   115278053.853       -3944.153          43.000  
R20  21406575.431   114470716.008        -601.680          43.000  
R21  21069128.346   112745220.984        2842.160          45.000  
R10  21282166.859   113445974.623       -1543.669          45.000  
S20  37816025.084   198724561.660        -196.137          40.000  
> 2017 11 25 12 57 42.9999999  0 19                     
G 5  23951133.443   125864121.892       -2644.867          44.000  
G 7  24484883.777   128668947.375       -2650.145          45.000  
G13  20592159.109   108212752.305         897.188          43.000  
R12  23525320.465   125668112.132        1742.550          41.000  
G17  20631467.016   108419337.656        1427.309          50.000  
G19  21723915.875   114160115.840        2227.265          46.000  
G20  24528000.298   128895721.397       -1228.295          38.000  
G28  20730319.672   108938779.572       -2566.626          41.000  
G30  22090681.620   116087328.834       -1867.882          44.000  
R 2  23323155.424   124456784.388        2550.369          33.000  
S38  39335773.062   206710937.974        -271.432          44.000  
R11  20711617.506   110676848.451         466.974          48.000  
R 1  20722402.662   110773361.559       -1048.248          45.000  
G15  22778729.257   119703178.979        2414.819          49.000  
R 8  21527480.288   115278842.763       -3944.977          43.000  
R20  21406598.046   114470836.456        -602.776          43.000  
R21  21069022.039   112744652.719        2841.395          46.000  
R10  21282224.794   113446283.256       -1543.871          44.000  
S20  37816032.448   198724600.996        -196.006          40.000  
> 2017 11 25 12 57 43.1999999  0 19                     
G 5  23951233.992   125864650.987       -2645.190          45.000  
G 7  24484984.639   128669477.390       -2650.092          45.000  
G13  20592124.872   108212572.847         897.518          42.000  
R12  23525255.271   125667763.775        1741.783          43.000  
G17  20631412.606   108419052.318        1426.233          50.000  
G19  21723831.032   114159670.372        2226.993          46.000  
G20  24528047.239   128895967.216       -1229.130          38.000  
G28  20730417.359   108939292.922       -2567.975          41.000  
G30  22090752.642   116087702.294       -1867.352          44.000  
R 2  23323060.530   124456273.765        2553.855          36.000  
S38  39335783.218   206710992.339        -271.838          43.000  
R11  20711600.091   110676755.030         467.310          49.000  
R 1  20722441.890   110773571.273       -1048.132          46.000  
G15  22778637.189   119702696.096        2414.226          49.000  
R 8  21527627.464   115279631.623       -3944.332          43.000  
R20  21406620.731   114470957.054        -603.168          43.000  
R21  21068915.977   112744084.473        2840.944          46.000  
R10  21282282.763   113446592.012       -1543.423          44.000  
S20  37816039.986   198724640.413        -197.165          40.000  
> 2017 11 25 12 57 43.3999999  0 19                     
G 5  23951334.679   125865180.110       -2645.746          45.000  
G 7  24485085.536   128670007.464       -2650.093          45.000  
G13  20592090.739   108212393.450         896.929          43.000  
R12  23525189.903   125667415.423        1741.463          43.000  
G17  20631358.231   108418767.030        1426.446          50.000  
G19  21723746.294   114159224.963        2227.133          46.000  
G20  24528093.971   128896213.041       -1229.218          38.000  
G28  20730515.010   108939806.329       -2566.895          40.000  
G30  22090823.630   116088075.788       -1867.006          44.000  
R 2  23322964.938   124455763.477        2551.167          33.000  
S38  39335793.584   206711046.749        -272.089          43.000  
R11  20711582.641   110676661.656         466.705          49.000  
R 1  20722481.153   110773781.113       -1048.987          45.000  
G15  22778545.297   119702213.254        2414.189          49.000  
R 8  21527774.674   115280420.629       -3944.792          43.000  
R20  21406643.242   114471077.615        -603.416          43.000  
R21  21068809.705   112743516.249        2841.083          45.000  
R10  21282340.733   113446900.780       -1543.916          45.000  
S20  37816047.455   198724679.806        -196.884          40.000  
> 2017 11 25 12 57 43.5999999  0 19                     
G 5  23951435.542   125865709.255       -2645.758          45.000  
G 7  24485186.329   128670537.557       -2651.224          46.000  
G13  20592056.676   108212214.096         896.628          44.000  
R12  23525124.709   125667067.077        1742.159          43.000  
G17  20631303.926   108418481.797        1425.906          50.000  
G19  21723661.486   114158779.637        2226.497          46.000  
G20  24528140.668   128896458.962       -1229.381          38.000  
G28  20730612.662   108940319.834       -2567.236          40.000  
G30  22090894.652   116088449.310       -1867.414          44.000  
R 2  23322869.624   124455253.216        2550.016          29.000  
S38  39335804.019   206711101.171        -272.163          44.000  
R11  20711565.156   110676568.263         466.998          49.000  
R 1  20722520.555   110773990.972       -1049.457          46.000  
G15  22778453.543   119701730.461        2414.252          50.000  
R 8  21527921.988   115281209.661       -3945.176          44.000  
R20  21406665.893   114471198.253        -603.230          43.000  
R21  21068703.712   112742948.130        2840.833          46.000  
R10  21282398.563   113447209.522       -1544.290          45.000  
S20  37816054.924   198724719.243        -197.279          40.000  
> 2017 11 25 12 57 43.7999999  0 19                     
G 5  23951536.020   125866238.556       -2646.356          43.000  
G 7  24485287.156   128671067.643       -2650.940          46.000  
G13  20592022.613   108212034.836         896.350          44.000  
R12  23525059.445   125666718.896        1741.399          42.000  
G17  20631249.865   108418196.619        1425.854          51.000  
G19  21723576.608   114158334.356        2226.505          46.000  
G20  24528187.504   128896704.925       -1229.080          40.000  
G28  20730710.383   108940833.368       -2568.433          42.000  
G30  22090965.884   116088822.902       -1867.963          45.000  
R 2  23322777.138   124454742.784        2551.728          33.000  
S38  39335814.524   206711155.648        -272.639          43.000  
R11  20711547.705   110676474.950         466.541          48.000  
R 1  20722559.923   110774200.953       -1049.579          47.000  
G15  22778361.616   119701247.760        2413.264          50.000  
R 8  21528069.129   115281998.827       -3945.823          41.000  
R20  21406688.403   114471319.004        -604.089          43.000  
R21  21068597.789   112742380.061        2839.700          47.000  
R10  21282456.358   113447518.346       -1544.189          45.000  
S20  37816062.532   198724758.707        -197.284          41.000  
> 2017 11 25 12 57 43.9999999  0 19                     
G 5  23951636.812   125866767.767       -2646.460          45.000  
G 7  24485387.914   128671597.719       -2649.888          45.000  
G13  20591988.551   108211855.609         896.420          44.000  
R12  23524994.146   125666370.699        1741.317          42.000  
G17  20631195.595   108417911.464        1426.053          51.000  
G19  21723491.800   114157889.063        2225.992          46.000  
G20  24528234.341   128896950.986       -1229.840          39.000  
G28  20730808.313   108941346.827       -2567.651          42.000  
G30  22091036.976   116089196.461       -1867.938          45.000  
R 2  23322677.393   124454232.4461       2553.893          34.000  
S38  39335824.889   206711210.161        -272.340          43.000  
R11  20711530.255   110676381.692         466.547          48.000  
R 1  20722599.430   110774411.007       -1050.263          46.000  
G15  22778269.723   119700765.084        2413.138          48.000  
R 8  21528216.304   115282787.902       -3945.265          43.000  
R20  21406711.019   114471439.739        -603.715          43.000  
R21  21068491.552   112741811.942        2840.713          46.000  
R10  21282514.188   113447827.153       -1543.679          44.000  
S20  37816070.105   198724798.186        -197.399          41.000  
> 2017 11 25 12 57 44.1999999  0 19                     
G 5  23951737.605   125867297.058       -2645.654          45.000  
G 7  24485488.741   128672127.858       -2651.381          47.000  
G13  20591954.488   108211676.410         896.212          44.000  
R12  23524929.022   125666022.586        1741.051          41.000  
G17  20631141.185   108417626.344        1425.197          50.000  
G19  21723407.201   114157443.816        2226.834          46.000  
G20  24528281.177   128897197.082       -1230.509          38.000  
G28  20730906.035   108941860.394       -2567.706          43.000  
G30  22091108.069   116089570.053       -1868.335          45.000  
R 2  23322578.171   124453722.3641       2550.137          36.000  
S38  39335835.325   206711264.684        -272.357          44.000  
R11  20711512.700   110676288.461         465.930          47.000  
R 1  20722638.763   110774621.104       -1050.446          46.000  
G15  22778177.795   119700282.445        2413.413          48.000  
R 8  21528363.653   115283577.110       -3945.704          42.000  
R20  21406733.704   114471560.540        -603.945          43.000  
R21  21068385.490   112741243.929        2839.947          46.000  
R10  21282572.088   113448136.007       -1544.533          44.000  
S20  37816077.469   198724837.663        -197.565          41.000  
> 2017 11 25 12 57 44.3999999  0 19                     
G 5  23951838.502   125867826.353       -2646.503          45.000  
G 7  24485589.813   128672658.068       -2651.295          47.000  
G13  20591920.495   108211497.247         895.312          44.000  
R12  23524863.758   125665674.403        1740.305          41.000  
G17  20631086.950   108417341.301        1425.029          50.000  
G19  21723322.568   114156998.641        2225.425          47.000  
G20  24528327.979   128897443.180       -1231.194          36.000  
G28  20731003.756   108942373.956       -2567.816          42.000  
G30  22091179.126   116089943.709       -1868.616          45.000  
R 2  23322480.834   124453212.112        2550.369          40.000  
S38  39335845.690   206711319.157        -272.531          44.000  
R11  20711495.041   110676195.189         466.101          47.000  
R 1  20722678.026   110774831.184       -1050.696          46.000  
G15  22778085.937   119699799.783        2413.484          49.000  
R 8  21528511.178   115284366.245       -3946.112          43.000  
R20  21406756.285   114471681.466        -604.602          43.000  
R21  21068279.358   112740675.944        2839.420          46.000  
R10  21282629.918   113448444.842       -1544.301          44.000  
S20  37816085.008   198724877.158        -197.621          40.000  
> 2017 11 25 12 57 44.5999999  0 19                     
G 5  23951939.364   125868355.656       -2646.887          44.000  
G 7  24485690.640   128673188.222       -2651.085          45.000  
G13  20591886.572   108211318.130         895.482          44.000  
R12  23524798.669   125665326.265        1740.653          41.000  
G17  20631032.645   108417056.275        1425.042          50.000  
G19  21723237.795   114156553.463        2225.920          46.000  
G20  24528374.640   128897689.253       -1230.121          37.000  
G28  20731101.652   108942887.635       -2568.304          41.000  
G30  22091250.218   116090317.376       -1868.254          44.000  
R 2  23322384.369   124452702.094        2550.531          37.000  
S38  39335855.986   206711373.701        -272.224          44.000  
R11  20711477.625   110676101.979         466.223          48.000  
R 1  20722717.219   110775041.365       -1050.342          45.000  
G15  22777994.184   119699317.217        2413.317          50.000  
R 8  21528658.283   115285155.455       -3946.416          43.000  
R20  21406778.830   114471802.395        -604.824          43.000  
R21  21068173.260   112740108.031        2839.794          47.000  
R10  21282687.957   113448753.746       -1544.276          44.000  
S20  37816092.616   198724916.658        -197.215          40.000  
> 2017 11 25 12 57 44.7999999  0 19                     
G 5  23952040.192   125868884.898       -2645.459          45.000  
G 7  24485791.432   128673718.386       -2650.455          45.000  
G13  20591852.613   108211139.039         896.082          44.000  
R12  23524733.649   125664978.069        1741.039          42.000  
G17  20630978.445   108416771.293        1424.798          51.000  
G19  21723152.987   114156108.309        2225.906          46.000  
G20  24528421.372   128897935.344       -1230.026          37.000  
G28  20731199.338   108943401.221       -2568.768          39.000  
G30  22091321.310   116090691.077       -1868.529          44.000  
R 2  23322288.497   124452191.965        2550.231          37.000  
S38  39335866.526   206711428.200        -272.670          44.000  
R11  20711460.350   110676008.752         465.955          47.000  
R 1  20722756.447   110775251.546       -1050.940          45.000  
G15  22777902.431   119698834.629        2412.603          49.000  
R 8  21528805.632   115285944.634       -3945.572          44.000  
R20  21406801.446   114471923.362        -604.697          42.000  
R21  21068067.268   112739540.089        2839.381          46.000  
R10  21282745.927   113449062.630       -1544.632          44.000  
S20  37816100.050   198724956.170        -197.357          39.000  
> 2017 11 25 12 57 44.9999999  0 19                     
G 5  23952140.879   125869414.277       -2646.417          45.000  
G 7  24485892.295   128674248.545       -2650.353          45.000  
G13  20591818.586   108210960.016         894.895          44.000  
R12  23524668.525   125664629.983        1740.513          42.000  
G17  20630924.174   108416486.324        1424.637          51.000  
G19  21723068.039   114155663.145        2225.224          46.000  
G20  24528468.209   128898181.530       -1230.690          37.000  
G28  20731297.059   108943914.868       -2568.109          41.000  
G30  22091392.298   116091064.745       -1869.398          45.000  
R 2  23322194.266   124451681.874        2550.273          36.000  
S38  39335876.996   206711482.744        -272.648          44.000  
R11  20711443.039   110675915.605         465.710          48.000  
R 1  20722795.501   110775461.838       -1051.434          44.000  
G15  22777810.817   119698352.094        2412.654          50.000  
R 8  21528952.843   115286733.955       -3946.361          43.000  
R20  21406824.166   114472044.353        -605.437          42.000  
R21  21067961.101   112738972.163        2839.491          46.000  
R10  21282803.862   113449371.498       -1544.760          44.000  
S20  37816107.588   198724995.689        -198.000          40.000  
> 2017 11 25 12 57 45.1999999  0 19                     
G 5  23952241.637   125869943.574       -2646.777          44.000  
G 7  24485993.297   128674778.791       -2650.083          45.000  
G13  20591784.488   108210780.968         895.282          43.000  
R12  23524603.296   125664281.874        1740.026          42.000  
G17  20630870.009   108416201.409        1424.425          50.000  
G19  21722983.336   114155218.040        2225.588          46.000  
G20  24528514.975   128898427.684       -1230.569          39.000  
G28  20731394.606   108944428.556       -2568.219          39.000  
G30  22091463.390   116091438.434       -1868.178          44.000  
R 2  23322104.083   124451172.1271       2550.197          34.000  
S38  39335887.466   206711537.250        -272.507          44.000  
R11  20711425.554   110675822.408         465.759          48.000  
R 1  20722834.799   110775672.113       -1051.550          45.000  
G15  22777718.959   119697869.586        2412.450          50.000  
R 8  21529100.297   115287523.178       -3946.602          44.000  
R20  21406846.747   114472165.433        -605.714          42.000  
R21  21067855.213   112738404.323        2839.322          46.000  
R10  21282861.831   113449680.456       -1544.256          45.000  
S20  37816115.162   198725035.226        -198.000          40.000  
> 2017 11 25 12 57 45.3999999  0 19                     
G 5  23952342.220   125870472.931       -2647.205          44.000  
G 7  24486094.333   128675309.181       -2652.035          45.000  
G13  20591750.285   108210602.045         894.382          43.000  
R12  23524537.928   125663933.759        1740.266          42.000  
G17  20630815.634   108415916.587        1423.998          50.000  
G19  21722898.458   114154773.011        2225.119          46.000  
G20  24528561.672   128898673.898       -1231.113          39.000  
G28  20731492.292   108944942.349       -2569.019          40.000  
G30  22091534.552   116091812.261       -1868.611          45.000  
R 2  23322008.037   124450662.1771       2546.904          34.000  
S38  39335897.936   206711591.786        -272.258          45.000  
R11  20711408.208   110675729.258         465.735          48.000  
R 1  20722874.167   110775882.483       -1052.429          45.000  
G15  22777627.136   119697387.117        2412.034          50.000  
R 8  21529247.681   115288312.482       -3946.614          44.000  
R20  21406869.327   114472286.606        -606.335          43.000  
R21  21067749.185   112737836.522        2838.702          46.000  
R10  21282919.836   113449989.502       -1545.613          45.000  
S20  37816122.596   198725074.781        -198.330          40.000  
> 2017 11 25 12 57 45.5999999  0 19                     
G 5  23952443.117   125871002.261       -2646.790          44.000  
G 7  24486195.091   128675839.363       -2651.780          45.000  
G13  20591716.327   108210423.083         894.520          44.000  
R12  23524472.699   125663585.685        1739.979          43.000  
G17  20630761.538   108415631.731        1423.970          50.000  
G19  21722813.685   114154327.943        2224.697          46.000  
G20  24528608.404   128898920.162       -1231.311          39.000  
G28  20731589.978   108945456.101       -2569.110          41.000  
G30  22091605.923   116092186.033       -1868.928          45.000  
R 2  23321912.654   124450152.1841       2548.736          33.000  
S38  39335908.546   206711646.367        -272.700          45.000  
R11  20711390.863   110675636.144         465.387          48.000  
R 1  20722913.604   110776092.887       -1052.588          45.000  
G15  22777535.313   119696904.668        2412.124          50.000  
R 8  21529395.136   115289101.818       -3946.333          44.000  
R20  21406891.943   114472407.743        -605.702          43.000  
R21  21067643.367   112737268.721        2838.589          46.000  
R10  21282977.771   113450298.385       -1544.501          45.000  
S20  37816130.064   198725114.243        -197.342          40.000  
> 2017 11 25 12 57 45.7999999  0 19                     
G 5  23952543.875   125871531.629       -2646.149          45.000  
G 7  24486296.058   128676369.654       -2651.482          46.000  
G13  20591682.404   108210244.183         894.710          44.000  
R12  23524407.505   125663237.609        1740.140          43.000  
G17  20630707.233   108415346.919        1424.109          50.000  
G19  21722728.946   114153882.911        2225.609          46.000  
G20  24528655.380   128899166.438       -1231.367          39.000  
G28  20731687.560   108945969.784       -2568.567          42.000  
G30  22091677.015   116092559.791       -1869.087          44.000  
R 2  23321816.190   124449642.2741       2551.707          36.000  
S38  39335919.121   206711700.937        -272.450          44.000  
R11  20711373.448   110675543.043         465.271          48.000  
R 1  20722952.937   110776303.341       -1052.338          45.000  
G15  22777443.560   119696422.287        2412.009          50.000  
R 8  21529542.590   115289891.127       -3946.627          44.000  
R20  21406914.558   114472528.973        -606.029          43.000  
R21  21067537.026   112736700.941        2838.702          46.000  
R10  21283035.740   113450607.411       -1545.057          45.000  
S20  37816137.463   198725153.844        -197.450          41.000  
> 2017 11 25 12 57 45.9999999  0 19                     
G 5  23952644.493   125872061.087       -2647.412          43.000  
G 7  24486396.920   128676899.920       -2651.201          45.000  
G13  20591648.341   108210065.336         894.349          43.000  
R12  23524342.206   125662889.581        1739.865          42.000  
G17  20630652.893   108415062.185        1423.762          50.000  
G19  21722644.487   114153437.982        2224.412          47.000  
G20  24528702.321   128899412.743       -1232.023          39.000  
G28  20731785.281   108946483.671       -2568.707          44.000  
G30  22091748.108   116092933.606       -1868.897          44.000  
R 2  23321720.912                1       2548.698          33.000  
S38  39335929.381   206711755.572        -272.493          44.000  
R11  20711356.032   110675449.930         465.564          49.000  
R 1  20722992.444   110776513.844       -1052.704          45.000  
G15  22777351.737   119695939.900        2411.496          49.000  
R 8  21529689.905   115290680.573       -3947.136          43.000  
R20  21406937.209   114472650.212        -606.498          42.000  
R21  21067430.893   112736133.208        2838.686          46.000  
R10  21283093.570   113450916.350       -1544.442          44.000  
S20  37816145.036   198725193.424        -198.200          40.000  
> 2017 11 25 12 57 46.1999999  0 19                     
G 5  23952744.971   125872590.444       -2647.363          43.000  
G 7  24486497.852   128677430.215       -2651.669          45.000  
G13  20591614.209   108209886.481         894.083          43.000  
R12  23524276.942   125662541.545        1739.828          42.000  
G17  20630598.833   108414777.452        1423.268          51.000  
G19  21722559.714   114152992.999        2224.691          46.000  
G20  24528749.157   128899659.005       -1231.210          39.000  
G28  20731882.898   108946997.412       -2569.653          43.000  
G30  22091819.270   116093307.429       -1869.902          44.000  
R 2  23321623.504   124448622.8981       2546.604          33.000  
S38  39335939.852   206711810.172        -272.682          44.000  
R11  20711338.791   110675356.865         465.607          49.000  
R 1  20723031.742   110776724.378       -1053.516          44.000  
G15  22777259.948   119695457.530        2411.564          49.000  
R 8  21529837.464   115291469.990       -3947.450          44.000  
R20  21406959.859   114472771.521        -606.792          42.000  
R21  21067324.726   112735565.535        2838.593          45.000  
R10  21283151.610   113451225.382       -1544.946          44.000  
S20  37816152.575   198725233.018        -198.099          40.000  
> 2017 11 25 12 57 46.3999999  0 19                     
G 5  23952845.624   125873119.887       -2646.857          43.000  
G 7  24486598.994   128677960.616       -2651.475          45.000  
G13  20591580.111   108209707.724         893.731          43.000  
R12  23524211.713   125662193.520        1739.797          43.000  
G17  20630544.702   108414492.809        1423.218          51.000  
G19  21722475.150   114152548.105        2224.486          47.000  
G20  24528796.168   128899905.396       -1231.326          39.000  
G28  20731980.654   108947511.288       -2569.086          42.000  
G30  22091890.327   116093681.290       -1869.067          44.000  
R 2  23321527.877                1       2545.113          29.000  
S38  39335950.496   206711864.841        -272.985          45.000  
R11  20711321.411   110675263.829         464.948          49.000  
R 1  20723071.145   110776934.951       -1052.716          46.000  
G15  22777168.056   119694975.182        2411.680          49.000  
R 8  21529984.848   115292259.457       -3947.115          44.000  
R20  21406982.579   114472892.920        -607.361          42.000  
R21  21067218.629   112734997.960        2837.421          45.000  
R10  21283209.509   113451534.421       -1545.379          44.000  
S20  37816159.974   198725272.670        -198.525          39.000  
> 2017 11 25 12 57 46.5999999  0 19                     
G 5  23952946.172   125873649.381       -2646.521          43.000  
G 7  24486699.996   128678490.964       -2651.678          45.000  
G13  20591546.013   108209528.958         893.853          43.000  
R12  23524146.589   125661845.506        1740.199          43.000  
G17  20630490.641   108414208.211        1422.875          51.000  
G19  21722390.796   114152103.254        2224.272          47.000  
G20  24528843.039   128900151.821       -1232.444          39.000  
G28  20732078.410   108948025.157       -2568.628          42.000  
G30  22091961.454   116094055.222       -1869.530          45.000  
R 2  23321434.414                1       2549.391          29.000  
S38  39335960.827   206711919.513        -273.306          44.000  
R11  20711303.856   110675170.782         465.308          48.000  
R 1  20723110.408   110777145.645       -1053.168          45.000  
G15  22777076.267   119694492.900        2411.897          49.000  
R 8  21530132.163   115293048.971       -3948.103          43.000  
R20  21407005.299   114473014.289        -606.743          42.000  
R21  21067112.566   112734430.366        2837.357          47.000  
R10  21283267.514   113451843.423       -1544.995          44.000  
S20  37816167.512   198725312.309        -197.969          39.000  
> 2017 11 25 12 57 46.7999999  0 19                     
G 5  23953046.581   125874178.957       -2649.402          42.000  
G 7  24486800.997   128679021.369       -2651.317          45.000  
G13  20591512.020   108209350.296         893.137          43.000  
R12  23524081.465   125661497.534        1738.973          43.000  
G17  20630436.476   108413923.656        1422.686          50.000  
G19  21722305.953   114151658.436        2223.615          46.000  
G20  24528890.085   128900398.235       -1232.987          39.000  
G28  20732176.166   108948539.059       -2570.038          43.000  
G30  22092032.511   116094429.140       -1869.693          44.000  
R 2  23321339.729                1       2550.300          29.000  
S38  39335971.157   206711974.220        -273.696          44.000  
R11  20711286.301   110675077.806         464.764          48.000  
R 1  20723149.775   110777356.363       -1054.401          46.000  
G15  22776984.479   119694010.682        2410.834          49.000  
R 8  21530279.652   115293838.451       -3948.347          43.000  
R20  21407028.159   114473135.805        -607.061          42.000  
R21  21067006.364   112733862.760        2838.365          45.000  
R10  21283325.553   113452152.538       -1545.283          45.000  
S20  37816174.946   198725351.975        -198.020          39.000  
> 2017 11 25 12 57 46.9999999  0 19                     
G 5  23953147.373   125874708.380       -2647.577          45.000  
G 7  24486901.825   128679551.706       -2651.720          46.000  
G13  20591478.027   108209171.594         893.356          44.000  
R12  23524016.271   125661149.547        1740.423          43.000  
G17  20630382.380   108413639.035        1423.064          51.000  
G19  21722221.424   114151213.579        2224.851          46.000  
G20  24528937.026   128900644.623       -1230.890          39.000  
G28  20732273.852   108949052.967       -2569.165          41.000  
G30  22092103.603   116094802.972       -1869.388          44.000  
R 2  23321244.206                1       2548.474          29.000  
S38  39335981.488   206712028.947        -273.459          44.000  
R11  20711268.886   110674984.759         464.844          49.000  
R 1  20723189.387   110777567.093       -1053.394          46.000  
G15  22776892.621   119693528.434        2411.115          48.000  
R 8  21530427.177   115294627.999       -3946.255          44.000  
R20  21407050.949   114473257.237        -607.587          43.000  
R21  21066900.337   112733295.210        2838.575          46.000  
R10  21283383.418   113452461.524       -1545.873          44.000  
S20  37816182.520   198725391.579        -198.218          40.000  
> 2017 11 25 12 57 47.1999999  0 20                     
G 5  23953248.375   125875237.825       -2646.558          45.000  
G 7  24487002.862   128680082.222       -2653.063          46.000  
G13  20591444.313   108208992.948         893.361          44.000  
R12  23523951.007   125660801.574        1739.937          43.000  
G17  20630328.284   108413354.567        1422.080          50.000  
G19  21722137.000   114150768.838        2223.220          46.000  
G20  24528984.037   128900891.110       -1232.156          39.000  
G28  20732371.678   108949566.932       -2570.447          41.000  
G30  22092174.835   116095177.000       -1870.503          45.000  
R 2  23321150.569                1       2548.204          29.000  
S38  39335991.783   206712083.657        -273.571          43.000  
R11  20711251.575   110674891.769         465.411          49.000  
R 1  20723228.720   110777777.871       -1054.095          46.000  
G15  22776800.624   119693046.204        2410.890          48.000  
R 8  21530574.596   115295417.589       -3948.499          43.000  
R20  21407073.565   114473378.861        -608.325          43.000  
R21  21066794.379   112732727.791        2836.428          46.000  
R10  21283441.353   113452770.656       -1545.772          45.000  
G 1  25613634.603                1        611.000          31.000  
S20  37816190.023   198725431.302        -198.952          40.000  
> 2017 11 25 12 57 47.3999999  0 20                     
G 5  23953348.958   125875767.441       -2647.473          44.000  
G 7  24487103.654   128680612.639       -2652.046          45.000  
G13  20591410.250   108208814.340         892.863          42.000  
R12  23523885.778   125660453.659        1739.120          42.000  
G17  20630274.154   108413070.139        1422.051          50.000  
G19  21722052.122   114150324.090        2224.014          46.000  
G20  24529030.838   128901137.639       -1233.040          39.000  
G28  20732469.400   108950080.852       -2569.794          41.000  
G30  22092245.962   116095551.001       -1870.078          45.000  
R 2  23321050.684                1       2549.450          29.000  
S38  39336002.009   206712138.458        -274.336          43.000  
R11  20711234.160   110674798.844         464.197          48.000  
R 1  20723268.332   110777988.710       -1054.303          46.000  
G15  22776708.801   119692564.032        2410.729          48.000  
R 8  21530722.085   115296207.173       -3948.004          43.000  
R20  21407096.180   114473500.499        -608.618          43.000  
R21  21066688.247   112732160.282        2836.979          46.000  
R10  21283499.392   113453079.792       -1545.557          46.000  
G 1  25613606.055                1        611.000          30.000  
S20  37816197.457   198725471.013        -198.359          40.000  
> 2017 11 25 12 57 47.5999999  0 20                     
G 5  23953449.401   125876297.015       -2649.194          43.000  
G 7  24487204.726   128681143.155       -2652.385          46.000  
G13  20591376.188   108208635.811         892.774          43.000  
R12  23523820.479   125660105.707        1739.819          43.000  
G17  20630219.988   108412785.740        1422.269          51.000  
G19  21721967.489   114149879.388        2223.752          46.000  
G20  24529077.675   128901384.152       -1232.345          39.000  
G28  20732567.121   108950594.861       -2569.165          42.000  
G30  22092317.124   116095924.978       -1869.531          44.000  
R 2  23320957.918                1       2547.310          33.000  
S38  39336012.375   206712193.208        -273.838          43.000  
R11  20711216.745   110674705.858         465.161          49.000  
R 1  20723307.770   110778199.600       -1054.413          46.000  
G15  22776617.013   119692081.885        2411.067          50.000  
R 8  21530869.400   115296996.761       -3947.701          44.000  
R20  21407118.830   114473622.163        -607.729          43.000  
R21  21066582.150   112731592.853        2837.561          45.000  
R10  21283557.362   113453388.969       -1545.518          46.000  
G 1  25613578.867                1        611.000          30.000  
S20  37816205.030   198725510.776        -198.328          40.000  
> 2017 11 25 12 57 47.7999999  0 20                     
G 5  23953550.194   125876826.498       -2648.309          43.000  
G 7  24487305.553   128681673.557       -2652.335          46.000  
G13  20591342.299   108208457.249         892.624          44.000  
R12  23523755.460   125659757.781        1740.130          44.000  
G17  20630165.963   108412501.304        1421.771          51.000  
G19  21721882.716   114149434.671        2223.543          46.000  
G20  24529124.721   128901630.673       -1232.225          40.000  
G28  20732664.947   108951108.867       -2570.172          42.000  
G30  22092388.251   116096298.946       -1869.704          44.000  
R 2  23320866.968                1       2549.009          36.000  
S38  39336022.670   206712248.037        -273.491          43.000  
R11  20711199.399   110674612.962         464.734          49.000  
R 1  20723347.068   110778410.522       -1054.401          45.000  
G15  22776525.399   119691599.780        2410.516          50.000  
R 8  21531016.889   115297786.450       -3948.643          43.000  
R20  21407141.690   114473743.820        -608.418          43.000  
R21  21066476.052   112731025.407        2837.547          45.000  
R10  21283615.262   113453698.034       -1545.583          46.000  
G 1  25613555.030                1        611.000          30.000  
S20  37816212.778   198725550.439        -198.876          40.000  
> 2017 11 25 12 57 47.9999999  0 20                     
G 5  23953650.777   125877355.899       -2645.740          44.000  
G 7  24487406.485   128682204.177       -2653.630          46.000  
G13  20591308.271   108208278.685         892.963          44.000  
R12  23523690.440   125659409.721        1740.536          44.000  
G17  20630111.902   108412216.996        1421.527          50.000  
G19  21721798.152   114148990.030        2223.325          46.000  
G20  24529171.557   128901877.141       -1232.316          38.000  
G28  20732762.982   108951622.999       -2571.198          43.000  
G30  22092459.518   116096673.134       -1871.583          46.000  
R 2  23320770.503                1       2544.298          33.000  
S38  39336033.105   206712302.700        -272.720          44.000  
R11  20711181.984   110674519.982         464.850          50.000  
R 1  20723386.470   110778621.399       -1053.607          45.000  
G15  22776434.030   119691117.598        2410.815          50.000  
R 8  21531164.239   115298576.016       -3947.201          44.000  
R20  21407164.620   114473865.684        -610.006          43.000  
R21  21066369.885   112730458.150        2836.165          46.000  
R10  21283673.266   113454007.259       -1546.695          45.000  
G 1  25613533.253                1        611.000          29.000  
S20  37816220.212   198725590.250        -198.970          40.000  
> 2017 11 25 12 57 48.3999999  0 21                     
G 5  23953852.327   125878414.785       -2646.686          46.000  
G11  25442604.461                1      -1509.718          24.000  
G 7  24487608.524   128683265.529       -2653.979          45.000  
G13  20591240.390   108207921.648         892.042          46.000  
R12  23523560.227   125658713.583        1740.335          43.000  
G17  20630003.257   108411648.479        1421.086          50.000  
G19  21721628.605   114148100.747        2223.261          46.000  
G20  24529265.544   128902369.953       -1232.798          38.000  
G28  20732958.320   108952651.251       -2570.428          41.000  
G30  22092601.912   116097421.514       -1871.853          46.000  
R 2  23320579.248                1       2544.635          29.000  
S38  39336053.662   206712412.014        -273.140          44.000  
R11  20711147.258   110674334.095         464.490          49.000  
R 1  20723465.380   110779043.177       -1054.712          44.000  
G15  22776250.907   119690153.307        2410.258          50.000  
R 8  21531459.322   115300155.187       -3947.992          43.000  
R20  21407210.374   114474109.600        -610.933          43.000  
R21  21066157.725   112729323.665        2836.462          45.000  
R10  21283789.380   113454625.818       -1547.635          44.000  
G 1  25613497.515                1        611.000          29.000  
S20  37816235.429   198725669.977        -199.996          40.000  
> 2017 11 25 12 57 48.5999999  0 21                     
G 5  23953953.364   125878944.162       -2646.838          46.000  
G11  25442661.453                1      -1509.718          23.000  
G 7  24487709.665   128683796.309       -2654.353          45.000  
G13  20591206.676   108207743.158         892.283          47.000  
R12  23523494.928   125658365.455        1740.643          43.000  
G17  20629949.161   108411364.334        1420.463          50.000  
G19  21721544.042   114147656.218        2222.469          47.000  
G20  24529312.345   128902616.302       -1231.621          39.000  
G28  20733056.250   108953165.529       -2571.680          42.000  
G30  22092673.283   116097795.799       -1871.609          46.000  
R 2  23320484.459                1       2548.752          34.000  
S38  39336064.202   206712466.583        -273.010          45.000  
R11  20711129.738   110674241.151         464.606          49.000  
R 1  20723504.922   110779254.005       -1054.352          44.000  
G15  22776159.084   119689671.120        2410.858          50.000  
R 8  21531606.776   115300944.776       -3948.098          43.000  
R20  21407233.234   114474231.660        -610.730          43.000  
R21  21066051.593   112728756.537        2834.993          45.000  
R10  21283847.350   113454935.126       -1546.926          43.000  
G 1  25613477.866                1        611.000          28.000  
S20  37816243.037   198725709.880        -199.740          40.000  
> 2017 11 25 12 57 48.7999999  0 21                     
G 5  23954054.226   125879473.549       -2647.119          45.000  
G11  25442727.136                1      -1509.718          22.000  
G 7  24487810.911   128684327.227       -2655.173          46.000  
G13  20591172.927   108207564.724         891.811          47.000  
R12  23523429.804   125658017.312        1740.445          43.000  
G17  20629895.030   108411080.248        1419.786          50.000  
G19  21721459.303   114147211.668        2221.989          46.000  
G20  24529359.217   128902862.698       -1232.404          38.000  
G28  20733154.181   108953679.806       -2572.260          41.000  
G30  22092744.515   116098170.228       -1872.688          46.000  
R 2  23320387.680   124442059.7573       2545.959          34.000  
S38  39336074.532   206712521.143        -272.822          45.000  
R11  20711112.183   110674148.245         464.227          50.000  
R 1  20723544.325   110779464.952       -1054.590          43.000  
G15  22776067.191   119689188.986        2410.529          49.000  
R 8  21531754.196   115301734.323       -3948.257          43.000  
R20  21407256.024   114474353.953        -611.798          43.000  
R21  21065945.740   112728189.489        2834.808          46.000  
R10  21283905.424   113455244.613       -1547.594          43.000  
G 1  25613448.828                1        611.000          28.000  
S20  37816250.610   198725749.899        -200.396          40.000  
> 2017 11 25 12 57 48.9999999  0 21                     
G 5  23954155.367   125880002.884       -2646.460          45.000  
G11  25442796.169                1      -1509.718          22.000  
G 7  24487912.018   128684858.175       -2655.023          46.000  
G13  20591139.074   108207386.312         892.158          48.000  
R12  23523364.610   125657669.142        1741.141          43.000  
G17  20629840.760   108410796.207        1420.319          50.000  
G19  21721374.635   114146767.177        2222.543          46.000  
G20  24529405.983   128903109.066       -1231.508          39.000  
G28  20733252.042   108954194.174       -2571.674          41.000  
G30  22092815.817   116098544.693       -1872.622          47.000  
R 2  23320286.957   124441550.3863       2546.691          33.000  
S38  39336084.793   206712575.671        -272.284          45.000  
R11  20711094.977   110674055.330         464.691          50.000  
R 1  20723583.902   110779675.875       -1054.974          43.000  
G15  22775975.159   119688706.838        2410.892          48.000  
R 8  21531901.580   115302523.903       -3947.658          43.000  
R20  21407279.023   114474476.281        -612.157          43.000  
R21  21065839.782   112727622.512        2834.686          46.000  
R10  21283963.359   113455554.099       -1547.666          43.000  
G 1  25613424.363                1        611.000          27.000  
S20  37816258.114   198725789.966        -200.455          38.000  
> 2017 11 25 12 57 49.1999999  0 21                     
G 5  23954256.474   125880532.194       -2646.454          43.000  
G11  25442857.733                1      -1509.718          22.000  
G 7  24488013.159   128685389.217       -2655.222          46.000  
G13  20591105.221   108207207.898         891.979          48.000  
R12  23523299.486   125657320.925        1741.070          43.000  
G17  20629786.734   108410512.263        1419.430          50.000  
G19  21721290.106   114146322.767        2221.746          47.000  
G20  24529452.994   128903355.370       -1231.835          39.000  
G28  20733349.903   108954708.552       -2571.729          38.000  
G30  22092887.118   116098919.212       -1872.648          47.000  
R 2  23320188.084   124441041.0382       2546.968          34.000  
S38  39336095.193   206712630.153        -272.601          45.000  
R11  20711077.597   110673962.384         464.697          50.000  
R 1  20723623.654   110779886.744       -1054.492          44.000  
G15  22775883.022   119688224.666        2410.798          48.000  
R 8  21532049.070   115303313.515       -3948.219          43.000  
R20  21407301.953   114474598.673        -611.920          43.000  
R21  21065733.790   112727055.628        2834.222          47.000  
R10  21284021.294   113455863.645       -1547.862          43.000  
G 1  25613398.293                1        611.000          27.000  
S20  37816265.652   198725830.034        -200.667          38.000  
> 2017 11 25 12 57 49.3999999  0 21                     
G 5  23954357.301   125881061.506       -2646.240          42.000  
G11  25442918.530                1      -1509.718          22.000  
G 7  24488114.336   128685920.359       -2655.927          46.000  
G13  20591071.367   108207029.502         892.147          48.000  
R12  23523234.292   125656972.651        1741.714          43.000  
G17  20629732.778   108410228.372        1419.186          50.000  
G19  21721205.647   114145878.408        2221.554          47.000  
G20  24529499.796   128903601.651       -1231.074          39.000  
G28  20733447.484   108955222.949       -2572.552          38.000  
G30  22092958.420   116099293.826       -1873.004          47.000  
R 2  23320087.815   124440531.6432       2547.632          34.000  
S38  39336105.489   206712684.601        -272.025          45.000  
R11  20711060.286   110673869.432         465.106          49.000  
R 1  20723663.300   110780097.690       -1054.443          44.000  
G15  22775791.024   119687742.475        2411.487          47.000  
R 8  21532196.629   115304103.153       -3948.157          43.000  
R20  21407324.708   114474721.191        -612.520          43.000  
R21  21065627.972   112726488.830        2833.975          47.000  
R10  21284079.333   113456173.233       -1547.732          43.000  
G 1  25613380.703                1        611.000          26.000  
S20  37816273.086   198725870.183        -200.531          38.000  
> 2017 11 25 12 57 49.5999999  0 21                     
G 5  23954458.059   125881590.828       -2646.814          41.000  
G11  25442981.839                1      -1509.718          22.000  
G 7  24488215.547   128686451.539       -2655.978          46.000  
G13  20591037.444   108206851.122         891.764          48.000  
R12  23523169.063   125656624.338        1741.626          42.000  
G17  20629678.683   108409944.555        1419.129          50.000  
G19  21721121.153   114145434.105        2221.447          47.000  
G20  24529546.597   128903847.913       -1231.125          39.000  
G28  20733545.206   108955737.352       -2571.088          38.000  
G30  22093029.826   116099668.486       -1873.542          47.000  
R 2  23319991.316   124440022.2412       2546.967          34.000  
S38  39336115.610   206712739.051        -272.072          44.000  
R11  20711042.731   110673776.467         464.673          49.000  
R 1  20723702.808   110780308.639       -1055.060          44.000  
G15  22775699.096   119687260.283        2410.832          47.000  
R 8  21532344.118   115304892.818       -3948.523          43.000  
R20  21407347.568   114474843.779        -613.143          42.000  
R21  21065522.049   112725922.106        2833.516          46.000  
R10  21284137.372   113456482.835       -1548.306          43.000  
G 1  25613358.332                1        611.000          26.000  
S20  37816280.729   198725910.397        -200.879          38.000  
> 2017 11 25 12 57 49.7999999  0 19                     
G 5  23954558.677   125882120.127       -2646.527          39.000  
G 7  24488316.758   128686982.737       -2656.079          45.000  
G13  20591003.660   108206672.778         891.427          48.000  
R12  23523103.729   125656276.068        1741.142          42.000  
G17  20629624.517   108409660.779        1418.698          49.000  
G19  21721036.659   114144989.841        2221.098          47.000  
G20  24529593.503   128904094.216       -1231.588          38.000  
G28  20733642.857   108956251.856       -2572.266          38.000  
G30  22093101.197   116100043.137       -1873.442          46.000  
R 2  23319893.874   124439512.8542       2546.307          34.000  
S38  39336125.941   206712793.518        -272.628          44.000  
R11  20711025.490   110673683.495         464.661          48.000  
R 1  20723742.315   110780519.629       -1055.237          44.000  
G15  22775607.238   119686778.099        2410.738          47.000  
R 8  21532491.747   115305682.493       -3948.859          43.000  
R20  21407370.253   114474966.367        -613.154          41.000  
R21  21065416.091   112725355.397        2833.390          46.000  
R10  21284195.342   113456792.403       -1547.962          43.000  
S20  37816288.338   198725950.609        -201.360          38.000  
> 2017 11 25 12 57 49.9999999  0 19                     
G 5  23954659.399   125882649.483       -2646.539          39.000  
G 7  24488417.830   128687513.942       -2656.034          44.000  
G13  20590969.772   108206494.458         891.644          48.000  
R12  23523038.430   125655927.780        1741.492          42.000  
G17  20629570.526   108409377.018        1418.773          49.000  
G19  21720952.165   114144545.579        2221.309          47.000  
G20  24529640.305   128904340.524       -1231.311          38.000  
G28  20733740.648   108956766.296       -2572.479          38.000  
G30  22093172.534   116100417.821       -1873.206          46.000  
R 2  23319797.653   124439003.4832       2546.870          34.000  
S38  39336136.166   206712847.955        -272.098          44.000  
R11  20711008.040   110673590.545         464.917          48.000  
R 1  20723781.997   110780730.660       -1054.968          45.000  
G15  22775515.380   119686295.961        2410.920          47.000  
R 8  21532639.166   115306472.191       -3948.226          43.000  
R20  21407393.218   114475089.019        -612.932          41.000  
R21  21065310.099   112724788.711        2833.683          46.000  
R10  21284253.451   113457102.025       -1547.832          43.000  
S20  37816295.911   198725990.817        -200.834          38.000  
> 2017 11 25 12 57 50.3999999  0 19                     
G 5  23954860.670   125883708.181       -2646.265          39.000  
G 7  24488620.078   128688576.454       -2656.531          42.000  
G13  20590902.275   108206137.927         891.192          49.000  
R12  23522907.973   125655231.249        1741.345          42.000  
G17  20629462.230   108408809.664        1418.077          48.000  
G19  21720783.456   114143657.201        2220.749          47.000  
G20  24529734.117   128904833.241       -1231.724          39.000  
G28  20733936.370   108957795.328       -2573.560          40.000  
G30  22093315.347   116101167.271       -1874.081          45.000  
R 2  23319603.711   124437984.8872       2546.373          34.000  
S38  39336156.828   206712956.948        -272.504          43.000  
R11  20710973.489   110673404.677         464.648          47.000  
R 1  20723861.465   110781152.867       -1055.505          45.000  
G15  22775331.630   119685331.744        2410.489          47.000  
R 8  21532934.075   115308051.707       -3948.648          43.000  
R20  21407439.007   114475334.480        -613.911          41.000  
R21  21065098.462   112723655.505        2832.613          47.000  
R10  21284369.600   113457721.259       -1548.175          43.000  
S20  37816311.163   198726071.365        -201.710          40.000  
> 2017 11 25 12 57 50.5999999  0 19                     
G 5  23954961.358   125884237.599       -2647.156          39.000  
G 7  24488721.150   128689107.753       -2657.181          42.000  
G13  20590868.316   108205959.719         890.768          48.000  
R12  23522842.883   125654883.013        1741.224          42.000  
G17  20629408.414   108408526.036        1417.671          47.000  
G19  21720699.102   114143213.045        2220.485          47.000  
G20  24529780.953   128905079.662       -1232.148          39.000  
G28  20734034.091   108958309.835       -2573.035          41.000  
G30  22093386.718   116101542.019       -1873.955          44.000  
R 2  23319505.292   124437475.6072       2546.264          34.000  
S38  39336167.263   206713011.442        -272.666          43.000  
R11  20710956.108   110673311.791         464.325          46.000  
R 1  20723901.217   110781364.060       -1055.890          45.000  
G15  22775239.772   119684849.689        2410.292          47.000  
R 8  21533081.634   115308841.527       -3949.244          43.000  
R20  21407462.006   114475457.327        -614.353          41.000  
R21  21064992.505   112723088.930        2832.519          47.000  
R10  21284427.570   113458030.948       -1548.550          44.000  
S20  37816318.666   198726111.608        -201.366          40.000  
> 2017 11 25 12 57 50.7999999  0 19                     
G 5  23955062.150   125884766.986       -2647.302          39.000  
G 7  24488822.151   128689639.025       -2655.898          41.000  
G13  20590834.533   108205781.551         890.641          48.000  
R12  23522777.829   125654534.797        1740.935          42.000  
G17  20629354.423   108408242.429        1417.980          46.000  
G19  21720614.748   114142768.903        2220.674          48.000  
G20  24529827.825   128905326.079       -1232.316          39.000  
G28  20734131.917   108958824.427       -2572.723          41.000  
G30  22093457.985   116101916.816       -1873.953          44.000  
R 2  23319413.085   124436966.4442       2545.646          35.000  
S38  39336177.698   206713065.929        -272.416          43.000  
R11  20710938.902   110673218.940         463.953          45.000  
R 1  20723940.759   110781575.289       -1056.793          45.000  
G15  22775147.809   119684367.672        2409.830          46.000  
R 8  21533229.123   115309631.330       -3949.303          44.000  
R20  21407485.041   114475580.215        -615.032          41.000  
R21  21064886.582   112722522.378        2832.723          47.000  
R10  21284485.609   113458340.656       -1549.098          44.000  
S20  37816326.205   198726151.863        -201.087          40.000  
> 2017 11 25 12 57 50.9999999  0 19                     
G 5  23955162.838   125885296.426       -2647.046          39.000  
G 7  24488923.258   128690170.394       -2656.930          42.000  
G13  20590800.714   108205603.432         890.366          48.000  
R12  23522712.635   125654186.587        1740.849          42.000  
G17  20629300.327   108407958.907        1417.392          46.000  
G19  21720530.393   114142324.821        2220.245          48.000  
G20  24529874.836   128905572.539       -1232.247          39.000  
G28  20734229.778   108959339.049       -2573.804          43.000  
G30  22093529.251   116102291.623       -1874.422          43.000  
R 2  23319318.819   124436457.3422       2544.941          35.000  
S38  39336188.238   206713120.482        -272.791          43.000  
R11  20710921.452   110673126.049         463.965          45.000  
R 1  20723980.371   110781786.536       -1056.555          44.000  
G15  22775055.986   119683885.671        2409.732          46.000  
R 8  21533376.647   115310421.193       -3949.375          44.000  
R20  21407508.075   114475703.094        -614.762          41.000  
R21  21064780.729   112721955.879        2832.243          48.000  
R10  21284543.718   113458650.318       -1548.684          44.000  
S20  37816333.708   198726192.179        -201.917          40.000  
> 2017 11 25 12 57 51.1999999  0 19                     
G 5  23955263.491   125885825.922       -2647.540          41.000  
G 7  24489024.399   128690701.747       -2657.543          42.000  
G13  20590766.686   108205425.364         890.177          48.000  
R12  23522647.511   125653838.425        1740.887          42.000  
G17  20629246.231   108407675.448        1417.168          45.000  
G19  21720445.969   114141880.773        2220.105          48.000  
G20  24529921.742   128905819.069       -1232.762          39.000  
G28  20734327.778   108959853.692       -2573.389          45.000  
G30  22093600.518   116102666.467       -1874.339          43.000  
R 2  23319226.682   124435948.2062       2545.367          35.000  
S38  39336198.673   206713175.060        -273.065          43.000  
R11  20710904.176   110673033.228         464.557          45.000  
R 1  20724019.878   110781997.883       -1056.458          44.000  
G15  22774964.233   119683403.735        2409.684          46.000  
R 8  21533524.241   115311211.101       -3949.555          44.000  
R20  21407531.109   114475826.125        -614.725          41.000  
R21  21064674.701   112721389.438        2832.231          48.000  
R10  21284601.827   113458960.077       -1548.485          44.000  
S20  37816341.561   198726232.529        -201.682          41.000  
> 2017 11 25 12 57 51.3999998  0 19                     
G 5  23955364.109   125886355.422       -2647.485          41.000  
G 7  24489125.576   128691233.109       -2656.781          43.000  
G13  20590732.903   108205247.345         889.995          48.000  
R12  23522582.317   125653490.297        1740.532          41.000  
G17  20629192.240   108407392.039        1416.603          45.000  
G19  21720361.650   114141436.776        2219.875          48.000  
G20  24529968.648   128906065.607       -1232.864          37.000  
G28  20734425.813   108960368.418       -2573.712          46.000  
G30  22093671.924   116103041.374       -1874.620          42.000  
R 2  23319133.114   124435439.1562       2544.707          35.000  
S38  39336209.143   206713229.636        -272.657          42.000  
R11  20710886.761   110672940.456         463.513          44.000  
R 1  20724059.560   110782209.315       -1057.605          44.000  
G15  22774872.410   119682921.835        2409.482          46.000  
R 8  21533671.800   115312001.049       -3949.667          44.000  
R20  21407554.074   114475949.205        -615.885          41.000  
R21  21064568.813   112720823.058        2831.736          48.000  
R10  21284660.041   113459269.884       -1549.475          44.000  
S20  37816349.169   198726272.927        -202.332          41.000  
> 2017 11 25 12 57 51.5999998  0 19                     
G 5  23955464.867   125886885.020       -2648.407          41.000  
G 7  24489226.717   128691764.576       -2657.472          44.000  
G13  20590699.084   108205069.419         889.359          48.000  
R12  23522517.157   125653142.208        1739.899          41.000  
G17  20629138.389   108407108.722        1416.144          45.000  
G19  21720277.365   114140992.883        2219.098          48.000  
G20  24530015.554   128906312.251       -1233.728          37.000  
G28  20734523.779   108960883.200       -2574.097          46.000  
G30  22093743.086   116103416.333       -1875.112          42.000  
R 2  23319042.896   124434930.1492       2544.716          35.000  
S38  39336219.648   206713284.349        -274.015          42.000  
R11  20710869.415   110672847.711         463.416          45.000  
R 1  20724099.137   110782420.803       -1057.861          44.000  
G15  22774780.587   119682440.027        2408.721          46.000  
R 8  21533819.255   115312791.098       -3950.706          44.000  
R20  21407577.317   114476072.341        -615.990          43.000  
R21  21064462.856   112720256.763        2831.229          48.000  
R10  21284718.185   113459579.695       -1549.020          44.000  
S20  37816356.847   198726313.368        -202.655          41.000  
> 2017 11 25 12 57 51.7999998  0 19                     
G 5  23955565.659   125887414.614       -2647.894          41.000  
G 7  24489327.859   128692296.100       -2657.637          44.000  
G13  20590665.091   108204891.563         889.289          47.000  
R12  23522451.929   125652794.195        1740.287          39.000  
G17  20629084.468   108406825.466        1416.365          45.000  
G19  21720193.081   114140549.020        2219.640          48.000  
G20  24530062.495   128906558.935       -1233.373          36.000  
G28  20734621.884   108961398.063       -2574.261          46.000  
G30  22093814.458   116103791.385       -1875.170          42.000  
R 2  23318950.969   124434421.2562       2544.783          35.000  
S38  39336230.153   206713339.051        -273.507          42.000  
R11  20710852.244   110672755.087         463.251          45.000  
R 1  20724138.644   110782632.393       -1057.587          44.000  
G15  22774688.798   119681958.275        2408.627          46.000  
R 8  21533966.639   115313581.150       -3950.177          44.000  
R20  21407600.352   114476195.636        -616.372          43.000  
R21  21064356.968   112719690.531        2831.563          47.000  
R10  21284776.190   113459889.647       -1549.790          43.000  
S20  37816364.630   198726353.857        -202.150          40.000  
> 2017 11 25 12 57 51.9999998  0 19                     
G 5  23955666.242   125887944.169       -2647.626          41.000  
G 7  24489429.000   128692827.579       -2657.539          45.000  
G13  20590631.098   108204713.729         888.968          47.000  
R12  23522386.630   125652446.196        1739.637          39.000  
G17  20629030.512   108406542.173        1416.269          45.000  
G19  21720108.587   114140105.141        2219.348          48.000  
G20  24530109.401   128906805.657       -1233.502          36.000  
G28  20734719.919   108961912.925       -2574.542          46.000  
G30  22093885.550   116104166.377       -1875.313          42.000  
R 2  23318857.226   124433912.4302       2543.907          36.000  
S38  39336240.554   206713393.780        -273.586          42.000  
R11  20710834.934   110672662.491         462.457          45.000  
R 1  20724178.117   110782844.016       -1058.508          43.000  
G15  22774596.975   119681476.571        2408.289          46.000  
R 8  21534114.128   115314371.183       -3950.146          44.000  
R20  21407623.456   114476318.904        -616.995          43.000  
R21  21064250.940   112719124.251        2831.187          47.000  
R10  21284834.229   113460199.527       -1549.760          43.000  
S20  37816372.273   198726394.296        -202.613          40.000  
> 2017 11 25 12 57 52.1999998  0 19                     
G 5  23955766.895   125888473.715       -2647.327          41.000  
G 7  24489530.177   128693359.114       -2657.662          45.000  
G13  20590597.070   108204535.955         888.762          47.000  
R12  23522321.471   125652098.217        1740.028          39.000  
G17  20628976.660   108406258.930        1416.341          46.000  
G19  21720023.988   114139661.239        2219.668          48.000  
G20  24530156.168   128907052.406       -1233.723          36.000  
G28  20734817.885   108962427.876       -2574.811          46.000  
G30  22093956.817   116104541.408       -1875.054          42.000  
R 2  23318763.134   124433403.6742       2543.545          36.000  
S38  39336251.303   206713448.527        -273.964          42.000  
R11  20710817.693   110672569.950         462.500          45.000  
R 1  20724217.659   110783055.643       -1057.916          43.000  
G15  22774505.466   119680994.939        2408.040          47.000  
R 8  21534261.548   115315161.173       -3949.901          43.000  
R20  21407646.490   114476442.270        -616.742          43.000  
R21  21064144.982   112718557.957        2831.669          48.000  
R10  21284892.408   113460509.521       -1549.870          43.000  
S20  37816380.126   198726434.691        -201.841          40.000  
> 2017 11 25 12 57 52.3999998  0 19                     
G 5  23955867.792   125889003.257       -2647.491          41.000  
G 7  24489631.248   128693890.655       -2657.994          44.000  
G13  20590562.973   108204358.207         888.676          46.000  
R12  23522256.242   125651750.279        1739.808          39.000  
G17  20628923.018   108405975.700        1416.069          47.000  
G19  21719939.389   114139217.320        2219.627          48.000  
G20  24530203.004   128907299.146       -1233.047          32.000  
G28  20734915.955   108962942.868       -2575.079          46.000  
G30  22094028.048   116104916.533       -1875.870          42.000  
R 2  23318667.158   124432895.0792       2542.301          33.000  
S38  39336261.843   206713503.236        -273.688          42.000  
R11  20710800.487   110672477.465         462.500          45.000  
R 1  20724257.166   110783267.373       -1058.130          42.000  
G15  22774414.097   119680513.328        2407.916          48.000  
R 8  21534409.037   115315951.153       -3949.832          44.000  
R20  21407669.594   114476565.727        -617.697          43.000  
R21  21064039.339   112717991.735        2831.081          50.000  
R10  21284950.518   113460819.565       -1550.616          44.000  
S20  37816387.839   198726475.121        -201.882          40.000  
> 2017 11 25 12 57 52.5999998  0 19                     
G 5  23955968.550   125889532.784       -2647.406          40.000  
G 7  24489732.250   128694422.117       -2657.101          42.000  
G13  20590528.840   108204180.533         888.138          47.000  
R12  23522191.118   125651402.352        1739.438          39.000  
G17  20628869.307   108405692.468        1416.415          47.000  
G19  21719854.721   114138773.384        2219.627          48.000  
G20  24530249.806   128907545.950       -1234.351          32.000  
G28  20735014.095   108963457.938       -2575.476          47.000  
G30  22094099.350   116105291.641       -1875.513          43.000  
R 2  23318570.519   124432386.5302       2543.542          36.000  
S38  39336271.964   206713557.941        -273.547          42.000  
R11  20710783.211   110672385.030         461.847          45.000  
R 1  20724296.394   110783479.164       -1059.326          43.000  
G15  22774322.518   119680031.836        2407.400          48.000  
R 8  21534556.317   115316741.132       -3949.414          45.000  
R20  21407692.663   114476689.218        -617.759          43.000  
R21  21063933.625   112717425.475        2831.291          48.000  
R10  21285008.732   113461129.661       -1550.667          44.000  
S20  37816395.517   198726515.490        -201.844          40.000  
> 2017 11 25 12 57 52.7999998  0 19                     
G 5  23956069.028   125890062.270       -2647.467          38.000  
G 7  24489833.426   128694953.666       -2657.877          42.000  
G13  20590494.742   108204002.937         887.586          47.000  
R12  23522126.098   125651054.525        1738.493          39.000  
G17  20628815.420   108405409.272        1415.769          47.000  
G19  21719770.053   114138329.464        2219.390          47.000  
G20  24530296.922   128907792.810       -1235.156          35.000  
G28  20735112.270   108963973.110       -2576.190          47.000  
G30  22094170.826   116105666.821       -1875.978          43.000  
R 2  23318473.880   124431878.1872       2539.811          32.000  
S38  39336282.225   206713612.695        -273.958          41.000  
R11  20710765.796   110672292.720         461.359          44.000  
R 1  20724336.006   110783691.051       -1059.613          44.000  
G15  22774230.975   119679550.447        2406.713          48.000  
R 8  21534703.771   115317531.140       -3950.021          44.000  
R20  21407715.698   114476812.841        -618.402          43.000  
R21  21063827.563   112716859.190        2831.106          47.000  
R10  21285066.946   113461439.852       -1551.308          44.000  
S20  37816403.230   198726555.915        -202.404          40.000  
> 2017 11 25 12 57 52.9999998  0 19                     
G 5  23956169.751   125890591.728       -2647.198          40.000  
G 7  24489934.463   128695485.222       -2657.654          41.000  
G13  20590460.993   108203825.403         887.794          47.000  
R12  23522061.079   125650706.751        1739.238          39.000  
G17  20628761.534   108405126.093        1415.881          46.000  
G19  21719685.419   114137885.513        2220.233          47.000  
G20  24530343.898   128908039.769       -1234.551          37.000  
G28  20735210.445   108964488.357       -2576.263          47.000  
G30  22094242.197   116106041.993       -1875.667          42.000  
R 2  23318378.113   124431369.8362       2540.778          32.000  
S38  39336292.765   206713667.459        -273.676          43.000  
R11  20710748.451   110672200.438         461.292          44.000  
R 1  20724375.653   110783902.946       -1059.296          44.000  
G15  22774139.570   119679069.127        2406.605          48.000  
R 8  21534851.191   115318321.066       -3949.985          45.000  
R20  21407738.837   114476936.547        -618.744          43.000  
R21  21063721.850   112716292.973        2831.236          48.000  
R10  21285125.159   113461750.117       -1551.510          44.000  
S20  37816410.838   198726596.242        -201.520          40.000  
> 2017 11 25 12 57 53.1999998  0 19                     
G 5  23956270.334   125891121.165       -2647.668          43.000  
G 7  24490035.325   128696016.761       -2658.491          41.000  
G13  20590427.140   108203647.914         887.099          47.000  
R12  23521995.919   125650358.996        1738.584          39.000  
G17  20628707.787   108404842.972        1415.335          46.000  
G19  21719600.925   114137441.612        2219.050          48.000  
G20  24530390.874   128908286.710       -1234.764          37.000  
G28  20735308.829   108965003.648       -2576.782          48.000  
G30  22094313.674   116106417.227       -1876.778          42.000  
R 2  23318282.660   124430861.4212       2542.846          32.000  
S38  39336303.095   206713722.198        -273.232          42.000  
R11  20710731.175   110672108.229         460.901          44.000  
R 1  20724415.160   110784114.914       -1060.095          43.000  
G15  22774048.026   119678587.842        2406.028          49.000  
R 8  21534998.645   115319110.974       -3948.924          45.000  
R20  21407762.011   114477060.272        -618.926          43.000  
R21  21063616.101   112715726.731        2830.865          48.000  
R10  21285183.304   113462060.379       -1551.886          44.000  
S20  37816418.481   198726636.694        -202.287          40.000  
> 2017 11 25 12 57 53.3999998  0 19                     
G 5  23956371.091   125891650.523       -2646.741          43.000  
G 7  24490136.362   128696548.295       -2657.191          43.000  
G13  20590393.182   108203470.419         887.296          47.000  
R12  23521930.865   125650011.165        1739.154          39.000  
G17  20628653.692   108404559.815        1415.709          46.000  
G19  21719516.431   114136997.645        2219.313          48.000  
G20  24530437.989   128908533.698       -1235.698          37.000  
G28  20735407.109   108965518.949       -2576.776          48.000  
G30  22094385.045   116106792.428       -1876.113          42.000  
R 2  23318195.270                1       2548.388          27.000  
S38  39336313.530   206713776.951        -274.633          42.000  
R11  20710713.969   110672016.014         460.907          44.000  
R 1  20724454.842   110784326.918       -1060.260          43.000  
G15  22773956.483   119678106.581        2406.329          49.000  
R 8  21535146.378   115319900.992       -3950.094          46.000  
R20  21407785.324   114477184.070        -619.180          43.000  
R21  21063510.283   112715160.507        2831.376          48.000  
R10  21285241.657   113462370.672       -1551.576          44.000  
S20  37816426.055   198726677.066        -202.586          40.000  
> 2017 11 25 12 57 53.5999998  0 19                     
G 5  23956471.814   125892179.949       -2645.673          42.000  
G 7  24490237.329   128697079.863       -2658.259          42.000  
G13  20590359.398   108203292.961         887.551          47.000  
R12  23521865.601   125649663.379        1738.965          39.000  
G17  20628599.910   108404276.701        1415.434          46.000  
G19  21719431.972   114136553.689        2220.348          48.000  
G20  24530484.965   128908780.684       -1233.933          37.000  
G28  20735505.179   108966034.244       -2576.459          48.000  
G30  22094456.591   116107167.657       -1876.179          42.000  
R 2  23318101.318                1       2541.684          27.000  
S38  39336324.001   206713831.624        -272.676          41.000  
R11  20710696.798   110671923.803         460.986          44.000  
R 1  20724494.350   110784538.883       -1059.711          43.000  
G15  22773865.183   119677625.326        2406.125          49.000  
R 8  21535293.903   115320690.881       -3950.352          46.000  
R20  21407808.463   114477307.898        -619.646          43.000  
R21  21063404.674   112714594.286        2830.849          48.000  
R10  21285299.871   113462680.967       -1551.254          44.000  
S20  37816433.733   198726717.444        -201.441          40.000  
> 2017 11 25 12 57 53.7999998  0 20                     
G 5  23956572.816   125892709.425       -2648.492          43.000  
G11  25444126.050                1      -1514.107          25.000  
G 7  24490338.680   128697611.459       -2657.236          44.000  
G13  20590325.719   108203115.523         886.959          47.000  
R12  23521800.372   125649315.604        1738.742          39.000  
G17  20628546.059   108403993.628        1415.523          46.000  
G19  21719347.513   114136109.808        2219.549          48.000  
G20  24530531.906   128909027.534       -1235.343          35.000  
G28  20735603.319   108966549.524       -2576.514          47.000  
G30  22094527.962   116107542.908       -1876.403          42.000  
R 2  23318007.680                1       2540.991          27.000  
S38  39336334.541   206713886.356        -273.956          41.000  
R11  20710679.557   110671831.575         460.883          44.000  
R 1  20724533.857   110784750.918       -1060.870          43.000  
G15  22773773.918   119677144.071        2406.257          49.000  
R 8  21535441.357   115321480.797       -3949.514          45.000  
R20  21407831.637   114477431.701        -618.805          43.000  
R21  21063298.717   112714028.074        2831.002          47.000  
R10  21285357.980   113462991.245       -1551.590          44.000  
S20  37816441.516   198726757.858        -202.201          40.000  
> 2017 11 25 12 57 53.9999998  0 20                     
G 5  23956673.364   125893238.797       -2647.516          41.000  
G11  25444181.751                1      -1517.625          25.000  
G 7  24490439.682   128698143.021       -2658.291          41.000  
G13  20590291.936   108202938.178         886.737          47.000  
R12  23521735.388   125648967.893        1738.574          40.000  
G17  20628492.522   108403710.594        1414.482          47.000  
G19  21719263.159   114135665.912        2219.308          47.000  
G20  24530579.126   128909274.711       -1235.288          37.000  
G28  20735701.354   108967064.951       -2576.874          47.000  
G30  22094599.124   116107918.170       -1876.208          41.000  
R 2  23317909.644                1       2540.812          31.000  
S38  39336344.766   206713941.073        -273.763          41.000  
R11  20710662.072   110671739.470         460.522          44.000  
R 1  20724573.574   110784963.082       -1060.718          44.000  
G15  22773682.340   119676662.965        2405.454          47.000  
R 8  21535588.776   115322270.762       -3949.477          44.000  
R20  21407854.706   114477555.702        -620.402          42.000  
R21  21063192.829   112713461.937        2830.372          47.000  
R10  21285416.299   113463301.638       -1552.231          43.000  
S20  37816449.124   198726798.217        -202.036          40.000  
> 2017 11 25 12 57 54.3999998  0 20                     
G 5  23956874.844   125894297.718       -2647.156          41.000  
G11  25444303.658                1      -1516.592          25.000  
G 7  24490642.000   128699206.353       -2659.004          42.000  
G13  20590224.508   108202583.629         886.120          47.000  
R12  23521605.244   125648272.517        1738.241          39.000  
G17  20628384.749   108403144.651        1414.853          46.000  
G19  21719094.101   114134778.262        2218.171          48.000  
G20  24530673.078   128909768.850       -1235.337          37.000  
G28  20735897.320   108968095.985       -2577.832          47.000  
G30  22094742.076   116108668.974       -1876.558          41.000  
R 2  23317721.042   124427832.7993       2539.991          31.000  
S38  39336365.707   206714050.578        -273.582          42.000  
R11  20710627.730   110671555.361         460.052          45.000  
R 1  20724652.902   110785387.531       -1061.884          44.000  
G15  22773499.182   119675700.828        2405.064          47.000  
R 8  21535883.755   115323850.810       -3950.430          44.000  
R20  21407901.263   114477803.834        -620.405          43.000  
R21  21062981.158   112712329.713        2830.822          48.000  
R10  21285532.762   113463922.565       -1552.417          43.000  
S20  37816464.724   198726879.129        -203.004          40.000  
> 2017 11 25 12 57 54.5999998  0 20                     
G 5  23956975.602   125894827.272       -2648.132          41.000  
G11  25444368.957                1      -1515.378          26.000  
G 7  24490743.002   128699738.071       -2658.358          42.000  
G13  20590190.794   108202406.442         885.783          47.000  
R12  23521540.190   125647924.910        1737.888          39.000  
G17  20628330.967   108402861.805        1413.907          48.000  
G19  21719009.537   114134334.483        2218.616          48.000  
G20  24530719.880   128910016.032       -1236.278          34.000  
G28  20735995.286   108968611.514       -2578.137          47.000  
G30  22094813.308   116109044.353       -1877.983          41.000  
R 2  23317624.787                1       2539.609          31.000  
S38  39336376.072   206714105.406        -275.009          42.000  
R11  20710610.419   110671463.353         459.448          45.000  
R 1  20724692.514   110785599.766       -1061.273          43.000  
G15  22773407.778   119675219.849        2404.498          49.000  
R 8  21536031.139   115324640.945       -3950.660          44.000  
R20  21407924.507   114477928.009        -620.868          43.000  
R21  21062875.584   112711763.748        2829.703          48.000  
R10  21285590.906   113464233.053       -1552.822          43.000  
S20  37816472.333   198726919.553        -202.070          40.000  
> 2017 11 25 12 57 54.7999998  0 20                     
G 5  23957076.185   125895356.812       -2648.840          42.000  
G11  25444427.660                1      -1516.252          26.000  
G 7  24490844.283   128700269.839       -2659.346          43.000  
G13  20590157.080   108202229.270         885.821          47.000  
R12  23521475.240   125647577.315        1738.209          39.000  
G17  20628277.256   108402578.925        1413.879          48.000  
G19  21718924.973   114133890.751        2218.545          48.000  
G20  24530766.961   128910263.181       -1235.288          35.000  
G28  20736093.321   108969127.064       -2577.502          46.000  
G30  22094884.645   116109419.798       -1876.741          41.000  
R 2  23317528.113                1       2539.615          31.000  
S38  39336386.263   206714160.098        -272.581          41.000  
R11  20710593.248   110671371.350         460.248          45.000  
R 1  20724732.266   110785812.203       -1062.158          44.000  
G15  22773316.269   119674738.876        2405.158          49.000  
R 8  21536178.768   115325431.092       -3951.411          44.000  
R20  21407947.751   114478052.233        -621.180          43.000  
R21  21062769.801   112711197.766        2828.888          48.000  
R10  21285649.224   113464543.544       -1552.170          43.000  
S20  37816480.081   198726960.016        -202.096          40.000  
> 2017 11 25 12 57 54.9999998  0 20                     
G 5  23957176.907   125895886.384       -2648.663          39.000  
G11  25444482.942                1      -1515.220          26.000  
G 7  24490945.424   128700801.616       -2658.861          42.000  
G13  20590123.471   108202052.196         884.944          47.000  
R12  23521410.290   125647229.769        1737.492          39.000  
G17  20628223.404   108402296.220        1413.761          47.000  
G19  21718840.479   114133447.139        2217.718          48.000  
G20  24530814.111   128910510.553       -1237.882          35.000  
G28  20736191.426   108969642.642       -2578.601          47.000  
G30  22094956.051   116109795.245       -1878.062          41.000  
R 2  23317431.718                1       2538.297          35.000  
S38  39336396.803   206714215.070        -274.940          42.000  
R11  20710576.077   110671279.410         459.528          45.000  
R 1  20724771.878   110786024.635       -1062.408          43.000  
G15  22773224.795   119674257.957        2404.283          49.000  
R 8  21536326.223   115326221.292       -3951.337          45.000  
R20  21407971.099   114478176.504        -621.984          43.000  
R21  21062664.017   112710631.860        2829.208          48.000  
R10  21285707.369   113464854.074       -1553.086          42.000  
S20  37816487.829   198727000.611        -203.600          40.000  
> 2017 11 25 12 57 55.1999998  0 20                     
G 5  23957277.665   125896416.099       -2645.728          36.000  
G11  25444540.214                1      -1515.632          27.000  
G 7  24491046.705   128701333.464       -2659.608          42.000  
G13  20590089.758   108201875.186         885.195          47.000  
R12  23521345.340   125646882.236        1737.048          39.000  
G17  20628169.797   108402013.533        1412.971          49.000  
G19  21718756.090   114133003.559        2217.913          48.000  
G20  24530861.227   128910757.887       -1236.578          37.000  
G28  20736289.706   108970158.292       -2577.942          48.000  
G30  22095027.527   116110170.824       -1877.615          42.000  
R 2  23317333.194   124425781.7933       2538.265          34.000  
S38  39336407.099   206714269.906        -274.708          41.000  
R11  20710559.046   110671187.507         459.515          45.000  
R 1  20724811.699   110786237.147       -1062.543          43.000  
G15  22773133.321   119673777.089        2404.184          47.000  
R 8  21536473.782   115327011.589       -3951.240          45.000  
R20  21407994.378   114478300.832        -621.072          43.000  
R21  21062558.409   112710066.033        2829.991          48.000  
R10  21285765.513   113465164.618       -1552.562          42.000  
S20  37816495.472   198727041.174        -203.250          40.000  
> 2017 11 25 12 57 55.3999998  0 20                     
G 5  23957378.527   125896945.956       -2649.261          41.000  
G11  25444597.206                1      -1516.803          27.000  
G 7  24491147.602   128701865.297       -2658.303          40.000  
G13  20590056.183   108201698.187         885.034          47.000  
R12  23521280.251   125646534.784        1737.600          41.000  
G17  20628116.016   108401730.880        1413.632          47.000  
G19  21718671.596   114132560.015        2217.729          48.000  
G20  24530908.203   128911005.246       -1236.299          35.000  
G28  20736387.986   108970674.027       -2578.625          48.000  
G30  22095098.933   116110546.428       -1878.043          42.000  
R 2  23317231.285   124425274.1823       2536.988          34.000  
S38  39336417.534   206714324.767        -273.408          40.000  
R11  20710541.735   110671095.657         459.143          45.000  
R 1  20724851.311   110786449.783       -1063.098          43.000  
G15  22773041.847   119673296.249        2404.012          48.000  
R 8  21536621.445   115327801.892       -3952.216          45.000  
R20  21408017.621   114478425.297        -622.195          43.000  
R21  21062452.765   112709500.302        2828.428          49.000  
R10  21285823.796   113465475.270       -1553.568          42.000  
S20  37816503.080   198727081.803        -202.854          40.000  
> 2017 11 25 12 57 55.5999998  0 20                     
G 5  23957479.285   125897475.566       -2649.634          41.000  
G11  25444654.547                1      -1516.264          28.000  
G 7  24491248.953   128702397.214       -2659.509          42.000  
G13  20590022.539   108201521.283         884.590          47.000  
R12  23521215.092   125646187.359        1737.667          37.000  
G17  20628062.269   108401448.315        1413.188          47.000  
G19  21718587.032   114132116.458        2218.102          47.000  
G20  24530955.144   128911252.644       -1238.322          35.000  
G28  20736485.951   108971189.814       -2578.571          48.000  
G30  22095170.584   116110922.047       -1877.964          41.000  
R 2  23317134.645   124424766.6332       2538.203          34.000  
S38  39336428.109   206714379.705        -274.210          41.000  
R11  20710524.460   110671003.843         459.222          45.000  
R 1  20724890.923   110786662.392       -1063.477          43.000  
G15  22772950.338   119672815.480        2404.429          48.000  
R 8  21536768.900   115328592.156       -3951.153          44.000  
R20  21408040.865   114478549.801        -622.717          43.000  
R21  21062347.086   112708934.508        2828.554          48.000  
R10  21285882.080   113465785.921       -1553.445          43.000  
S20  37816510.863   198727122.364        -202.600          40.000  
> 2017 11 25 12 57 55.7999998  0 20                     
G 5  23957579.973   125898005.173       -2649.042          42.000  
G11  25444712.028   133712880.8493      -1517.052          28.000  
G 7  24491350.130   128702929.083       -2659.689          42.000  
G13  20589988.721   108201344.361         884.625          47.000  
R12  23521149.828   125645839.848        1736.914          37.000  
G17  20628008.418   108401165.748        1412.139          48.000  
G19  21718502.678   114131672.980        2217.718          47.000  
G20  24531002.259   128911499.950       -1236.243          36.000  
G28  20736584.126   108971705.564       -2578.693          47.000  
G30  22095241.885   116111297.658       -1877.789          40.000  
R 2  23317036.470   124424259.0712       2537.891          34.000  
S38  39336438.544   206714434.577        -275.693          43.000  
R11  20710507.323   110670911.991         459.747          45.000  
R 1  20724930.745   110786875.077       -1063.269          42.000  
G15  22772858.689   119672334.724        2404.189          48.000  
R 8  21536916.354   115329382.509       -3951.381          44.000  
R20  21408064.109   114478674.334        -622.633          43.000  
R21  21062241.303   112708368.783        2828.727          48.000  
R10  21285940.399   113466096.569       -1552.566          44.000  
S20  37816518.541   198727163.045        -203.477          40.000  
> 2017 11 25 12 57 55.9999998  0 20                     
G 5  23957680.800   125898534.846       -2648.285          44.000  
G11  25444769.998   133713184.1543      -1516.933          29.000  
G 7  24491451.131   128703460.962       -2658.964          42.000  
G13  20589954.902   108201167.454         884.323          47.000  
R12  23521084.774   125645492.330        1737.202          37.000  
G17  20627954.496   108400883.187        1412.933          47.000  
G19  21718418.324   114131229.525        2216.988          48.000  
G20  24531049.305   128911747.469       -1238.229          36.000  
G28  20736682.371   108972221.289       -2579.169          47.000  
G30  22095313.292   116111673.296       -1878.739          41.000  
R 2  23316938.191   124423751.5132       2537.456          30.000  
S38  39336448.909   206714489.395        -273.475          40.000  
R11  20710490.187   110670820.156         458.862          44.000  
R 1  20724970.426   110787087.779       -1063.684          43.000  
G15  22772767.215   119671853.967        2403.261          48.000  
R 8  21537064.123   115330172.897       -3951.768          44.000  
R20  21408087.527   114478798.876        -623.013          43.000  
R21  21062135.695   112707803.072        2828.452          48.000  
R10  21285998.682   113466407.240       -1553.369          44.000  
S20  37816526.394   198727203.637        -203.751          40.000  
> 2017 11 25 12 57 56.3999998  0 20                     
G 5  23957882.839   125899594.261       -2648.169          44.000  
G11  25444889.811   133713790.9222      -1516.731          30.000  
G 7  24491653.484   128704524.811       -2658.715          42.000  
G13  20589887.754   108200813.796         884.199          47.000  
R12  23520954.630   125644797.492        1736.136          39.000  
G17  20627846.968   108400318.247        1411.739          47.000  
G19  21718249.441   114130342.642        2216.846          48.000  
G20  24531143.362   128912242.345       -1238.508          36.000  
G28  20736878.616   108973252.874       -2579.620          47.000  
G30  22095456.069   116112424.590       -1878.528          42.000  
R 2  23316751.927   124422736.6953       2537.446          29.000  
S38  39336469.535   206714599.269        -274.421          40.000  
R11  20710455.741   110670636.555         458.606          44.000  
R 1  20725049.790   110787513.332       -1063.898          43.000  
G15  22772584.756   119670892.550        2403.178          49.000  
R 8  21537359.450   115331753.684       -3951.498          45.000  
R20  21408134.084   114479048.113        -623.550          43.000  
R21  21061924.303   112706671.778        2827.564          48.000  
R10  21286115.250   113467028.584       -1553.885          43.000  
S20  37816541.854   198727284.853        -203.708          40.000  
> 2017 11 25 12 57 56.5999998  0 20                     
G 5  23957983.771   125900124.008       -2648.596          43.000  
G11  25444947.537   133714094.4132      -1517.992          30.000  
G 7  24491754.870   128705056.863       -2661.440          43.000  
G13  20589854.005   108200637.029         883.573          47.000  
R12  23520889.680   125644450.051        1737.212          40.000  
G17  20627793.291   108400035.834        1412.474          47.000  
G19  21718165.051   114129899.262        2216.492          48.000  
G20  24531190.512   128912489.846       -1237.367          38.000  
G28  20736976.826   108973768.708       -2579.059          48.000  
G30  22095527.755   116112800.307       -1878.498          43.000  
R 2  23316657.068   124422229.3062       2537.265          30.000  
S38  39336479.866   206714654.212        -274.733          40.000  
R11  20710438.430   110670544.792         458.545          44.000  
R 1  20725089.507   110787726.179       -1064.368          44.000  
G15  22772493.212   119670411.890        2403.694          49.000  
R 8  21537507.149   115332544.150       -3952.124          45.000  
R20  21408157.293   114479172.828        -623.380          43.000  
R21  21061818.310   112706106.121        2828.532          48.000  
R10  21286173.603   113467339.262       -1553.446          42.000  
S20  37816549.498   198727325.444        -202.491          40.000  
> 2017 11 25 12 57 56.7999998  0 20                     
G 5  23958084.668   125900653.788       -2649.353          44.000  
G11  25445002.435   133714397.7992      -1517.248          29.000  
G 7  24491856.011   128705588.728       -2657.743          41.000  
G13  20589820.466   108200460.315         883.810          47.000  
R12  23520824.591   125644102.635        1737.764          40.000  
G17  20627739.719   108399753.462        1411.742          48.000  
G19  21718080.592   114129455.916        2216.226          47.000  
G20  24531237.767   128912737.381       -1237.939          36.000  
G28  20737075.001   108974284.596       -2579.156          48.000  
G30  22095599.196   116113176.011       -1878.142          41.000  
R 2  23316561.824   124421721.9652       2537.376          34.000  
S38  39336490.371   206714709.171        -274.817          41.000  
R11  20710421.468   110670453.045         458.527          44.000  
R 1  20725129.363   110787939.112       -1064.783          44.000  
G15  22772401.633   119669931.296        2403.746          48.000  
R 8  21537654.708   115333334.629       -3952.706          45.000  
R20  21408180.467   114479297.592        -623.579          43.000  
R21  21061712.666   112705540.585        2827.958          49.000  
R10  21286231.887   113467650.024       -1553.514          42.000  
S20  37816557.280   198727366.140        -202.604          40.000  
> 2017 11 25 12 57 56.9999998  0 20                     
G 5  23958185.425   125901183.532       -2648.193          41.000  
G11  25445059.532                1      -1516.623          29.000  
G 7  24491957.327   128706120.838       -2661.300          43.000  
G13  20589786.752   108200283.627         883.286          47.000  
R12  23520759.537   125643755.300        1736.652          40.000  
G17  20627685.903   108399471.138        1411.276          47.000  
G19  21717996.203   114129012.596        2216.518          47.000  
G20  24531284.674   128912984.926       -1237.291          36.000  
G28  20737173.280   108974800.500       -2579.596          48.000  
G30  22095670.742   116113551.774       -1879.216          42.000  
R 2  23316465.534   124421214.6762       2536.198          34.000  
S38  39336500.702   206714764.196        -275.239          41.000  
R11  20710404.228   110670361.306         458.618          44.000  
R 1  20725169.149   110788152.055       -1064.594          43.000  
G15  22772310.124   119669450.749        2402.682          48.000  
R 8  21537802.232   115334125.154       -3952.366          45.000  
R20  21408203.885   114479422.403        -624.352          42.000  
R21  21061606.988   112704975.095        2827.254          48.000  
R10  21286290.066   113467960.751       -1554.324          42.000  
S20  37816565.063   198727406.828        -204.434          40.000  
> 2017 11 25 12 57 57.1999998  0 19                     
G 5  23958286.288   125901713.454       -2648.645          42.000  
G 7  24492058.434   128706652.794       -2660.175          42.000  
G13  20589753.282   108200107.008         882.723          48.000  
R12  23520694.622   125643407.989        1736.169          40.000  
G17  20627632.156   108399188.901        1411.021          47.000  
G19  21717911.918   114128569.370        2216.582          47.000  
G20  24531331.929   128913232.593       -1238.909          36.000  
G28  20737271.420   108975316.436       -2580.090          48.000  
G30  22095742.218   116113927.577       -1879.123          42.000  
R 2  23316372.001   124420707.4072       2536.156          37.000  
S38  39336511.102   206714819.264        -275.630          40.000  
R11  20710386.987   110670269.580         458.752          44.000  
R 1  20725209.076   110788365.123       -1065.064          44.000  
G15  22772218.720   119668970.204        2402.153          48.000  
R 8  21537949.896   115334915.798       -3953.229          44.000  
R20  21408227.129   114479547.273        -624.684          42.000  
R21  21061501.135   112704409.663        2826.666          49.000  
R10  21286348.385   113468271.482       -1553.739          42.000  
S20  37816572.637   198727447.525        -203.908          40.000  
> 2017 11 25 12 57 57.3999998  0 19                     
G 5  23958387.150   125902243.308       -2649.457          43.000  
G 7  24492159.785   128707184.873       -2660.112          44.000  
G13  20589719.604   108199930.391         883.284          47.000  
R12  23520629.567   125643060.612        1737.241          40.000  
G17  20627578.444   108398906.668        1411.206          48.000  
G19  21717827.669   114128126.153        2216.339          48.000  
G20  24531379.010   128913480.236       -1238.029          38.000  
G28  20737369.560   108975832.366       -2579.657          48.000  
G30  22095813.624   116114303.333       -1878.578          42.000  
R 2  23316277.665   124420200.1162       2536.009          38.000  
S38  39336521.432   206714874.313        -274.738          40.000  
R11  20710369.816   110670177.884         459.137          44.000  
R 1  20725248.967   110788578.187       -1065.234          44.000  
G15  22772127.351   119668489.664        2402.739          48.000  
R 8  21538097.559   115335706.390       -3953.786          44.000  
R20  21408250.372   114479672.192        -624.583          43.000  
R21  21061395.386   112703844.204        2827.440          49.000  
R10  21286406.669   113468582.224       -1553.416          42.000  
S20  37816580.350   198727488.251        -203.027          40.000  
> 2017 11 25 12 57 57.5999998  0 19                     
G 5  23958487.907   125902773.139       -2649.506          42.000  
G 7  24492260.822   128707716.948       -2660.790          43.000  
G13  20589685.855   108199753.807         882.978          47.000  
R12  23520564.653   125642713.225        1736.951          40.000  
G17  20627525.047   108398624.456        1410.923          48.000  
G19  21717743.489   114127682.963        2215.694          48.000  
G20  24531426.195   128913727.916       -1238.553          38.000  
G28  20737467.735   108976348.337       -2580.176          47.000  
G30  22095885.135   116114679.200       -1879.417          42.000  
R 2  23316186.156   124419692.9052       2536.102          38.000  
S38  39336532.077   206714929.398        -275.358          40.000  
R11  20710352.365   110670086.224         458.112          44.000  
R 1  20725288.858   110788791.288       -1065.747          44.000  
G15  22772035.877   119668009.184        2402.616          48.000  
R 8  21538245.223   115336496.985       -3952.877          44.000  
R20  21408273.721   114479797.172        -625.243          43.000  
R21  21061289.952   112703278.830        2826.845          49.000  
R10  21286464.917   113468893.013       -1554.021          43.000  
S20  37816588.377   198727529.034        -204.203          40.000  
> 2017 11 25 12 57 57.7999998  0 19                     
G 5  23958588.839   125903303.031       -2649.725          42.000  
G 7  24492362.382   128708248.999       -2659.905          43.000  
G13  20589652.350   108199577.302         882.056          47.000  
R12  23520499.633   125642365.962        1736.298          39.000  
G17  20627471.335   108398342.322        1410.219          47.000  
G19  21717659.135   114127239.766        2215.246          48.000  
G20  24531473.311   128913975.571       -1238.049          38.000  
G28  20737566.015   108976864.349       -2579.907          47.000  
G30  22095956.821   116115055.022       -1879.152          42.000  
R 2  23316094.298   124419185.7932       2535.226          38.000  
S38  39336542.512   206714984.482        -275.713          40.000  
R11  20710335.125   110669994.592         458.289          44.000  
R 1  20725328.819   110789004.453       -1065.826          43.000  
G15  22771944.403   119667528.752        2402.066          47.000  
R 8  21538392.922   115337287.628       -3953.301          44.000  
R20  21408297.034   114479922.186        -625.138          43.000  
R21  21061184.099   112702713.432        2826.685          48.000  
R10  21286523.201   113469203.837       -1553.990          42.000  
S20  37816596.090   198727569.770        -204.329          40.000  
> 2017 11 25 12 57 57.9999998  0 19                     
G 5  23958689.562   125903832.967       -2650.433          44.000  
G 7  24492463.523   128708781.246       -2661.400          39.000  
G13  20589618.776   108199400.880         882.184          48.000  
R12  23520434.753   125642018.754        1736.227          41.000  
G17  20627417.588   108398060.251        1410.481          47.000  
G19  21717574.710   114126796.632        2215.541          48.000  
G20  24531520.426   128914223.423       -1240.594          37.000  
G28  20737664.295   108977380.486       -2580.591          48.000  
G30  22096028.472   116115431.005       -1880.116          42.000  
R 2  23316002.719   124418678.7812       2534.379          38.000  
S38  39336552.843   206715039.548        -275.399          42.000  
R11  20710317.919   110669903.071         457.745          45.000  
R 1  20725368.605   110789217.764       -1066.742          44.000  
G15  22771852.998   119667048.424        2401.451          48.000  
R 8  21538540.725   115338078.332       -3953.822          45.000  
R20  21408320.417   114480047.379        -626.560          43.000  
R21  21061078.491   112702148.182        2826.470          48.000  
R10  21286581.624   113469514.789       -1554.824          43.000  
S20  37816603.768   198727610.570        -203.698          40.000  
> 2017 11 25 12 57 58.3999998  0 19                     
G 5  23958891.391   125904892.825       -2650.018          43.000  
G 7  24492666.190   128709845.520       -2661.399          42.000  
G13  20589551.523   108199048.086         881.286          47.000  
R12  23520304.575   125641324.260        1736.274          40.000  
G17  20627310.409   108397496.186        1409.545          47.000  
G19  21717406.246   114125910.492        2215.080          47.000  
G20  24531614.518   128914719.013       -1239.642          35.000  
G28  20737860.784   108978412.691       -2581.232          48.000  
G30  22096171.319   116116182.857       -1879.958          42.000  
R 2  23315814.327   124417664.6802       2534.064          36.000  
S38  39336573.923   206715149.857        -276.250          42.000  
R11  20710283.332   110669719.972         457.593          43.000  
R 1  20725448.283   110789644.409       -1066.980          44.000  
G15  22771670.120   119666087.740        2401.307          48.000  
R 8  21538835.983   115339659.871       -3954.423          45.000  
R20  21408367.149   114480297.704        -626.000          42.000  
R21  21060867.238   112701017.667        2826.126          49.000  
R10  21286698.297   113470136.579       -1555.199          44.000  
S20  37816619.264   198727692.256        -204.624          40.000  
> 2017 11 25 12 57 58.5999998  0 19                     
G 5  23958992.358   125905422.793       -2649.713          43.000  
G 7  24492767.332   128710377.716       -2660.266          42.000  
G13  20589517.914   108198871.721         881.842          47.000  
R12  23520239.520   125640977.093        1735.743          39.000  
G17  20627256.627   108397214.255        1409.711          47.000  
G19  21717321.857   114125467.473        2215.608          47.000  
G20  24531661.738   128914966.836       -1239.015          35.000  
G28  20737959.168   108978928.800       -2580.756          48.000  
G30  22096242.795   116116558.795       -1879.548          42.000  
R 2  23315716.641   124417157.6812       2533.389          33.000  
S38  39336584.497   206715205.020        -275.369          41.000  
R11  20710266.161   110669628.407         457.318          44.000  
R 1  20725488.174   110789857.799       -1067.511          44.000  
G15  22771578.786   119665607.411        2401.567          48.000  
R 8  21538983.577   115340450.665       -3954.496          44.000  
R20  21408390.602   114480422.953        -626.835          42.000  
R21  21060761.560   112700452.504        2825.602          49.000  
R10  21286756.650   113470447.476       -1554.929          44.000  
S20  37816627.081   198727733.163        -204.621          40.000  
> 2017 11 25 12 57 58.7999998  0 19                     
G 5  23959093.186   125905952.828       -2650.244          42.000  
G 7  24492868.508   128710909.894       -2661.437          42.000  
G13  20589484.549   108198695.435         881.254          47.000  
R12  23520174.501   125640629.863        1735.651          40.000  
G17  20627202.776   108396932.328        1409.198          46.000  
G19  21717237.607   114125024.539        2214.649          47.000  
G20  24531708.888   128915214.723       -1239.470          38.000  
G28  20738057.343   108979444.974       -2581.049          48.000  
G30  22096314.341   116116934.799       -1880.472          42.000  
R 2  23315620.246   124416650.6402       2534.285          33.000  
S38  39336594.793   206715260.235        -276.816          41.000  
R11  20710248.955   110669536.859         457.043          44.000  
R 1  20725528.205   110790071.257       -1067.304          44.000  
G15  22771487.382   119665127.185        2400.923          48.000  
R 8  21539131.310   115341241.517       -3954.509          45.000  
R20  21408413.916   114480548.217        -626.742          42.000  
R21  21060655.776   112699887.350        2825.317          48.000  
R10  21286815.213   113470758.359       -1554.691          44.000  
S20  37816634.829   198727774.042        -204.438          40.000  
> 2017 11 25 12 57 58.9999998  0 19                     
G 5  23959193.804   125906482.861       -2649.353          40.000  
G 7  24492969.894   128711442.295       -2662.205          43.000  
G13  20589451.114   108198519.205         880.936          48.000  
R12  23520109.481   125640282.740        1736.823          41.000  
G17  20627149.169   108396650.509        1409.013          47.000  
G19  21717153.148   114124581.642        2213.825          47.000  
G20  24531756.179   128915462.705       -1240.155          35.000  
G28  20738155.483   108979961.222       -2581.415          48.000  
G30  22096385.957   116117310.889       -1880.479          43.000  
R 2  23315521.826   124416143.7142       2535.144          32.000  
S38  39336605.368   206715315.386        -275.969          42.000  
R11  20710231.715   110669445.430         457.068          44.000  
R 1  20725568.027   110790284.783       -1067.713          44.000  
G15  22771396.012   119664646.956        2401.183          48.000  
R 8  21539278.904   115342032.393       -3955.066          45.000  
R20  21408437.369   114480673.655        -627.032          42.000  
R21  21060550.063   112699322.307        2825.118          48.000  
R10  21286873.532   113471069.367       -1554.742          42.000  
S20  37816642.577   198727815.028        -204.780          41.000  
> 2017 11 25 12 57 59.1999998  0 19                     
G 5  23959294.736   125907013.070       -2650.952          43.000  
G 7  24493071.070   128711974.507       -2661.307          42.000  
G13  20589417.470   108198343.033         880.791          47.000  
R12  23520044.566   125639935.709        1734.207          39.000  
G17  20627095.527   108396368.754        1408.826          48.000  
G19  21717068.794   114124138.791        2214.134          47.000  
G20  24531803.329   128915710.567       -1240.146          35.000  
G28  20738253.693   108980477.519       -2581.323          48.000  
G30  22096457.607   116117687.030       -1880.781          43.000  
R 2  23315425.396   124415637.0032       2533.094          29.000  
S38  39336616.013   206715370.644        -276.305          42.000  
R11  20710214.509   110669354.013         456.598          44.000  
R 1  20725608.022   110790498.408       -1068.555          44.000  
G15  22771304.748   119664166.808        2400.547          47.000  
R 8  21539426.463   115342823.309       -3954.452          44.000  
R20  21408460.752   114480799.143        -627.661          42.000  
R21  21060444.350   112698757.310        2824.853          49.000  
R10  21286931.815   113471380.402       -1555.306          41.000  
S20  37816650.325   198727856.052        -205.219          41.000  
> 2017 11 25 12 57 59.3999998  0 19                     
G 5  23959395.563   125907543.169       -2652.191          44.000  
G 7  24493172.526   128712507.020       -2661.890          43.000  
G13  20589383.687   108198166.946         880.240          47.000  
R12  23519979.442   125639588.580        1734.995          39.000  
G17  20627041.745   108396087.073        1408.078          47.000  
G19  21716984.614   114123696.000        2213.579          48.000  
G20  24531850.584   128915958.697       -1240.753          38.000  
G28  20738351.938   108980993.903       -2581.781          48.000  
G30  22096529.153   116118063.174       -1880.663          43.000  
R 2  23315328.722   124415130.2032       2533.718          33.000  
S38  39336626.518   206715425.936        -276.980          42.000  
R11  20710197.303   110669262.625         457.220          45.000  
R 1  20725647.879   110790712.062       -1068.652          44.000  
G15  22771213.483   119663686.719        2400.606          48.000  
R 8  21539574.197   115343614.311       -3954.740          44.000  
R20  21408484.240   114480924.717        -628.154          42.000  
R21  21060338.950   112698192.350        2824.462          49.000  
R10  21286990.099   113471691.516       -1555.780          41.000  
S20  37816658.073   198727897.064        -205.609          41.000  
> 2017 11 25 12 57 59.5999998  0 19                     
G 5  23959496.460   125908073.256       -2651.044          44.000  
G 7  24493273.667   128713039.401       -2662.687          43.000  
G13  20589350.182   108197990.878         880.291          48.000  
R12  23519914.562   125639241.527        1736.314          39.000  
G17  20626988.068   108395805.426        1408.178          47.000  
G19  21716900.294   114123253.225        2213.608          49.000  
G20  24531897.735   128916206.685       -1239.784          37.000  
G28  20738450.148   108981510.291       -2582.593          48.000  
G30  22096600.839   116118439.415       -1881.482          43.000  
R 2  23315231.734   124414623.5632       2532.776          33.000  
S38  39336637.127   206715481.233        -276.038          42.000  
R11  20710180.202   110669171.299         457.489          44.000  
R 1  20725687.700   110790925.757       -1067.926          44.000  
G15  22771122.183   119663206.681        2400.261          48.000  
R 8  21539722.035   115344405.357       -3955.047          44.000  
R20  21408507.798   114481050.361        -628.291          42.000  
R21  21060233.411   112697627.474        2824.065          49.000  
R10  21287048.453   113472002.614       -1556.057          44.000  
S20  37816665.821   198727938.139        -205.058          41.000  
